     2.11           OBSERVATION DATA    G                   RINEX VERSION / TYPE
SpecSurv v4.22                          16-Jun-25 11:47     PGM / RUN BY / DATE 
gfzrnx-2.1.12       FILE PROCESSING     20250618 013428 UTC COMMENT             
00062970                                                    MARKER NAME         
                                                            MARKER NUMBER       
                                                            OBSERVER / AGENCY   
07430006                                169-614678-005      REC # / TYPE / VERS 
                    <None>          NONE                    ANT # / TYPE        
        1.6210        0.0000        0.0000                  ANTENNA: DELTA H/E/N
  3983111.1141 -4353255.8644 -2415209.4077                  APPROX POSITION XYZ 
     2    C1    L1                                          # / TYPES OF OBSERV 
     1     1                                                WAVELENGTH FACT L1/2
     1     0     7   G 6   G11   G12   G13   G14   G15   G17WAVELENGTH FACT L1/2
     1     0     4   G19   G22   G24   G30                  WAVELENGTH FACT L1/2
GFZRNX.NUM_EPOCHS: 513                                      COMMENT
    11                                                      # OF SATELLITES     
   G06   439   439                                          PRN / # OF OBS      
   G11   513   513                                          PRN / # OF OBS      
   G12   301   267                                          PRN / # OF OBS      
   G13   512   512                                          PRN / # OF OBS      
   G14    68    61                                          PRN / # OF OBS      
   G15   419   417                                          PRN / # OF OBS      
   G17   502   491                                          PRN / # OF OBS      
   G19   513   513                                          PRN / # OF OBS      
   G22   370   352                                          PRN / # OF OBS      
   G24   304   302                                          PRN / # OF OBS      
   G30   394   373                                          PRN / # OF OBS      
    10.000                                                  INTERVAL            
  2025    10    20    17    43    0.0000000     GPS         TIME OF FIRST OBS   
  2025    10    20    19     8   20.0000000     GPS         TIME OF LAST OBS    
                                                            END OF HEADER      
 25 10 20 17 43 00.0000000  0  5G11G13G17G19G30                     
  24999928.143      992154.0520 
  20178152.066     1017012.6990 
  21025099.272     1027793.1450 
  19981192.475     1017456.8370 
  22862331.438     1029122.5010 
 25 10 20 17 43 10.0000000  0  5G11G13G17G19G30                     
  24994953.785      922252.7640 
  20179032.170      977883.6750 
  21028510.386     1001962.3290 
  19982177.036      978876.6810 
  22866049.484     1004908.7690 
 25 10 20 17 43 20.0000000  0  5G11G13G17G19G30                     
  24989974.243      852334.7650 
  20179924.978      938827.4540 
  21031931.342      976191.9990 
  19983174.301      940370.0510 
  22869772.651      980730.3150 
 25 10 20 17 43 30.0000000  0  5G11G13G17G19G30                     
  24984992.168      782399.9440 
  20180832.281      899843.7990 
  21035364.360      950481.8560 
  19984186.347      901936.7260 
  22873503.443      956587.0310 
 25 10 20 17 43 40.0000000  0  5G11G13G17G19G30                     
  24980005.409      712448.1450 
  20181751.927      860932.5210 
  21038808.005      924831.5260 
  19985211.023      863576.3580 
  22877240.855      932478.5750 
 25 10 20 17 43 50.0000000  0  5G11G13G17G19G30                     
  24975014.454      642478.6300 
  20182684.262      822092.7240 
  21042261.333      899240.1580 
  19986248.244      825288.0930 
  22880983.229      908404.1430 
 25 10 20 17 44 00.0000000  0  5G11G13G17G19G30                     
  24970018.787      572489.4520 
  20183630.201      783322.3500 
  21045725.976      873705.7030 
  19987298.640      787070.0010 
  22884730.621      884361.7720 
 25 10 20 17 44 10.0000000  0  5G11G13G17G19G30                     
  24965018.939      502484.0570 
  20184589.129      744624.8170 
  21049201.606      848231.4620 
  19988363.313      748925.2980 
  22888485.709      860354.7910 
 25 10 20 17 44 20.0000000  0  5G11G13G17G19G30                     
  24960015.355      432462.5370 
  20185561.922      706000.1330 
  21052687.665      822817.3630 
  19989440.850      710853.9690 
  22892246.219      836383.2710 
 25 10 20 17 44 30.0000000  0  5G11G13G17G19G30                     
  24955009.584      362421.7240 
  20186548.126      667445.0660 
  21056185.132      797460.1600 
  19990532.655      672852.8100 
  22896014.559      812443.9710 
 25 10 20 17 44 40.0000000  0  5G11G13G17G19G30                     
  24949999.498      292360.7710 
  20187546.756      628958.5970 
  21059692.306      772158.6660 
  19991636.744      634920.8300 
  22899788.027      788535.9270 
 25 10 20 17 44 50.0000000  0  5G11G13G17G19G30                     
  24944984.855      222280.2170 
  20188558.000      590541.2040 
  21063209.090      746913.3350 
  19992752.731      597058.4420 
  22903566.670      764659.6270 
 25 10 20 17 45 00.0000000  0  5G11G13G17G19G30                     
  24939962.322      152180.2630 
  20189579.240      552192.8600 
  21066735.011      721724.1420 
  19993879.716      559265.6070 
  22907347.581      740815.0710 
 25 10 20 17 45 10.0000000  0  5G11G13G17G19G30                     
  24934937.248       82060.5610 
  20190613.680      513913.2660 
  21070271.413      696590.7270 
  19995020.616      521542.0530 
  22911134.679      717002.0310 
 25 10 20 17 45 20.0000000  0  5G11G13G17G19G30                     
  24929911.147       11920.6050 
  20191662.261      475701.7450 
  21073818.379      671512.4770 
  19996175.085      483887.0100 
  22914930.196      693219.7520 
 25 10 20 17 45 30.0000000  0  5G11G13G17G19G30                     
  24924879.149      -58238.2850 
  20192721.829      437559.4870 
  21077374.471      646490.2250 
  19997340.970      446301.7060 
  22918729.259      669469.5440 
 25 10 20 17 45 40.0000000  0  5G11G13G17G19G30                     
  24919840.976     -128416.2520 
  20193792.250      399486.2830 
  21080939.272      621523.7780 
  19998517.566      408785.8820 
  22922531.448      645751.1240 
 25 10 20 17 45 50.0000000  0  5G11G13G17G19G30                     
  24914797.234     -198614.0040 
  20194873.415      361481.2840 
  21084512.811      596612.3380 
  19999704.905      371338.7420 
  22926336.797      622063.7390 
 25 10 20 17 46 00.0000000  0  5G11G13G17G19G30                     
  24909750.148     -268831.2850 
  20195968.836      323544.8610 
  21088097.745      571755.9680 
  20000906.214      333960.4270 
  22930149.533      598407.6040 
 25 10 20 17 46 10.0000000  0  5G11G13G17G19G30                     
  24904697.993     -339068.0250 
  20197075.929      285676.7330 
  21091691.490      546954.5770 
  20002119.338      296650.8150 
  22933966.072      574782.6290 
 25 10 20 17 46 20.0000000  0  5G11G13G17G19G30                     
  24899643.288     -409324.6300 
  20198198.789      247876.4380 
  21095298.426      522207.6290 
  20003348.086      259409.3370 
  22937792.224      551188.3990 
 25 10 20 17 46 30.0000000  0  5G11G13G17G19G30                     
  24894584.607     -479599.8030 
  20199333.126      210145.3050 
  21098914.549      497516.3480 
  20004588.454      222237.2100 
  22941622.985      527626.1710 
 25 10 20 17 46 40.0000000  0  5G11G13G17G19G30                     
  24889520.795     -549892.8480 
  20200477.643      172483.8250 
  21102538.706      472881.0990 
  20005840.147      185135.0720 
  22945456.629      504096.4450 
 25 10 20 17 46 50.0000000  0  5G11G13G17G19G30                     
  24884454.238     -620204.2570 
  20201636.729      134891.4600 
  21106173.855      448301.2780 
  20007106.409      148102.3560 
  22949297.831      480598.7390 
 25 10 20 17 47 00.0000000  0  5G11G13G17G19G30                     
  24879386.779     -690533.8740 
  20202812.085       97368.2020 
  21109822.125      423777.0810 
  20008388.082      111139.0160 
  22953148.003      457133.0360 
 25 10 20 17 47 10.0000000  0  5G11G13G17G19G30                     
  24874312.469     -760882.6660 
  20203999.620       59912.9550 
  21113480.285      399307.1730 
  20009681.649       74243.9490 
  22957003.201      433698.2920 
 25 10 20 17 47 20.0000000  0  5G11G13G17G19G30                     
  24869233.649     -831250.8900 
  20205197.528       22525.4260 
  21117146.386      374891.0960 
  20010985.588       37416.7310 
  22960862.190      410294.2300 
 25 10 20 17 47 30.0000000  0  5G11G13G17G19G30                     
  24864152.902     -901637.9880 
  20206410.536      -14794.0360 
  21120824.868      350529.2170 
  20012305.199         657.7890 
  22964729.410      386921.3290 
 25 10 20 17 47 40.0000000  0  5G11G13G17G19G30                     
  24859068.663     -972043.7020 
  20207634.218      -52045.1410 
  21124511.305      326221.7140 
  20013636.057      -36032.7070 
  22968601.437      363579.7300 
 25 10 20 17 47 50.0000000  0  5G11G13G17G19G30                     
  24853979.805    -1042468.2860 
  20208874.601      -89228.3220 
  21128212.583      301968.0900 
  20014983.616      -72655.2390 
  22972482.010      340269.1010 
 25 10 20 17 48 00.0000000  0  5G11G13G17G19G30                     
  24848884.671    -1112912.2500 
  20210123.019     -126344.1330 
  21131919.034      277767.8500 
  20016339.353     -109210.2700 
  22976361.458      316988.7910 
 25 10 20 17 48 10.0000000  0  5G11G13G17G19G30                     
  24843782.596    -1183375.2650 
  20211378.518     -163392.4630 
  21135630.706      253620.9640 
  20017702.314     -145697.7270 
  22980240.977      293739.1320 
 25 10 20 17 48 20.0000000  0  5G11G13G17G19G30                     
  24838680.530    -1253857.1120 
  20212651.197     -200373.1570 
  21139355.980      229527.6100 
  20019081.596     -182117.4340 
  22984133.669      270520.2360 
 25 10 20 17 48 30.0000000  0  5G11G13G17G19G30                     
  24833575.460    -1324356.8320 
  20213937.900     -237285.3640 
  21143091.988      205488.6250 
  20020474.760     -218468.4800 
  22988031.800      247332.9180 
 25 10 20 17 48 40.0000000  0  5G11G13G17G19G30                     
  24828461.411    -1394875.1360 
  20215230.362     -274129.8910 
  21146832.180      181503.0550 
  20021873.683     -254751.8380 
  22991928.249      224176.4520 
 25 10 20 17 48 50.0000000  0  5G11G13G17G19G30                     
  24823347.949    -1465412.1290 
  20216539.725     -310907.0190 
  21150585.267      157570.8050 
  20023289.362     -290967.7660 
  22995835.159      201050.5840 
 25 10 20 17 49 00.0000000  0  5G11G13G17G19G30                     
  24818229.392    -1535967.9090 
  20217860.162     -347616.7860 
  21154346.852      133691.4060 
  20024716.832     -327116.3150 
  22999745.273      177955.2420 
 25 10 20 17 49 10.0000000  0  5G11G13G17G19G30                     
  24813103.910    -1606542.4740 
  20219190.843     -384259.4830 
  21158116.821      109864.6600 
  20026154.975     -363197.7690 
  23003658.764      154890.1630 
 25 10 20 17 49 20.0000000  0  5G11G13G17G19G30                     
  24807981.126    -1677136.4120 
  20220539.249     -420835.7410 
  21161901.081       86089.8800 
  20027610.843     -399212.8480 
  23007585.543      131854.8700 
 25 10 20 17 49 30.0000000  0  5G11G13G17G19G30                     
  24802851.169    -1747750.3940 
  20221898.940     -457346.2880 
  21165693.334       62366.1510 
  20029076.422     -435162.3600 
  23011513.877      108848.5710 
 25 10 20 17 49 40.0000000  0  5G11G13G17G19G30                     
  24797713.714    -1818383.5030 
  20223267.731     -493790.3710 
  21169492.112       38694.2280 
  20030551.387     -471045.5920 
  23015441.581       85871.9760 
 25 10 20 17 49 50.0000000  0  5G11G13G17G19G30                     
  24792581.589    -1889036.0390 
  20224659.453     -530168.4490 
  21173310.102       15073.6730 
  20032049.713     -506862.9270 
  23019389.927       62924.6980 
 25 10 20 17 50 00.0000000  0  5G11G13G17G19G30                     
  24787442.567    -1959708.7930 
  20226058.158     -566481.4060 
  21177134.357       -8496.3680 
  20033555.451     -542615.1860 
  23023340.533       40006.0010 
 25 10 20 17 50 10.0000000  0  5G11G13G17G19G30                     
  24782297.456    -2030401.8920 
  20227467.229     -602729.5080 
  21180966.547      -32016.3040 
  20035070.982     -578302.7830 
  23027292.491       17115.4910 
 25 10 20 17 50 20.0000000  0  5G11G13G17G19G30                     
  24777147.899    -2101114.7580 
  20228888.167     -638912.2040 
  21184807.312      -55485.7480 
  20036597.808     -613925.1510 
  23031249.017       -5746.2330 
 25 10 20 17 50 30.0000000  0  5G11G13G17G19G30                     
  24771996.031    -2171845.9950 
  20230323.536     -675028.2540 
  21188658.073      -78903.3940 
  20038139.065     -649481.0930 
  23035211.533      -28577.8500 
 25 10 20 17 50 40.0000000  0  5G11G13G17G19G30                     
  24766839.203    -2242595.6590 
  20231769.827     -711077.8030 
  21192518.039     -102269.3820 
  20039691.674     -684970.8010 
  23039177.386      -51379.4700 
 25 10 20 17 50 50.0000000  0  5G11G13G17G19G30                     
  24761675.415    -2313363.5900 
  20233224.899     -747060.8680 
  21196385.784     -125583.8170 
  20041253.778     -720394.2580 
  23043146.441      -74151.1890 
 25 10 20 17 51 00.0000000  0  5G11G13G17G19G30                     
  24756513.904    -2384151.2620 
  20234699.277     -782979.0660 
  21200269.113     -148848.4970 
  20042836.333     -755753.0410 
  23047129.792      -96894.4710 
 25 10 20 17 51 10.0000000  0  5G11G13G17G19G30                     
  24751350.495    -2454957.9820 
  20236188.926     -818831.6120 
  21204163.280     -172062.7520 
  20044432.300     -791046.4650 
  23051120.545     -119608.6100 
 25 10 20 17 51 20.0000000  0  5G11G13G17G19G30                     
  24746179.388    -2525783.7070 
  20237683.900     -854618.8070 
  21208060.481     -195226.7850 
  20046033.734     -826274.6900 
  23055108.609     -142293.7910 
 25 10 20 17 51 30.0000000  0  5G11G13G17G19G30                     
  24741006.661    -2596629.4560 
  20239194.567     -890341.6240 
  21211971.372     -218341.7710 
  20047651.577     -861439.0220 
  23059107.645     -164951.0460 
 25 10 20 17 51 40.0000000  0  5G11G13G17G19G30                     
  24735829.728    -2667493.7280 
  20240716.482     -925998.7950 
  21215888.932     -241406.3180 
  20049278.951     -896538.0800 
  23063109.200     -187579.0490 
 25 10 20 17 51 50.0000000  0  5G11G13G17G19G30                     
  24730651.238    -2738376.7180 
  20242254.155     -961590.6230 
  21219818.386     -264420.8660 
  20050921.796     -931572.0590 
  23067118.786     -210178.0080 
 25 10 20 17 52 00.0000000  0  5G11G13G17G19G30                     
  24725467.986    -2809279.2960 
  20243803.664     -997118.1030 
  21223758.246     -287386.4390 
  20052577.766     -966542.0730 
  23071134.055     -232748.9230 
 25 10 20 17 52 10.0000000  0  5G11G13G17G19G30                     
  24720281.098    -2880200.6480 
  20245365.706    -1032580.5480 
  21227707.061     -310302.4370 
  20054245.410    -1001447.4570 
  23075154.988     -255291.1220 
 25 10 20 17 52 20.0000000  0  5G11G13G17G19G30                     
  24715090.136    -2951140.6080 
  20246939.988    -1067978.0040 
  21231665.826     -333168.7870 
  20055925.436    -1036288.1360 
  23079180.864     -277804.4800 
 25 10 20 17 52 30.0000000  0  5G11G13G17G19G30                     
  24709895.805    -3022099.5300 
  20248524.637    -1103310.7410 
  21235631.811     -355985.9290 
  20057615.973    -1071064.5450 
  23083210.524     -300289.3740 
 25 10 20 17 52 40.0000000  0  5G11G13G17G19G30                     
  24704698.621    -3093077.7350 
  20250122.029    -1138579.1910 
  21239607.678     -378754.5190 
  20059319.254    -1105777.2570 
  23087246.776     -322746.2870 
 25 10 20 17 52 50.0000000  0  5G11G13G17G19G30                     
  24699497.773    -3164075.2920 
  20251730.496    -1173783.6450 
  21243591.756     -401474.6900 
  20061033.466    -1140426.4650 
  23091287.376     -345175.3700 
 25 10 20 17 53 00.0000000  0  5G11G13G17G19G30                     
  24694290.736    -3235091.2790 
  20253349.946    -1208923.2190 
  21247584.672     -424145.7200 
  20062759.233    -1175011.3250 
  23095330.946     -367575.7230 
 25 10 20 17 53 10.0000000  0  5G11G13G17G19G30                     
  24689079.955    -3306124.6550 
  20254981.820    -1243997.0720 
  21251585.719     -446766.7080 
  20064496.566    -1209531.0270 
  23099378.641     -389946.5220 
 25 10 20 17 53 20.0000000  0  5G11G13G17G19G30                     
  24683864.795    -3377175.1750 
  20256624.341    -1279005.0870 
  21255595.839     -469337.8050 
  20066244.545    -1243985.4510 
  23103430.973     -412287.5230 
 25 10 20 17 53 30.0000000  0  5G11G13G17G19G30                     
  24678647.210    -3448243.4330 
  20258281.464    -1313947.9460 
  21259616.554     -491859.2880 
  20068005.267    -1278375.2900 
  23107491.325     -434599.4950 
 25 10 20 17 53 40.0000000  0  5G11G13G17G19G30                     
  24673426.196    -3519329.3920 
  20259951.328    -1348825.8050 
  21263646.719     -514331.6970 
  20069779.731    -1312700.6110 
  23111557.120     -456882.4300 
 25 10 20 17 53 50.0000000  0  5G11G13G17G19G30                     
  24668203.869    -3590432.3490 
  20261634.760    -1383637.9470 
  21267688.021     -536754.6020 
  20071568.479    -1346960.9420 
  23115631.189     -479135.7520 
 25 10 20 17 54 00.0000000  0  5G11G13G17G19G30                     
  24662976.793    -3661552.6740 
  20263329.326    -1418385.0790 
  21271737.451     -559128.3350 
  20073368.218    -1381156.7710 
  23119708.236     -501359.9290 
 25 10 20 17 54 10.0000000  0  5G11G13G17G19G30                     
  24657747.727    -3732690.9240 
  20265038.645    -1453067.7630 
  21275798.628     -581453.6360 
  20075183.281    -1415288.8200 
  23123793.882     -523555.6040 
 25 10 20 17 54 20.0000000  0  5G11G13G17G19G30                     
  24652517.913    -3803846.6000 
  20266761.953    -1487685.6390 
  21279870.790     -603730.2690 
  20077012.907    -1449356.7290 
  23127888.366     -545722.3500 
 25 10 20 17 54 30.0000000  0  5G11G13G17G19G30                     
  24647279.820    -3875018.8780 
  20268492.866    -1522238.0270 
  21283947.695     -625957.5980 
  20078848.277    -1483359.6900 
  23131980.869     -567859.4850 
 25 10 20 17 54 40.0000000  0  5G11G13G17G19G30                     
  24642039.782    -3946208.3130 
  20270237.860    -1556725.4990 
  21288034.818     -648136.2730 
  20080697.442    -1517298.4460 
  23136081.728     -589967.5630 
 25 10 20 17 54 50.0000000  0  7G11G12G13G17G19G22G30               
  24636798.721    -4017414.2460 
  24410167.875                  
  20271997.572    -1591147.5980 
  21292132.794     -670265.8770 
  20082560.609    -1551172.5540 
  21833642.709     1034065.4280 
  23140190.579     -612046.0950 
 25 10 20 17 55 00.0000000  0  8G11G12G13G14G17G19G22G30            
  24631554.789    -4088636.2720 
  24407284.817      990290.8100 
  20273769.151    -1625504.1250 
  23043985.689                  
  21296239.490     -692346.1500 
  20084435.930    -1584981.7740 
  21836697.823     1006456.5710 
  23144304.144     -634094.8270 
 25 10 20 17 55 10.0000000  0  8G11G12G13G14G17G19G22G30            
  24626302.354    -4159873.7190 
  24404396.547      931496.9970 
  20275547.967    -1659794.4640 
  23047834.043     1018107.4530 
  21300351.420     -714376.5890 
  20086318.201    -1618725.5780 
  21839749.727      978855.6020 
  23148418.363     -656113.0310 
 25 10 20 17 55 20.0000000  0  9G06G11G12G13G14G17G19G22G30         
  23402225.534     1008047.8830 
  24621059.917    -4231126.4800 
  24401528.004      872719.7190 
  20277351.661    -1694018.5800 
  23051691.822      994680.6490 
  21304484.508     -736357.2180 
  20088226.496    -1652403.9690 
  21842815.063      951262.5400 
  23152550.736     -678100.8050 
 25 10 20 17 55 30.0000000  0  9G06G11G12G13G14G17G19G22G30         
  23397624.637      940206.3190 
  24615808.523    -4302395.4110 
  24398654.655      813957.9710 
  20279160.853    -1728177.4650 
  23055542.792      971249.1450 
  21308620.088     -758289.1740 
  20090139.286    -1686017.9220 
  21845873.877      923676.2590 
  23156679.018     -700059.0270 
 25 10 20 17 55 40.0000000  0  9G06G11G12G13G14G17G19G22G30         
  23393023.500      872378.9810 
  24610548.735    -4373679.5790 
  24395781.354      755212.4700 
  20280978.534    -1762270.3480 
  23059390.804      947813.9830 
  21312760.866     -780171.6230 
  20092059.993    -1719566.6840 
  21848930.877      896097.7130 
  23160810.209     -721986.9410 
 25 10 20 17 55 50.0000000  0  9G06G11G12G13G14G17G19G22G30         
  23388421.879      804565.8310 
  24605285.313    -4444978.9910 
  24392910.143      696483.1310 
  20282808.322    -1796297.3820 
  23063237.473      924374.8890 
  21316910.317     -802004.5040 
  20093992.950    -1753050.4120 
  21851989.681      868526.7350 
  23164948.356     -743884.6190 
 25 10 20 17 56 00.0000000  0  9G06G11G12G13G14G17G19G22G30         
  23383824.974      736765.8490 
  24600021.314    -4516294.8150 
  24390041.502      637768.6910 
  20284652.270    -1830259.8690 
  23067083.135      900930.6960 
  21321071.640     -823789.4140 
  20095940.211    -1786470.4180 
  21855050.770      840961.9910 
  23169095.083     -765753.3050 
 25 10 20 17 56 10.0000000  0  9G06G11G12G13G14G17G19G22G30         
  23379229.053      668980.5150 
  24594753.433    -4587625.4560 
  24387175.849      579070.5130 
  20286506.791    -1864156.3880 
  23070926.060      877482.8090 
  21325240.529     -845525.0520 
  20097898.187    -1819825.3120 
  21858111.841      813404.9240 
  23173247.802     -787591.5120 
 25 10 20 17 56 20.0000000  0  9G06G11G12G13G14G17G19G22G30         
  23374636.281      601209.4450 
  24589480.831    -4658971.4030 
  24384314.775      520388.1810 
  20288373.187    -1897987.4120 
  23074766.696      854030.7090 
  21329417.431     -867212.1260 
  20099867.610    -1853115.7330 
  21861174.343      785854.9460 
  23177403.098     -809399.9090 
 25 10 20 17 56 30.0000000  0  9G06G11G12G13G14G17G19G22G30         
  23370047.353      533451.5190 
  24584205.062    -4730333.8720 
  24381455.828      461720.2530 
  20290251.728    -1931754.3930 
  23078606.884      830573.1780 
  21333603.185     -888851.8220 
  20101848.604    -1886342.9610 
  21864237.828      758310.8730 
  23181562.380     -831179.7450 
 25 10 20 17 56 40.0000000  0 10G06G11G12G13G14G15G17G19G22G30      
  23365458.224      465707.6760 
  24578926.230    -4801711.7590 
  24378599.972      403067.8250 
  20292141.515    -1965456.3680 
  23082445.583      807111.0410 
  22076127.030     1010583.1970 
  21337798.613     -910443.3340 
  20103841.560    -1919506.1970 
  21867300.826      730773.6010 
  23185725.898     -852930.0280 
 25 10 20 17 56 50.0000000  0 10G06G11G12G13G14G15G17G19G22G30      
  23360874.621      397978.6550 
  24573645.054    -4873104.5610 
  24375747.209      344431.0520 
  20294045.700    -1999092.9010 
  23086283.512      783644.7260 
  22074942.147      960722.1480 
  21342005.004     -931986.3530 
  20105848.486    -1952604.9700 
  21870366.774      703243.5000 
  23189897.661     -874650.2820 
 25 10 20 17 57 00.0000000  0 10G06G11G12G13G14G15G17G19G22G30      
  23356293.802      330263.7970 
  24568359.507    -4944512.8950 
  24372896.371      285809.3130 
  20295961.540    -2032664.8120 
  23090123.081      760173.6190 
  22073767.059      910916.6450 
  21346219.330     -953481.6330 
  20107866.780    -1985640.1120 
  21873433.360      675719.8640 
  23194071.921     -896341.2620 
 25 10 20 17 57 10.0000000  0 10G06G11G12G13G14G15G17G19G22G30      
  23351714.794      262563.0140 
  24563072.338    -5015936.8820 
  24370048.060      227202.3450 
  20297890.496    -2066172.3650 
  23093960.740      736697.4060 
  22072603.512      861166.5220 
  21350443.337     -974929.4970 
  20109897.331    -2018611.8620 
  21876501.614      648202.4210 
  23198253.430     -918003.1340 
 25 10 20 17 57 20.0000000  0 10G06G11G12G13G14G15G17G19G22G30      
  23347140.112      194876.6550 
  24557782.053    -5087376.1100 
  24367202.072      168610.5520 
  20299830.790    -2099615.3160 
  23097797.144      713216.5100 
  22071448.012                  
  21354675.820     -996329.6600 
  20111937.789    -2051519.9950 
  21879571.045      620691.4610 
  23202438.692     -939635.6660 
 25 10 20 17 57 30.0000000  0 10G06G11G12G13G14G15G17G19G22G30      
  23342570.821      127205.3610 
  24552489.718    -5158830.0490 
  24364360.043      110034.2780 
  20301784.630    -2132993.0980 
  23101631.069      689731.3210 
  22070307.489      761833.3390 
  21358918.558    -1017681.7530 
  20113993.796    -2084363.9950 
  21882642.147      593187.3650 
  23206634.067     -961238.4610 
 25 10 20 17 57 40.0000000  0 10G06G11G12G13G14G15G17G19G22G30      
  23337999.659       59549.1700 
  24547191.935    -5230298.6760 
  24361517.860       51473.3430 
  20303747.474    -2166305.9660 
  23105465.269      666241.7320 
  22069174.682      712250.6940 
  21363166.866    -1038985.9900 
  20116058.093    -2117144.1300 
  21885712.093      565690.0610 
  23210832.294     -982811.5840 
 25 10 20 17 57 50.0000000  0 10G06G11G12G13G14G15G17G19G22G30      
  23333431.548       -8091.9150 
  24541893.197    -5301782.0130 
  24358680.447       -7072.3640 
  20305723.243    -2199554.0200 
  23109297.370      642747.6640 
  22068054.658      662723.8820 
  21367424.666    -1060242.4610 
  20118134.885    -2149860.6580 
  21888782.945      538199.4820 
  23215036.004    -1004355.0790 
 25 10 20 17 58 00.0000000  0 10G06G11G12G13G14G15G17G19G22G30      
  23328863.981      -75717.8330 
  24536589.422    -5373279.9740 
  24355845.293      -65602.7560 
  20307710.145    -2232737.3290 
  23113128.011      619249.0420 
  22066942.331      613253.0570 
  21371690.449    -1081451.2900 
  20120222.809    -2182513.4660 
  21891854.340      510715.5620 
  23219244.121    -1025868.9470 
 25 10 20 17 58 10.0000000  0 10G06G11G12G13G14G15G17G19G22G30      
  23324302.429     -143328.4750 
  24531283.792    -5444792.5310 
  24353013.293     -124118.0390 
  20309710.788    -2265856.0120 
  23116958.656      595745.7420 
  22065837.594      563837.8880 
  21375966.111    -1102612.8810 
  20122324.618    -2215102.7180 
  21894929.890      483238.1400 
  23223458.826    -1047353.3930 
 25 10 20 17 58 20.0000000  0 10G06G11G12G13G14G15G17G19G22G30      
  23319742.035     -210924.1620 
  24525974.169    -5516320.0200 
  24350183.453     -182618.6180 
  20311723.035    -2298910.5070 
  23120780.301                  
  22064743.459      514478.1250 
  21380248.941    -1123727.5930 
  20124437.173    -2247628.8750 
  21898004.166      455766.8210 
  23227678.696    -1068808.7920 
 25 10 20 17 58 30.0000000  0  9G06G11G12G13G15G17G19G22G30         
  23315184.252     -278503.7940 
  24520661.290    -5587861.3560 
  24347357.369     -241103.4770 
  20313747.195    -2331899.8560 
  22063664.097      465174.8170 
  21384540.678    -1144794.5490 
  20126560.924    -2280090.9860 
  21901079.907      428302.5950 
  23231903.752    -1090234.0750 
 25 10 20 17 58 40.0000000  0 10G06G11G12G13G14G15G17G19G22G30      
  23310636.415     -346067.2520 
  24515352.633    -5659416.4820 
  24344537.653     -299572.8850 
  20315790.458    -2364824.1590 
  23128437.901     1038722.0830 
  22062603.125      415927.7730 
  21388850.088    -1165813.9030 
  20128703.923    -2312489.1720 
  21904162.305      400845.2440 
  23236140.758    -1111629.3940 
 25 10 20 17 58 50.0000000  0 10G06G11G12G13G14G15G17G19G22G30      
  23306082.531     -413615.1620 
  24510034.495    -5730986.0070 
  24341714.465     -358027.4760 
  20317837.118    -2397684.2340 
  23132265.196     1015201.0120 
  22061545.691      366736.2710 
  21393159.603    -1186786.3620 
  20130850.890    -2344824.2790 
  21907238.510      373394.1970 
  23240373.862    -1132995.4170 
 25 10 20 17 59 00.0000000  0 10G06G11G12G13G14G15G17G19G22G30      
  23301531.504     -481146.9380 
  24504713.920    -5802569.3900 
  24338894.422     -416466.7450 
  20319896.509    -2430479.6560 
  23136092.202      991675.5800 
  22060495.265      317600.8980 
  21397478.130    -1207711.6010 
  20133010.446    -2377095.8880 
  21910316.287      345949.9240 
  23244613.831    -1154331.7360 
 25 10 20 17 59 10.0000000  0 10G06G11G12G13G14G15G17G19G22G30      
  23296984.598     -548662.6400 
  24499390.025    -5874166.7000 
  24336079.643     -474890.9200 
  20321969.321    -2463210.5500 
  23139914.885      968145.6370 
  22059455.971      268521.4770 
  21401807.358    -1228589.8100 
  20135183.136    -2409304.3650 
  21913397.468      318512.2190 
  23248861.211    -1175638.4400 
 25 10 20 17 59 20.0000000  0 10G06G11G12G13G14G15G17G19G22G30      
  23292440.812     -616162.4910 
  24494063.525    -5945778.1790 
  24333267.412     -533300.3940 
  20324054.697    -2495877.3590 
  23143738.399      944610.8990 
  22058426.237      219497.6330 
  21406145.002    -1249421.4850 
  20137367.389    -2441449.9510 
  21916477.762      291080.6770 
  23253113.428    -1196915.9970 
 25 10 20 17 59 30.0000000  0 10G06G11G12G13G14G15G17G19G22G30      
  23287899.856     -683644.9420 
  24488732.416    -6017402.3290 
  24330456.009     -591693.7830 
  20326151.203    -2528478.7170 
  23147562.024      921072.6360 
  22057408.204      170530.8670 
  21410490.054    -1270205.2740 
  20139562.628    -2473531.2710 
  21919559.599      263656.7280 
  23257369.907    -1218162.8760 
 25 10 20 17 59 40.0000000  0 10G06G11G12G13G14G15G17G19G22G30      
  23283362.245     -751111.0590 
  24483401.504    -6089040.2890 
  24327647.378     -650072.4040 
  20328260.928    -2561015.8950 
  23151384.416      897529.7810 
  22056400.957      121619.8500 
  21414845.177    -1290942.5140 
  20141771.086    -2505549.6140 
  21922642.778      236239.0540 
  23261633.451    -1239380.4270 
 25 10 20 17 59 50.0000000  0 10G06G11G12G13G14G15G17G19G22G30      
  23278827.264     -818561.3030 
  24478066.782    -6160692.5090 
  24324842.092     -708436.7760 
  20330382.440    -2593489.4250 
  23155204.286      873981.6650 
  22055405.927       72764.0960 
  21419209.226    -1311633.7290 
  20143991.189    -2537505.6710 
  21925727.299      208827.0440 
  23265902.630    -1260569.0890 
 25 10 20 18 00 00.0000000  0 10G06G11G12G13G14G15G17G19G22G30      
  23274294.339     -885995.1310 
  24472729.823    -6232358.4460 
  24322038.290     -766786.4820 
  20332515.881    -2625898.9190 
  23159022.349      850428.8680 
  22054422.970       23963.9770 
  21423581.340    -1332278.6880 
  20146222.791    -2569399.0150 
  21928813.732      181421.1550 
  23270178.872    -1281728.4750 
 25 10 20 18 00 10.0000000  0 10G06G11G12G13G14G15G17G19G22G30      
  23269766.330     -953412.1630 
  24467390.769    -6304037.7900 
  24319236.827     -825121.3360 
  20334662.395    -2658244.2990 
  23162842.036      826871.4560 
  22053451.796      -24780.2200 
  21427962.949    -1352877.2710 
  20148467.465    -2601229.5550 
  21931901.361      154021.5650 
  23274459.745    -1302858.4600 
 25 10 20 18 00 20.0000000  0  9G06G11G12G14G15G17G19G22G30         
  23265238.826    -1020812.6050 
  24462048.786    -6375730.6490 
  24316438.447     -883441.6380 
  23166659.224      803309.2510 
  22052487.424      -73468.7430 
  21432351.217    -1373429.7550 
  20150721.804    -2632997.4540 
  21934987.636      126628.0760 
  23278744.271    -1323959.1600 
 25 10 20 18 00 30.0000000  0 10G06G11G12G13G14G15G17G19G22G30      
  23260714.350    -1088196.3850 
  24456704.966    -6447437.1150 
  24313643.809     -941747.6340 
  20338987.077    -2722743.6340 
  23170473.859      779742.1490 
  22051530.660     -122101.8040 
  21436747.521    -1393936.3940 
  20152987.898    -2664702.9610 
  21938075.507       99240.5210 
  23283031.253    -1345030.7260 
 25 10 20 18 00 40.0000000  0 10G06G11G12G13G14G15G17G19G22G30      
  23256195.138    -1155563.2260 
  24451359.254    -6519156.8400 
  24310849.569    -1000038.9430 
  20341169.002    -2754897.6570 
  23174288.320      756170.3170 
  22050585.167     -170679.2110 
  21441155.098    -1414397.0460 
  20155266.553    -2696346.1690 
  21941164.778       71859.0970 
  23287328.363    -1366073.0730 
 25 10 20 18 00 50.0000000  0 10G06G11G12G13G14G15G17G19G22G30      
  23251680.034    -1222913.8180 
  24446008.923    -6590890.6450 
  24308060.011    -1058316.5420 
  20343363.622    -2786988.7580 
  23178101.739      732592.8540 
  22049653.372     -219201.8170 
  21445572.079    -1434812.6580 
  20157557.331    -2727927.8350 
  21944257.014       44482.8240 
  23291630.583    -1387087.0250 
 25 10 20 18 01 00.0000000  0 10G06G11G12G13G14G15G17G19G22G30      
  23247166.549    -1290246.6900 
  24440655.059    -6662636.9360 
  24305272.214    -1116578.9910 
  20345570.020    -2819015.3620 
  23181915.631      709011.2300 
  22048731.923     -267668.0300 
  21449997.116    -1455181.9310 
  20159860.458    -2759446.6110 
  21947350.008       17113.2390 
  23295938.572    -1408071.1330 
 25 10 20 18 01 10.0000000  0 10G06G11G12G13G14G15G17G19G22G30      
  23242656.930    -1357562.3640 
  24435298.193    -6734396.3720 
  24302486.424                  
  20347787.152    -2850978.4660 
  23185727.809      685424.7120 
  22047820.780     -316078.6000 
  21454429.312    -1475505.6950 
  20162173.892    -2790903.2360 
  21950443.007      -10250.4080 
  23300251.142    -1429026.1520 
 25 10 20 18 01 20.0000000  0 10G06G11G12G13G14G15G17G19G22G30      
  23238150.693    -1424861.2440 
  24429939.701    -6806169.3670 
  24299704.731                  
  20350015.823    -2882878.5680 
  23189537.359      661832.8110 
  22046921.318     -364434.1820 
  21458869.754    -1495784.4670 
  20164499.149    -2822298.2790 
  21953536.382      -37608.7320 
  23304567.953    -1449952.5400 
 25 10 20 18 01 30.0000000  0 10G06G11G12G13G14G15G17G19G22G30      
  23233639.687    -1492140.9810 
  24424569.571    -6877953.6120 
  24296920.415                  
  20352248.739    -2914713.3960 
  23193338.133      638237.7440 
  22046022.095     -412732.3380 
  21463310.722    -1516016.2340 
  20166827.794    -2853629.6340 
  21956622.841      -64959.3580 
  23308883.000    -1470848.1610 
 25 10 20 18 01 40.0000000  0 10G06G11G12G13G14G15G17G19G22G30      
  23229139.539    -1559402.4260 
  24419203.716    -6949749.8860 
  24294140.375                  
  20354501.241    -2946484.0460 
  23197145.616      614638.6430 
  22045143.174     -460974.2290 
  21467767.841    -1536202.0160 
  20169176.168    -2884898.2460 
  21959718.012      -92303.3660 
  23313209.763    -1491713.9030 
 25 10 20 18 01 50.0000000  0  9G06G11G13G14G15G17G19G22G30         
  23224640.376    -1626645.9810 
  24413835.556    -7021558.7790 
  20356763.745    -2978191.1600 
  23200950.936      591034.8540 
  22044271.964     -509160.2800 
  21472231.241    -1556342.3870 
  20171534.257    -2916104.7160 
  21962812.309     -119641.3580 
  23317540.231    -1512550.3870 
 25 10 20 18 02 00.0000000  0  9G06G11G13G14G15G17G19G22G30         
  23220147.387    -1693870.2460 
  24408466.559    -7093378.8030 
  20359041.007    -3009833.4370 
  23204756.277      567427.6550 
  22043411.364     -557289.1940 
  21476705.394    -1576436.1810 
  20173905.817    -2947247.8260 
  21965910.203     -146972.1080 
  23321879.448    -1533356.3010 
 25 10 20 18 02 10.0000000  0  9G06G11G13G14G15G17G19G22G30         
  23215655.975    -1761075.4470 
  24403096.276    -7165210.2500 
  20361330.434    -3041411.2990 
  23208561.620      543816.6980 
  22042560.496     -605361.5320 
  21481188.421    -1596483.7800 
  20176289.255    -2978328.0840 
  21969008.386     -174295.9600 
  23326224.534    -1554132.0680 
 25 10 20 18 02 20.0000000  0  9G06G11G13G14G15G17G19G22G30         
  23211168.916    -1828261.9740 
  24397723.334    -7237053.3440 
  20363630.797    -3072925.0840 
  23212366.023      520201.6690 
  22041719.562     -653377.4530 
  21485679.235    -1616485.5890 
  20178684.488    -3009345.8640 
  21972107.202     -201613.2000 
  23330575.261    -1574877.8950 
 25 10 20 18 02 30.0000000  0  9G06G11G13G14G15G17G19G22G30         
  23206681.340    -1895430.3610 
  24392346.156    -7308908.8390 
  20365943.665    -3104375.7420 
  23216165.043      496581.7870 
  22040892.707     -701337.8710 
  21490178.834    -1636442.6850 
  20181090.939    -3040302.0610 
  21975207.791     -228924.7480 
  23334931.195    -1595594.7430 
 25 10 20 18 02 40.0000000  0  9G06G11G13G14G15G17G19G22G30         
  23202195.632    -1962579.0430 
  24386965.408    -7380775.2180 
  20368266.986    -3135761.9230 
  23219963.356      472958.2870 
  22040076.734                  
  21494685.737    -1656353.7490 
  20183507.555    -3071195.2500 
  21978306.813     -256229.2370 
  23339289.426    -1616281.1410 
 25 10 20 18 02 50.0000000  0  8G06G11G13G14G17G19G22G30            
  23197715.722    -2112984.1030 
  24381583.304    -7452652.5050 
  20370600.685    -3167083.8050 
  23223761.886      449331.2320 
  21499199.727    -1676218.9320 
  20185934.979    -3102025.8230 
  21981407.341     -283526.7900 
  23343652.168    -1636937.3490 
 25 10 20 18 03 00.0000000  0  8G06G11G13G14G17G19G22G30            
  23193240.925    -2180095.0910 
  24376198.299    -7524542.3200 
  20372947.509    -3198343.0270 
  23227561.093      425698.7320 
  21503722.980    -1696040.0230 
  20188374.241    -3132795.4260 
  21984509.119     -310819.1100 
  23348022.742    -1657564.9960 
 25 10 20 18 03 10.0000000  0  8G06G11G13G14G17G19G22G30            
  23188768.978    -2247187.7120 
  24370811.422    -7596444.3490 
  20375307.343    -3229539.5490 
  23231359.573      402061.3110 
  21508254.519    -1715816.8960 
  20190825.796    -3163503.9350 
  21987612.744     -338106.0340 
  23352399.599    -1678163.8030 
 25 10 20 18 03 20.0000000  0  8G06G11G13G14G17G19G22G30            
  23184305.018    -2314261.5460 
  24365423.518    -7668358.1810 
  20377679.170    -3260673.0270 
  23235157.454      378418.9520 
  21512795.906    -1735549.3160 
  20193289.918    -3194151.0720 
  21990717.774     -365387.2080 
  23356782.869    -1698733.5530 
 25 10 20 18 03 30.0000000  0  8G06G11G13G14G17G19G22G30            
  23179842.174    -2381315.3360 
  24360033.009    -7740282.5590 
  20380062.846    -3291742.4260 
  23238954.020      354772.9790 
  21517346.566    -1755236.2840 
  20195767.175    -3224735.6640 
  21993824.493     -392661.5390 
  23361170.118    -1719273.1450 
 25 10 20 18 03 40.0000000  0  8G06G11G13G14G17G19G22G30            
  23175381.975    -2448350.0150 
  24354638.420    -7812218.4760 
  20382456.749    -3322748.9330 
  23242750.940      331122.2370 
  21521904.019    -1774879.0100 
  20198254.089    -3255258.9110 
  21996930.995     -419930.1760 
  23365561.585    -1739783.6420 
 25 10 20 18 03 50.0000000  0  8G06G11G13G14G17G19G22G30            
  23170923.974    -2515364.6020 
  24349242.165    -7884165.0210 
  20384863.297    -3353691.8340 
  23246545.765      307467.6210 
  21526470.254    -1794476.6300 
  20200753.646    -3285720.1870 
  22000038.693     -447192.2490 
  23369960.688    -1760264.2100 
 25 10 20 18 04 00.0000000  0  8G06G11G13G14G17G19G22G30            
  23166471.856    -2582359.3630 
  24343845.640    -7956122.4660 
  20387283.311    -3384571.3700 
  23250337.172      283808.6830 
  21531045.518    -1814029.6780 
  20203264.667    -3316119.9100 
  22003147.981     -474448.2200 
  23374364.671    -1780715.2570 
 25 10 20 18 04 10.0000000  0  8G06G11G13G14G17G19G22G30            
  23162019.758    -2649333.8470 
  24338443.984    -8028090.4810 
  20389713.363    -3415387.3050 
  23254128.028      260145.6880 
  21535627.386    -1833537.9620 
  20205785.296    -3346457.9550 
  22006255.573     -501697.8160 
  23378771.395    -1801136.5480 
 25 10 20 18 04 20.0000000  0  8G06G11G13G14G17G19G22G30            
  23157570.334    -2716289.0020 
  24333038.563    -8100069.7510 
  20392154.530    -3446140.6690 
  23257919.983      236477.8650 
  21540215.934    -1853002.3960 
  20208316.325    -3376735.1870 
  22009363.119     -528941.8760 
  23383182.795    -1821528.9920 
 25 10 20 18 04 30.0000000  0  8G06G11G13G14G17G19G22G30            
  23153126.742    -2783224.7340 
  24327631.390    -8172060.4530 
  20394606.967    -3476831.6670 
  23261710.186      212804.9230 
  21544813.033    -1872423.3590 
  20210859.053    -3406951.8040 
  22012471.919     -556180.7030 
  23387599.454    -1841892.6680 
 25 10 20 18 04 40.0000000  0  8G06G11G13G14G17G19G22G30            
  23148691.656    -2850141.5360 
  24322229.146    -8244063.0150 
  20397076.639    -3507460.9960 
  23265503.316      189126.2840 
  21549424.934    -1891801.5270 
  20213419.588    -3437108.5170 
  22015588.223     -583414.8200 
  23392029.629    -1862228.2850 
 25 10 20 18 04 50.0000000  0  9G06G11G13G14G15G17G19G22G30         
  23144264.307    -2917038.5880 
  24316828.342    -8316076.6860 
  20399563.062    -3538028.0000 
  23269300.747      165442.6160 
  22030363.953      -24006.6170 
  21554048.864    -1911136.2400 
  20215995.730    -3467204.7300 
  22018709.259     -610643.6180 
  23396469.543    -1882535.1570 
 25 10 20 18 05 00.0000000  0  9G06G11G13G14G15G17G19G22G30         
  23139835.793    -2983914.8830 
  24311419.077    -8388100.3780 
  20402056.048    -3568531.7270 
  23273089.573      141754.9680 
  22029689.313      -71128.4540 
  21558674.778    -1930426.5410 
  20218577.146    -3497239.4530 
  22021826.412     -637866.0450 
  23400907.577    -1902812.2110 
 25 10 20 18 05 10.0000000  0  9G06G11G13G14G15G17G19G22G30         
  23135407.374    -3050771.3350 
  24306005.327    -8460135.1260 
  20404555.996    -3598973.4110 
  23276873.199                  
  22029028.790     -118195.0420 
  21563304.936    -1949673.7440 
  20221166.957    -3527213.9130 
  22024940.081     -665083.2470 
  23405347.566    -1923060.6850 
 25 10 20 18 05 20.0000000  0  8G06G11G13G15G17G19G22G30            
  23130978.025    -3117607.5870 
  24300587.498    -8532180.4910 
  20407065.174    -3629352.7700 
  22028374.492     -165206.1100 
  21567940.889    -1968877.7170 
  20223764.852    -3557127.9520 
  22028053.393     -692295.0360 
  23409790.345    -1943280.2340 
 25 10 20 18 05 30.0000000  0  8G06G11G13G15G17G19G22G30            
  23126558.236    -3184422.5720 
  24295169.787    -8604235.4790 
  20409590.495    -3659668.8890 
  22027732.902     -212160.5970 
  21572588.550    -1988037.5180 
  20226378.317    -3586980.6000 
  22031169.541     -719500.4130 
  23414241.397    -1963469.9440 
 25 10 20 18 05 40.0000000  0  8G06G11G13G15G17G19G22G30            
  23122139.560    -3251216.7120 
  24289745.889    -8676300.6500 
  20412125.227    -3689922.5370 
  22027102.441     -259059.3820 
  21577243.618    -2007154.0010 
  20229001.194    -3616772.7100 
  22034285.799     -746700.1110 
  23418696.709    -1983630.5790 
 25 10 20 18 05 50.0000000  0  8G06G11G13G15G17G19G22G30            
  23117721.717    -3317990.6390 
  24284319.964    -8748376.4750 
  20414669.665    -3720114.3590 
  22026481.543     -305902.8890 
  21581904.385    -2026227.7340 
  20231633.347    -3646504.8480 
  22037401.746     -773894.7740 
  23423154.429    -2003762.6160 
 25 10 20 18 06 00.0000000  0  8G06G11G13G15G17G19G22G30            
  23113304.783    -3384743.4550 
  24278891.370    -8820462.1560 
  20417223.455    -3750243.6940 
  22025870.139     -352690.5440 
  21586571.356    -2045258.1630 
  20234274.995    -3676176.4350 
  22040515.883     -801083.6310 
  23427617.780    -2023865.4110 
 25 10 20 18 06 10.0000000  0  8G06G11G13G15G17G19G22G30            
  23108896.264    -3451475.8110 
  24273460.889    -8892558.3530 
  20419791.382    -3780311.2450 
  22025269.868     -399422.9600 
  21591248.029    -2064246.0920 
  20236929.207    -3705788.2090 
  22043632.282     -828267.4570 
  23432086.827    -2043939.6850 
 25 10 20 18 06 20.0000000  0  8G06G11G13G15G17G19G22G30            
  23104492.937    -3518188.3670 
  24268029.446    -8964665.8080 
  20422373.087    -3810318.0330 
  22024681.085     -446101.1980 
  21595933.472    -2083192.5140 
  20239596.338    -3735341.1710 
  22046750.438     -855447.1900 
  23436564.070    -2063986.3770 
 25 10 20 18 06 30.0000000  0  8G06G11G13G15G17G19G22G30            
  23100092.930    -3584879.2620 
  24262597.603    -9036782.6030 
  20424967.127    -3840262.2380 
  22024102.205     -492723.3960 
  21600627.815    -2102095.6760 
  20242275.804    -3764833.5600 
  22049870.627     -882621.0220 
  23441045.493    -2084003.6700 
 25 10 20 18 06 40.0000000  0  8G06G11G13G15G17G19G22G30            
  23095697.921    -3651548.7760 
  24257164.319    -9108909.0420 
  20427573.463    -3870144.4680 
  22023533.331     -539289.8050 
  21605330.447    -2120956.1630 
  20244967.565    -3794265.9110 
  22052993.382     -909789.3200 
  23445532.486    -2103991.8930 
 25 10 20 18 06 50.0000000  0  8G06G11G13G15G17G19G22G30            
  23091307.636    -3718195.7250 
  24251728.032    -9181044.0200 
  20430189.101    -3899963.7050 
  22022974.904     -585799.6060 
  21610040.951    -2139772.9760 
  20247669.774    -3823637.3090 
  22056115.279     -936951.1230 
  23450026.349    -2123950.2130 
 25 10 20 18 07 00.0000000  0  9G06G11G12G13G15G17G19G22G30         
  23086925.606    -3784821.7200 
  24246295.708    -9253189.0820 
  24206595.426                  
  20432822.296    -3929721.4780 
  22022430.743     -632254.3750 
  21614763.861    -2158547.8610 
  20250387.966    -3852949.3880 
  22059243.859     -964108.0820 
  23454532.331    -2143880.2380 
 25 10 20 18 07 10.0000000  0  9G06G11G12G13G15G17G19G22G30         
  23082534.651    -3851426.4180 
  24240849.306    -9325343.9190 
  24203889.951                  
  20435454.865    -3959417.8020 
  22021884.668     -678653.9390 
  21619481.994    -2177280.6680 
  20253104.815    -3882201.9890 
  22062360.936     -991259.9940 
  23459029.673    -2163781.6740 
 25 10 20 18 07 20.0000000  0  9G06G11G12G13G15G17G19G22G30         
  23078154.853    -3918010.2120 
  24235407.910    -9397508.9460 
  24201195.060                  
  20438105.888    -3989053.3420 
  22021354.615     -724998.9710 
  21624216.436    -2195971.8480 
  20255839.262    -3911395.8000 
  22065485.881    -1018407.4790 
  23463539.175    -2183655.0930 
 25 10 20 18 07 30.0000000  0  8G06G11G13G15G17G19G22G30            
  23073779.927    -3984571.5930 
  24229964.803    -9469682.7350 
  20440770.942    -4018626.7540 
  22020836.160     -771287.8960 
  21628960.902    -2214620.4200 
  20258587.738    -3940529.5020 
  22068614.123    -1045549.1230 
  23468054.121    -2203499.2310 
 25 10 20 18 07 40.0000000  0  8G06G11G13G15G17G19G22G30            
  23069408.302    -4051111.1410 
  24224519.702    -9541865.8650 
  20443447.166    -4048138.8040 
  22020329.590     -817521.4920 
  21633712.245    -2233227.1840 
  20261347.385    -3969603.8560 
  22071742.804    -1072685.6180 
  23472573.798    -2223314.7130 
 25 10 20 18 07 50.0000000  0  8G06G11G13G15G17G19G22G30            
  23065040.728    -4117629.7030 
  24219072.213    -9614059.1530 
  20446133.309    -4077590.4820 
  22019832.939     -863700.7500 
  21638470.358    -2251793.1260 
  20264116.664    -3998619.9390 
  22074869.955    -1099817.9560 
  23477097.384    -2243102.6320 
 25 10 20 18 08 00.0000000  0  8G06G11G13G15G17G19G22G30            
  23060676.150    -4184125.7390 
  24213621.425    -9686261.0890 
  20448828.886    -4106980.3170 
  22019345.151     -909824.1240 
  21643235.045    -2270316.8760 
  20266894.805    -4027576.3200 
  22077996.812    -1126944.6920 
  23481625.826    -2262861.3700 
 25 10 20 18 08 10.0000000  0  8G06G11G13G15G17G19G22G30            
  23056318.364    -4250599.9960 
  24208171.847    -9758472.5000 
  20451539.269    -4136309.3420 
  22018867.588     -955892.6730 
  21648010.387    -2288799.3780 
  20269688.038    -4056473.9640 
  22081127.027    -1154066.7910 
  23486164.065    -2282591.9600 
 25 10 20 18 08 20.0000000  0  8G06G11G13G15G17G19G22G30            
  23051964.693    -4317051.8430 
  24202721.090    -9830692.7370 
  20454261.207    -4165577.1020 
  22018401.009    -1001905.9640 
  21652791.705    -2307240.2210 
  20272491.825    -4085312.4520 
  22084257.492    -1181183.7270 
  23490706.848    -2302293.9360 
 25 10 20 18 08 30.0000000  0  8G06G11G13G15G17G19G22G30            
  23047614.351    -4383480.5090 
  24197265.793    -9902920.9960 
  20456993.486    -4194782.8930 
  22017945.200    -1047863.1480 
  21657579.070    -2325638.8380 
  20275305.380    -4114091.1390 
  22087389.284    -1208294.8180 
  23495253.962    -2321966.5360 
 25 10 20 18 08 40.0000000  0  8G06G11G13G15G17G19G22G30            
  23043266.530    -4449886.6930 
  24191809.009    -9975158.0920 
  20459738.445    -4223927.8100 
  22017499.495    -1093765.3350 
  21662377.254    -2343996.3080 
  20278131.043    -4142811.1390 
  22090522.451    -1235401.0710 
  23499807.603    -2341610.7510 
 25 10 20 18 08 50.0000000  0  8G06G11G13G15G17G19G22G30            
  23038922.276    -4516269.9210 
  24186348.781   -10047403.4590 
  20462492.123    -4253011.3480 
  22017064.513    -1139611.9110 
  21667179.008    -2362312.1410 
  20280964.996    -4171471.9610 
  22093653.177    -1262501.9720 
  23504363.238    -2361226.0690 
 25 10 20 18 09 00.0000000  0  8G06G11G13G15G17G19G22G30            
  23034580.066    -4582629.4740 
  24180885.733   -10119656.5000 
  20465254.714    -4282033.1140 
  22016636.297    -1185402.3760 
  21671986.954    -2380585.9510 
  20283807.574    -4200073.1490 
  22096782.511    -1289597.0670 
  23508922.919    -2380812.0240 
 25 10 20 18 09 10.0000000  0  9G06G11G12G13G15G17G19G22G30         
  23030248.876    -4648965.3640 
  24175427.551   -10191917.2100 
  24171721.327    -1089580.1000 
  20468035.192    -4310993.2580 
  22016224.537    -1231136.8700 
  21676809.211    -2398817.9470 
  20286667.183    -4228614.9040 
  22099918.430    -1316686.3950 
  23513493.048    -2400368.7520 
 25 10 20 18 09 20.0000000  0  9G06G11G12G13G15G17G19G22G30         
  23025917.287    -4715279.0620 
  24169962.673   -10264187.1040 
  24169055.613    -1147147.3370 
  20470824.715    -4339893.4460 
  22015821.107    -1276816.9960 
  21681635.218    -2417009.8030 
  20289535.835    -4257098.9470 
  22103052.662    -1343771.6460 
  23518066.641    -2419897.8730 
 25 10 20 18 09 30.0000000  0  8G06G11G13G15G17G19G22G30            
  23021588.023    -4781569.4250 
  24164493.682   -10336464.9640 
  20473621.429    -4368732.5960 
  22015424.153    -1322441.7500 
  21686465.984    -2435160.5100 
  20292412.109    -4285524.3840 
  22106184.783    -1370851.6830 
  23522642.847    -2439398.2110 
 25 10 20 18 09 40.0000000  0  9G06G11G12G13G15G17G19G22G30         
  23017268.057    -4847837.0920 
  24159026.834   -10408751.4480 
  24163727.404                  
  20476434.452    -4397511.6520 
  22015042.363    -1368011.8920 
  21691309.338    -2453271.0670 
  20295303.117    -4313891.8220 
  22109321.480    -1397927.3470 
  23527227.777    -2458870.6670 
 25 10 20 18 09 50.0000000  0  9G06G11G12G13G15G17G19G22G30         
  23012951.947    -4914081.9640 
  24153559.264   -10481046.5880 
  24161067.297                  
  20479258.630    -4426230.7010 
  22014669.723    -1413527.5190 
  21696160.413    -2471341.6250 
  20298205.422    -4342201.4880 
  22112459.601    -1424998.7610 
  23531816.135    -2478315.3350 
 25 10 20 18 10 00.0000000  0  9G06G11G12G13G15G17G19G22G30         
  23008640.070    -4980303.8550 
  24148090.202   -10553350.1760 
  24158409.562                  
  20482094.909    -4454889.7480 
  22014308.041    -1458988.5060 
  21701019.153    -2489372.1830 
  20301118.828    -4370453.4140 
  22115599.092    -1452065.8130 
  23536407.865    -2497732.0740 
 25 10 20 18 10 10.0000000  0  9G06G11G12G13G15G17G19G22G30         
  23004331.996    -5046503.4270 
  24142618.362   -10625662.9260 
  24155754.057    -1216472.6600 
  20484941.002    -4483489.6080 
  22013956.316    -1504395.7230 
  21705884.559    -2507363.5400 
  20304041.475    -4398648.4500 
  22118737.665    -1479129.3350 
  23541005.833    -2517121.8560 
 25 10 20 18 10 20.0000000  0  9G06G11G12G13G15G17G19G22G30         
  23000026.325    -5112680.0750 
  24137142.771   -10697984.2250 
  24153101.813    -1273966.9830 
  20487796.796    -4512029.9710 
  22013613.862    -1549748.6800 
  21710755.373    -2525315.3740 
  20306973.680    -4426786.2990 
  22121875.350    -1506188.8630 
  23545607.348    -2536484.0460 
 25 10 20 18 10 30.0000000  0  9G06G11G12G13G15G17G19G22G30         
  22995719.860    -5178831.9320 
  24131661.665   -10770312.1620 
  24150447.488                  
  20490660.381    -4540508.9730 
  22013276.624    -1595045.6110 
  21715628.828    -2543225.9430 
  20309912.961    -4454865.0930 
  22125010.524    -1533242.5560 
  23550210.931    -2555816.9410 
 25 10 20 18 10 40.0000000  0  8G06G11G13G15G17G19G22G30            
  22991423.232    -5244961.1430 
  24126184.099   -10842648.9200 
  20493540.385    -4568928.9820 
  22012955.233    -1640288.8520 
  21720515.982    -2561097.6090 
  20312868.231    -4482887.3090 
  22128149.953    -1560292.7450 
  23554822.920    -2575122.8060 
 25 10 20 18 10 50.0000000  0  9G06G11G13G14G15G17G19G22G30         
  22987129.855    -5311067.1580 
  24120702.916   -10914994.0040 
  20496430.938    -4597289.6980 
  23404886.006                  
  22012643.245    -1685477.9540 
  21725409.536    -2578930.1620 
  20315833.478    -4510852.5870 
  22131289.915    -1587339.0870 
  23559441.451    -2594401.3100 
 25 10 20 18 11 00.0000000  0  9G06G11G13G14G15G17G19G22G30         
  22982845.110    -5377149.6690 
  24115223.640   -10987347.0520 
  20499336.705    -4625590.8500 
  23408632.438     1031610.0620 
  22012346.329    -1730612.6090 
  21730314.870    -2596723.4020 
  20318814.226    -4538760.6760 
  22134434.503    -1614381.2190 
  23564068.757    -2613652.1360 
 25 10 20 18 11 10.0000000  0  9G06G11G13G14G15G17G19G22G30         
  22978560.656    -5443208.4060 
  24109740.933   -11059707.8760 
  20502248.629    -4653832.5860 
  23412377.730     1007739.0710 
  22012055.713    -1775692.8620 
  21735222.640    -2614477.4170 
  20321802.275    -4566611.6700 
  22137575.518    -1641419.1160 
  23568698.071    -2632875.2360 
 25 10 20 18 11 20.0000000  0  9G06G11G13G14G15G17G19G22G30         
  22974282.523    -5509243.7260 
  24104255.963   -11132076.8760 
  20505173.172    -4682015.3810 
  23416122.761      983862.1720 
  22011774.996    -1820719.2350 
  21740138.020    -2632192.6670 
  20324800.224    -4594406.1130 
  22140716.987    -1668453.3310 
  23573332.132    -2652071.1340 
 25 10 20 18 11 30.0000000  0  9G06G11G13G14G15G17G19G22G30         
  22970010.388    -5575254.7110 
  24098770.838   -11204453.1180 
  20508110.723    -4710138.4870 
  23419864.776                  
  22011505.572    -1865690.8850 
  21745062.403    -2649868.4490 
  20327810.609    -4622143.2040 
  22143862.881    -1695482.9860 
  23577973.479    -2671238.9900 
 25 10 20 18 11 40.0000000  0  9G06G11G13G14G15G17G19G22G30         
  22965740.958    -5641241.4280 
  24093284.697   -11276836.6210 
  20511058.420    -4738202.1250 
  23423612.929                  
  22011246.006    -1910608.0080 
  21749993.641    -2667504.9810 
  20330830.854    -4649823.1980 
  22147006.184    -1722508.3140 
  23582617.388    -2690379.0360 
 25 10 20 18 11 50.0000000  0  9G06G11G13G14G15G17G19G22G30         
  22961477.185    -5707204.3450 
  24087797.346   -11349227.9610 
  20514018.357    -4766206.9550 
  23427359.442                  
  22010995.104    -1955471.2850 
  21754934.112    -2685103.0160 
  20333863.052    -4677446.9030 
  22150153.285    -1749529.9810 
  23587270.817    -2709491.8540 
 25 10 20 18 12 00.0000000  0  8G06G11G13G15G17G19G22G30            
  22957217.035    -5773143.7330 
  24082306.891   -11421627.3790 
  20516986.638    -4794153.3880 
  22010753.976    -2000281.0550 
  21759881.069    -2702663.0300 
  20336904.024    -4705014.8350 
  22153299.430    -1776548.3600 
  23591927.440    -2728577.9370 
 25 10 20 18 12 10.0000000  0  8G06G11G13G15G17G19G22G30            
  22952958.445    -5839058.3820 
  24076813.418   -11494033.6910 
  20519963.921    -4822040.3130 
  22010522.708    -2045036.1930 
  21764832.018    -2720183.9870 
  20339953.854    -4732525.7440 
  22156444.130    -1803562.3490 
  23596587.770    -2747636.0900 
 25 10 20 18 12 20.0000000  0  8G06G11G13G15G17G19G22G30            
  22948703.430    -5904949.0340 
  24071321.087   -11566447.6800 
  20522953.650    -4849868.9600 
  22010302.457    -2089737.6240 
  21769788.975    -2737666.9620 
  20343014.700    -4759980.7000 
  22159589.543    -1830572.8710 
  23601250.959    -2766667.2750 
 25 10 20 18 12 30.0000000  0  8G06G11G13G15G17G19G22G30            
  22944454.921    -5970816.4520 
  24065825.961   -11638870.1060 
  20525955.752    -4877640.1330 
  22010092.145    -2134386.1870 
  21774755.729    -2755112.8060 
  20346087.346    -4787380.6410 
  22162736.454    -1857580.8010 
  23605921.513    -2785672.3840 
 25 10 20 18 12 40.0000000  0  8G06G11G13G15G17G19G22G30            
  22940214.109    -6036658.9010 
  24060329.947   -11711299.2300 
  20528971.274    -4905352.2700 
  22009895.397    -2178980.4310 
  21779731.325    -2772520.0760 
  20349172.840    -4814724.0210 
  22165886.340    -1884584.4700 
  23610598.905    -2804649.8130 
 25 10 20 18 12 50.0000000  0  8G06G11G13G15G17G19G22G30            
  22935977.801    -6102476.8490 
  24054832.284   -11783735.4260 
  20531996.309    -4933005.9400 
  22009707.445    -2223520.7760 
  21784711.568    -2789889.3090 
  20352267.561    -4842011.4340 
  22169035.865    -1911584.3880 
  23615280.372    -2823600.0430 
 25 10 20 18 13 00.0000000  0  8G06G11G13G15G17G19G22G30            
  22931745.528    -6168268.9660 
  24049332.216   -11856177.5670 
  20535032.247    -4960600.0700 
  22009530.540    -2268006.2460 
  21789700.996    -2807219.6040 
  20355373.041    -4869241.8270 
  22172185.560    -1938579.6170 
  23619966.446    -2842522.0270 
 25 10 20 18 13 10.0000000  0  8G06G11G13G15G17G19G22G30            
  22927518.148    -6234036.1470 
  24043832.892   -11928626.4840 
  20538079.946    -4988135.7510 
  22009362.535    -2312437.7350 
  21794698.609    -2824512.0020 
  20358489.281    -4896416.3110 
  22175336.286    -1965571.0690 
  23624657.842    -2861416.7600 
 25 10 20 18 13 20.0000000  0  8G06G11G13G15G17G19G22G30            
  22923296.770    -6299777.8450 
  24038333.703   -12001081.6420 
  20541139.229    -5015612.7110 
  22009204.252    -2356814.8570 
  21799702.940    -2841766.1010 
  20361616.390    -4923534.7040 
  22178487.863    -1992558.3400 
  23629354.954    -2880283.9160 
 25 10 20 18 13 30.0000000  0  8G06G11G13G15G17G19G22G30            
  22919077.394    -6365493.3040 
  24032832.796   -12073542.3850 
  20544208.240    -5043030.3450 
  22009055.555    -2401137.0210 
  21804713.995    -2858981.4470 
  20364753.512    -4950596.2740 
  22181638.865    -2019540.7520 
  23634056.358    -2899122.7370 
 25 10 20 18 13 40.0000000  0  8G06G11G13G15G17G19G22G30            
  22914863.046    -6431183.1040 
  24027328.045   -12146009.3120 
  20547288.431    -5070389.4870 
  22008916.894    -2445404.9990 
  21809732.653    -2876158.8150 
  20367900.385    -4977601.9430 
  22184792.320    -2046519.1340 
  23638763.934    -2917934.0310 
 25 10 20 18 13 50.0000000  0  8G06G11G13G15G17G19G22G30            
  22910652.749    -6496847.8620 
  24021821.335   -12218482.9700 
  20550379.114    -5097690.8230 
  22008788.581    -2489619.4710 
  21814757.079    -2893298.9850 
  20371056.746    -5004552.3970 
  22187945.534    -2073494.1540 
  23643475.133    -2936718.5310 
 25 10 20 18 14 00.0000000  0  8G06G11G13G15G17G19G22G30            
  22906448.719    -6562485.9210 
  24016315.169   -12290961.7030 
  20553481.357    -5124932.8610 
  22008670.540    -2533778.8880 
  21819789.919    -2910400.5780 
  20374224.669    -5031446.1810 
  22191098.861    -2100464.2840 
  23648192.455    -2955474.7040 
 25 10 20 18 14 10.0000000  0  8G06G11G13G15G17G19G22G30            
  22902250.060    -6628098.6070 
  24010808.077   -12363446.8470 
  20556594.838    -5152117.1910 
  22008564.024    -2577884.8330 
  21824829.704    -2927465.0540 
  20377404.831    -5058284.7580 
  22194253.696    -2127431.0270 
  23652914.861    -2974204.0290 
 25 10 20 18 14 20.0000000  0  8G06G11G13G15G17G19G22G30            
  22898054.905    -6693685.9910 
  24005299.481   -12435938.5480 
  20559717.977    -5179244.0820 
  22008467.594    -2621937.4850 
  21829874.709    -2944492.7670 
  20380594.650    -5085068.5070 
  22197408.171    -2154394.5060 
  23657641.202    -2992906.7160 
 25 10 20 18 14 30.0000000  0  8G06G11G13G15G17G19G22G30            
  22893862.793    -6759246.8750 
  23999788.348   -12508435.6160 
  20562851.456    -5206312.4130 
  22008380.647    -2665935.6720 
  21834925.477    -2961482.8350 
  20383793.236    -5111796.4520 
  22200563.543    -2181353.6990 
  23662371.587    -3011581.7130 
 25 10 20 18 14 40.0000000  0  8G06G11G13G15G17G19G22G30            
  22889678.182    -6824781.3850 
  23994277.561   -12580938.1840 
  20565998.159    -5233322.5720 
  22008304.347    -2709879.7460 
  21839985.749    -2978435.5570 
  20387003.615    -5138468.9430 
  22203719.691    -2208308.8320 
  23667109.186    -3030229.2600 
 25 10 20 18 14 50.0000000  0  8G06G11G13G15G17G19G22G30            
  22885499.322    -6890291.3430 
  23988765.657   -12653448.0040 
  20569155.622    -5260276.5560 
  22008238.235    -2753771.7040 
  21845053.203    -2995352.8290 
  20390224.611    -5165087.8360 
  22206877.583    -2235261.9400 
  23671850.390    -3048851.3470 
 25 10 20 18 15 00.0000000  0  8G06G11G13G15G17G19G22G30            
  22881324.533    -6955775.8440 
  23983252.243   -12725964.2990 
  20572323.881    -5287173.7190 
  22008183.206    -2797610.7550 
  21850127.876    -3012234.0770 
  20393456.689    -5191652.5510 
  22210034.108    -2262212.1910 
  23676599.100    -3067447.1910 
 25 10 20 18 15 10.0000000  0  8G06G11G13G15G17G19G22G30            
  22877153.716    -7021234.4650 
  23977737.792   -12798486.5660 
  20575503.410    -5314013.7950 
  22008137.443    -2841396.5710 
  21855208.523    -3029078.8990 
  20396698.177    -5218162.8450 
  22213192.603    -2289159.2970 
  23681351.781    -3086016.4740 
 25 10 20 18 15 20.0000000  0  8G06G11G13G15G17G19G22G30            
  22872989.172    -7086667.0200 
  23972222.318   -12871014.7080 
  20578693.505    -5340796.8710 
  22008101.816    -2885129.1610 
  21860295.445    -3045887.5780 
  20399949.372    -5244618.7920 
  22216351.360    -2316103.1910 
  23686108.875    -3104559.2280 
 25 10 20 18 15 30.0000000  0  8G06G11G13G15G17G19G22G30            
  22868830.177    -7152072.9030 
  23966705.524   -12943548.0570 
  20581894.300    -5367522.3910 
  22008076.175    -2928807.9700 
  21865390.491    -3062659.5640 
  20403213.271    -5271019.7860 
  22219512.805    -2343043.2780 
  23690872.950    -3123074.9080 
 25 10 20 18 15 40.0000000  0  8G06G11G13G15G17G19G22G30            
  22864674.346    -7217451.4330 
  23961187.458   -13016086.0210 
  20585104.269    -5394189.9350 
  22008060.852    -2972432.6420 
  21870491.706    -3079394.4810 
  20406485.484    -5297365.5400 
  22222672.549    -2369979.1730 
  23695637.899    -3141563.0050 
 25 10 20 18 15 50.0000000  0  8G06G11G13G15G17G19G22G30            
  22860520.320    -7282802.8710 
  23955667.190   -13088628.8610 
  20588322.481    -5420799.8800 
  22008053.200    -3016003.3890 
  21875596.442    -3096092.7630 
  20409763.938    -5323656.5080 
  22225831.092    -2396911.2670 
  23700404.795    -3160023.8800 
 25 10 20 18 16 00.0000000  0  8G06G11G13G15G17G19G22G30            
  22856376.280    -7348127.5970 
  23950148.323   -13161176.9630 
  20591555.688    -5447352.8130 
  22008057.538    -3059520.7650 
  21880712.024    -3112754.9620 
  20413057.531    -5349893.3110 
  22228992.896    -2423840.1120 
  23705182.107    -3178458.1570 
 25 10 20 18 16 10.0000000  0  8G06G11G13G15G17G19G22G30            
  22852236.229    -7413424.9130 
  23944627.292   -13233729.6180 
  20594798.179    -5473848.3270 
  22008070.587    -3102984.3420 
  21885833.741    -3129380.6530 
  20416359.548    -5376075.3890 
  22232153.968    -2450765.0480 
  23709966.127    -3196865.1680 
 25 10 20 18 16 20.0000000  0  8G06G11G13G15G17G19G22G30            
  22848102.662    -7478694.0380 
  23939105.876   -13306286.0850 
  20598054.308    -5500285.7660 
  22008096.558    -3146393.4730 
  21890964.230    -3145969.2920 
  20419674.630    -5402202.2460 
  22235317.230    -2477685.4430 
  23714754.054    -3215244.3930 
 25 10 20 18 16 30.0000000  0  8G06G11G13G15G17G19G22G30            
  22843971.285    -7543935.8450 
  23933582.501   -13378847.2500 
  20601318.780    -5526666.2400 
  22008132.019    -3189749.1510 
  21896099.344    -3162521.9510 
  20422997.627    -5428274.8780 
  22238479.392    -2504602.2990 
  23719544.317    -3233596.7320 
 25 10 20 18 16 40.0000000  0  8G06G11G13G15G17G19G22G30            
  22839844.485    -7609149.4610 
  23928057.549   -13451412.2280 
  20604592.837    -5552989.0730 
  22008177.207    -3233050.6250 
  21901240.321    -3179038.0790 
  20426329.779    -5454292.6230 
  22241641.121    -2531514.9340 
  23724339.154    -3251921.4500 
 25 10 20 18 16 50.0000000  0  8G06G11G13G15G17G19G22G30            
  22835724.219    -7674335.2840 
  23922530.833   -13523981.4270 
  20607878.866    -5579254.9130 
  22008232.936    -3276298.5050 
  21906388.262    -3195518.1890 
  20429673.331    -5480256.0480 
  22244803.948    -2558423.8100 
  23729143.532    -3270219.1700 
 25 10 20 18 17 00.0000000  0  8G06G11G13G15G17G19G22G30            
  22831609.295    -7739493.7020 
  23917005.023   -13596555.2340 
  20611175.961    -5605464.1400 
  22008296.725    -3319493.1120 
  21911543.262    -3211962.7710 
  20433026.947    -5506165.7120 
  22247968.396    -2585329.3540 
  23733952.965    -3288490.2920 
 25 10 20 18 17 10.0000000  0  8G06G11G13G15G17G19G22G30            
  22827499.020    -7804624.0510 
  23911478.137   -13669133.0210 
  20614483.571    -5631616.4580 
  22008371.173    -3362634.1210 
  21916704.771    -3228371.4600 
  20436390.363    -5532021.2310 
  22251133.916    -2612231.1530 
  23738766.188    -3306734.3910 
 25 10 20 18 17 20.0000000  0  8G06G11G13G15G17G19G22G30            
  22823393.877    -7869726.3020 
  23905949.659   -13741714.7720 
  20617801.321    -5657712.0190 
  22008455.618    -3405721.6450 
  21921872.842    -3244744.4650 
  20439763.776    -5557822.8130 
  22254299.417    -2639129.2100 
  23743583.541    -3324951.5740 
 25 10 20 18 17 30.0000000  0  8G06G11G13G15G17G19G22G30            
  22819295.345    -7934800.1780 
  23900421.353   -13814300.2500 
  20621130.691    -5683750.6770 
  22008550.682    -3448755.4530 
  21927048.528    -3261081.7900 
  20443149.954    -5583570.4200 
  22257467.379    -2666023.4390 
  23748408.222    -3343141.6980 
 25 10 20 18 17 40.0000000  0  8G06G11G13G15G17G19G22G30            
  22815201.943    -7999845.6070 
  23894893.025   -13886889.3670 
  20624471.200    -5709732.5280 
  22008655.882    -3491735.7010 
  21932230.344    -3277383.5390 
  20446545.410    -5609264.1090 
  22260635.033    -2692913.9050 
  23753238.318    -3361304.7780 
 25 10 20 18 17 50.0000000  0  9G06G11G13G15G17G19G22G24G30         
  22811113.302    -8064862.4770 
  23889362.733   -13959482.0620 
  20627821.050    -5735657.6990 
  22008770.424    -3534662.4400 
  21937417.208    -3293649.7780 
  20449948.919    -5634904.0620 
  22263802.011    -2719800.7500 
  23365005.104                  
  23758070.886    -3379440.9760 
 25 10 20 18 18 00.0000000  0  9G06G11G13G15G17G19G22G24G30         
  22807031.319    -8129850.5580 
  23883833.375   -14032078.0130 
  20631183.424    -5761526.1020 
  22008895.629    -3577535.2800 
  21942613.877    -3309880.4370 
  20453364.953    -5660490.1080 
  22266970.210    -2746683.6440 
  23359295.593      981888.8280 
  23762909.969    -3397550.0730 
 25 10 20 18 18 10.0000000  0 10G06G11G12G13G15G17G19G22G24G30      
  22802950.342    -8194809.5430 
  23878298.871   -14104677.0160 
  24030787.210                  
  20634551.956    -5787337.7490 
  22009026.993    -3620354.3720 
  21947812.698    -3326075.5320 
  20456787.001    -5686022.2220 
  22270135.981    -2773562.5550 
  23353582.224      908373.7960 
  23767749.772    -3415631.9400 
 25 10 20 18 18 20.0000000  0 10G06G11G12G13G15G17G19G22G24G30      
  22798878.709    -8259739.1730 
  23872767.127   -14177278.7290 
  24028234.211    -1109346.3140 
  20637936.127    -5813092.5370 
  22009172.707    -3663119.6500 
  21953021.863    -3342234.9480 
  20460223.258    -5711500.3630 
  22273305.943    -2800437.2870 
  23347877.053      834863.5510 
  23772597.488    -3433686.4200 
 25 10 20 18 18 30.0000000  0 10G06G11G12G13G15G17G19G22G24G30      
  22794812.003    -8324640.7930 
  23867232.156   -14249884.5440 
  24025680.846    -1166292.1350 
  20641329.233    -5838791.9520 
  22009328.358    -3705832.4700 
  21958237.960    -3358360.3430 
  20463668.306    -5736926.0550 
  22276476.970    -2827309.3570 
  23342173.948      761356.7840 
  23777451.276    -3451715.1360 
 25 10 20 18 18 40.0000000  0 10G06G11G12G13G15G17G19G22G24G30      
  22790749.690    -8389513.6090 
  23861697.569   -14322493.7030 
  24023128.152    -1223227.6930 
  20644732.311    -5864435.3470 
  22009493.839    -3748492.2170 
  21963459.880    -3374451.0790 
  20467123.327    -5762298.6840 
  22279647.381    -2854178.0200 
  23336472.803      687854.1800 
  23782309.742    -3469717.2680 
 25 10 20 18 18 50.0000000  0 10G06G11G12G13G15G17G19G22G24G30      
  22786692.172    -8454357.1670 
  23856163.200   -14395105.8090 
  24020579.968    -1280152.8210 
  20648146.624    -5890022.6150 
  22009669.695    -3791098.6510 
  21968687.310    -3390506.9240 
  20470588.437    -5787618.0350 
  22282818.867    -2881043.0310 
  23330769.299      614356.2170 
  23787172.145    -3487692.6230 
 25 10 20 18 19 00.0000000  0 10G06G11G12G13G15G17G19G22G24G30      
  22782642.023    -8519172.5000 
  23850628.472   -14467721.8410 
  24018031.855    -1337068.5980 
  20651571.025    -5915554.9430 
  22009855.783    -3833652.9690 
  21973922.253    -3406529.0910 
  20474063.779    -5812885.4530 
  22285991.283    -2907905.4550 
  23325066.009      540861.7440 
  23792040.486    -3505642.3020 
 25 10 20 18 19 10.0000000  0 10G06G11G12G13G15G17G19G22G24G30      
  22778598.765    -8583959.2540 
  23845093.052   -14540341.4770 
  24015487.199    -1393974.8490 
  20655007.468    -5941032.1630 
  22010053.484    -3876154.8840 
  21979164.230    -3422517.4190 
  20477550.447    -5838100.6990 
  22289165.439    -2934765.1470 
  23319362.456                  
  23796914.860    -3523566.1400 
 25 10 20 18 19 20.0000000  0 10G06G11G12G13G15G17G19G22G24G30      
  22774559.293    -8648716.5150 
  23839558.984   -14612963.8570 
  24012942.893    -1450870.6790 
  20658453.849    -5966453.5270 
  22010260.121    -3918603.5700 
  21984410.708    -3438471.2220 
  20481045.193    -5863263.0020 
  22292337.656    -2961621.3180 
  23313662.258      393885.2150 
  23801792.876    -3541463.3050 
 25 10 20 18 19 30.0000000  0 10G06G11G12G13G15G17G19G22G24G30      
  22770525.908    -8713445.7290 
  23834022.419   -14685590.3640 
  24010402.530    -1507757.9220 
  20661909.038    -5991820.6780 
  22010475.135    -3961000.6450 
  21989664.705    -3454392.2650 
  20484549.748    -5888374.0500 
  22295509.808    -2988475.5390 
  23307961.567      320402.5860 
  23806672.974    -3559335.4920 
 25 10 20 18 19 40.0000000  0 10G06G11G12G13G15G17G19G22G24G30      
  22766497.297    -8778145.7920 
  23828484.617   -14758219.8390 
  24007863.076    -1564635.5270 
  20665375.438    -6017132.6290 
  22010698.929    -4003345.0960 
  21994923.188    -3470279.5070 
  20488063.941    -5913432.8800 
  22298682.297    -3015326.7880 
  23302263.502      246924.3190 
  23811558.846    -3577181.5590 
 25 10 20 18 19 50.0000000  0 10G06G11G12G13G15G17G19G22G24G30      
  22762474.934    -8842816.2270 
  23822945.337   -14830851.9530 
  24005325.292    -1621503.2270 
  20668853.810    -6042389.2230 
  22010933.837    -4045636.8470 
  22000189.351    -3486132.8120 
  20491589.105    -5938439.3920 
  22301858.460    -3042174.7740 
  23296566.391      173450.7290 
  23816452.254    -3595001.2840 
 25 10 20 18 20 00.0000000  0 10G06G11G12G13G15G17G19G22G24G30      
  22758458.583    -8907458.2870 
  23817406.630   -14903487.9220 
  24002787.796    -1678362.2610 
  20672342.344    -6067591.8790 
  22011179.908    -4087877.1510 
  22005464.388    -3501953.5900 
  20495124.573    -5963394.9410 
  22305034.767    -3069020.8440 
  23290868.424       99980.6750 
  23821352.533    -3612796.1020 
 25 10 20 18 20 10.0000000  0 10G06G11G12G13G15G17G19G22G24G30      
  22754445.163    -8972070.9700 
  23811866.277   -14976126.7440 
  24000253.518    -1735211.8720 
  20675839.104    -6092739.8340 
  22011433.061    -4130065.1130 
  22010742.499    -3517741.0340 
  20498667.695    -5988298.7520 
  22308208.139    -3095864.0560 
  23285170.812       26515.0720 
  23826254.885    -3630565.0560 
 25 10 20 18 20 20.0000000  0 10G06G11G12G13G15G17G19G22G24G30      
  22750437.061    -9036654.1120 
  23806324.945   -15048768.2400 
  23997721.122    -1792052.0140 
  20679345.760    -6117833.0720 
  22011696.968    -4172200.7580 
  22016026.071    -3533495.2570 
  20502220.569    -6013150.8420 
  22311381.391    -3122704.3510 
  23279474.797      -46945.9620 
  23831161.409    -3648308.1460 
 25 10 20 18 20 30.0000000  0 10G06G11G12G13G15G17G19G22G24G30      
  22746437.507    -9101207.9420 
  23800786.008   -15121412.6260 
  23995189.405                  
  20682865.258    -6142872.0540 
  22011972.858    -4214284.4960 
  22021319.908    -3549216.6110 
  20505786.286    -6037951.6950 
  22314559.615    -3149542.1350 
  23273782.180     -120402.7360 
  23836073.621    -3666025.7150 
 25 10 20 18 20 40.0000000  0 10G06G11G12G13G15G17G19G22G24G30      
  22742443.831    -9165732.4190 
  23795246.939   -15194059.9730 
  23992659.989    -1905705.1990 
  20686395.069    -6167856.9580 
  22012258.918    -4256316.4010 
  22026620.052    -3564905.3800 
  20509361.457    -6062701.5420 
  22317738.135    -3176377.5990 
  23268091.433     -193855.1860 
  23840987.846    -3683717.9970 
 25 10 20 18 20 50.0000000  0  9G06G11G13G15G17G19G22G24G30         
  22738460.665    -9230227.5820 
  23789711.226   -15266710.2170 
  20689940.112    -6192787.9480 
  22012559.351    -4298296.5860 
  22031930.420    -3580561.7000 
  20512950.429    -6087400.4970 
  22320920.440    -3203210.8630 
  23262402.898     -267303.3820 
  23845910.149    -3701385.0410 
 25 10 20 18 21 00.0000000  0 10G06G11G12G13G15G17G19G22G24G30      
  22734480.299    -9294692.9550 
  23784171.874   -15339362.9200 
  23987608.664                  
  20693493.679    -6217664.7420 
  22012868.452    -4340224.7670 
  22037245.163    -3596185.3590 
  20516546.781    -6112048.2740 
  22324101.110    -3230041.5550 
  23256710.724     -340746.8530 
  23850838.686    -3719026.6090 
 25 10 20 18 21 10.0000000  0 10G06G11G12G13G15G17G19G22G24G30      
  22730505.422    -9359127.8480 
  23778630.569   -15412017.4790 
  23985089.461                  
  20697057.743    -6242486.8650 
  22013188.479    -4382100.4850 
  22042565.251    -3611775.9790 
  20520152.771    -6136644.4620 
  22327282.975    -3256869.1260 
  23251020.461     -414185.0370 
  23855772.712    -3736642.0670 
 25 10 20 18 21 20.0000000  0 10G06G11G12G13G15G17G19G22G24G30      
  22726531.807    -9423531.7530 
  23773087.522   -15484673.3550 
  23982569.803                  
  20700628.935    -6267254.0540 
  22013514.490    -4423923.3320 
  22047887.745    -3627333.1760 
  20523766.032    -6161188.7690 
  22330461.666    -3283693.2090 
  23245327.310     -487617.4570 
  23860706.712    -3754231.1030 
 25 10 20 18 21 30.0000000  0 10G06G11G12G13G15G17G19G22G24G30      
  22722563.466    -9487906.4130 
  23767543.310   -15557332.2310 
  23980050.697                  
  20704209.123    -6291968.1620 
  22013848.637    -4465695.1390 
  22053216.087    -3642858.8590 
  20527388.146    -6185683.1140 
  22333640.195    -3310515.5510 
  23239637.717     -561045.8000 
  23865646.559    -3771795.5450 
 25 10 20 18 21 40.0000000  0 10G06G11G12G13G15G17G19G22G24G30      
  22718601.359    -9552252.2480 
  23761998.320   -15629994.5810 
  23977532.960    -2216441.5380 
  20707798.549    -6316629.8990 
  22014192.166    -4507416.5650 
  22058550.090    -3658353.7420 
  20531019.641    -6210128.2510 
  22336818.231    -3337336.8690 
  23233950.636     -634470.6410 
  23870594.643    -3789336.0130 
 25 10 20 18 21 50.0000000  0 10G06G11G12G13G15G17G19G22G24G30      
  22714645.764    -9616567.9740 
  23756453.117   -15702659.1020 
  23975012.434    -2273201.8960 
  20711398.494    -6341238.1940 
  22014545.355    -4549086.5410 
  22063890.605    -3673816.8200 
  20534661.082    -6234522.9960 
  22339998.202    -3364155.9180 
  23228266.491     -707890.6530 
  23875547.951    -3806851.4170 
 25 10 20 18 22 00.0000000  0 10G06G11G12G13G15G17G19G22G24G30      
  22710695.886    -9680853.3890 
  23750908.193   -15775325.6570 
  23972495.908    -2329953.4210 
  20715009.164    -6365792.9750 
  22014909.413    -4590704.7970 
  22069238.267    -3689247.9660 
  20538312.676    -6258867.3080 
  22343180.311    -3390972.4600 
  23222583.055     -781305.6860 
  23880504.687    -3824341.5800 
 25 10 20 18 22 10.0000000  0 10G06G11G12G13G15G17G19G22G24G30      
  22706751.715    -9745107.9660 
  23745364.254   -15847993.6780 
  23969982.083                  
  20718629.976    -6390294.0330 
  22015283.469    -4632271.1810 
  22074591.350    -3704646.9120 
  20541974.413    -6283160.8990 
  22346361.545    -3417786.3600 
  23216897.740     -854715.1900 
  23885464.839    -3841806.1910 
 25 10 20 18 22 20.0000000  0 10G06G11G12G13G15G17G19G22G24G30      
  22702818.746    -9809331.0630 
  23739822.932   -15920662.5480 
  23967469.302                  
  20722264.423    -6414740.7700 
  22015671.590    -4673785.1380 
  22079954.205    -3720013.2120 
  20545648.067    -6307403.3260 
  22349546.397    -3444596.9380 
  23211215.759     -928118.6270 
  23890432.045    -3859244.6420 
 25 10 20 18 22 30.0000000  0 10G06G11G12G13G15G17G19G22G24G30      
  22698887.034    -9873525.1000 
  23734278.144   -15993334.6910 
  23964960.781    -2122996.4230 
  20725906.709    -6439135.8180 
  22016064.545    -4715249.0630 
  22085320.892    -3735349.4760 
  20549327.987    -6331597.2680 
  22352728.929    -3471406.8040 
  23205531.600    -1001518.3930 
  23895402.797    -3876659.5820 
 25 10 20 18 22 40.0000000  0 10G06G11G12G13G15G17G19G22G24G30      
  22694962.343    -9937689.9840 
  23728734.655   -16066010.0530 
  23962452.415    -2179715.2480 
  20729560.167    -6463479.3410 
  22016466.525    -4756663.2630 
  22090692.741    -3750655.8720 
  20553018.505    -6355742.8050 
  22355912.187    -3498215.9970 
  23199847.881    -1074914.5130 
  23900378.996    -3894051.1150 
 25 10 20 18 22 50.0000000  0 10G06G11G12G13G15G17G19G22G24G30      
  22691042.164   -10001824.5030 
  23723189.095   -16138687.3470 
  23959948.273    -2236426.0570 
  20733222.429    -6487770.3240 
  22016878.454    -4798026.5440 
  22096070.245    -3765931.4420 
  20556717.255    -6379838.9750 
  22359095.091    -3525023.3630 
  23194162.376    -1148305.7660 
  23905359.564    -3911418.0760 
 25 10 20 18 23 00.0000000  0 10G06G11G12G13G15G17G19G22G24G30      
  22687129.530   -10065930.1530 
  23717646.214   -16211368.1370 
  23957442.233    -2293130.5020 
  20736896.815    -6512010.4950 
  22017305.368    -4839340.5930 
  22101456.583    -3781177.8430 
  20560428.559    -6403887.4180 
  22362280.961    -3551830.5860 
  23188481.412    -1221693.6800 
  23910347.390    -3928762.1220 
 25 10 20 18 23 10.0000000  0 10G06G11G12G13G15G17G19G22G24G30      
  22683224.356   -10130006.7690 
  23712104.212   -16284052.2640 
  23954936.355                  
  20740582.381    -6536199.8230 
  22017742.748    -4880605.4750 
  22106850.810    -3796395.0830 
  20564150.327    -6427888.2760 
  22365469.569    -3578637.6140 
  23182803.472    -1295078.1120 
  23915341.103    -3946083.2780 
 25 10 20 18 23 20.0000000  0 10G06G11G12G13G15G17G19G22G24G30      
  22679323.092   -10194053.2090 
  23706559.538   -16356738.5500 
  23952435.103    -2406519.1060 
  20744276.294    -6560337.4000 
  22018187.759    -4921820.0800 
  22112247.373    -3811582.2430 
  20567879.155    -6451840.5220 
  22368655.648    -3605443.3000 
  23177126.438    -1368457.9550 
  23920337.152    -3963380.4990 
 25 10 20 18 23 30.0000000  0 10G06G11G12G13G15G17G19G22G24G30      
  22675427.720   -10258068.1780 
  23701013.314   -16429425.7850 
  23949935.878    -2463201.0340 
  20747979.246    -6584422.1770 
  22018640.664    -4962983.3440 
  22117649.256    -3826738.3710 
  20571616.592    -6475743.1340 
  22371840.608    -3632246.5960 
  23171451.575    -1441831.9260 
  23925336.088    -3980652.6530 
 25 10 20 18 23 40.0000000  0 10G06G11G12G13G15G17G19G22G24G30      
  22671537.061   -10322053.5920 
  23695464.077   -16502115.8200 
  23947438.076    -2519876.6080 
  20751690.345    -6608456.2220 
  22019100.858    -5004097.2180 
  22123055.422    -3841865.5620 
  20575361.318    -6499598.1840 
  22375025.701    -3659049.5120 
  23165777.132    -1515202.0220 
  23930339.450    -3997901.8040 
 25 10 20 18 23 50.0000000  0 10G06G11G12G13G15G17G19G22G24G30      
  22667654.632   -10386008.5290 
  23689918.776   -16574807.7390 
  23944941.635    -2576544.9680 
  20755414.396    -6632438.8690 
  22019574.290    -5045161.0060 
  22128470.247    -3856963.1220 
  20579118.423    -6523404.9380 
  22378213.014    -3685851.2090 
  23160102.047    -1588567.3230 
  23935349.754    -4015127.0920 
 25 10 20 18 24 00.0000000  0 10G06G11G12G13G15G17G19G22G24G30      
  22663776.408   -10449932.4120 
  23684372.530   -16647501.0340 
  23942446.681    -2633205.3900 
  20759145.658    -6656369.6920 
  22020055.504    -5086174.3620 
  22133888.419    -3872030.6110 
  20582882.882    -6547163.0430 
  22381397.808    -3712651.2850 
  23154429.164    -1661927.2620 
  23940362.976    -4032328.1770 
 25 10 20 18 24 10.0000000  0 10G06G11G12G13G15G17G19G22G24G30      
  22659905.182   -10513826.5890 
  23678825.697   -16720197.0030 
  23939952.858    -2689859.5850 
  20762888.066    -6680250.3820 
  22020547.866    -5127138.8070 
  22139313.446    -3887069.6720 
  20586658.488    -6570874.1150 
  22384586.165    -3739451.3490 
  23148759.845    -1735283.2270 
  23945380.907    -4049506.5480 
 25 10 20 18 24 20.0000000  0 10G06G11G12G13G15G17G19G22G24G30      
  22656041.662   -10577691.6830 
  23673278.843   -16792896.2870 
  23937461.732    -2746508.5360 
  20766641.758    -6704081.5520 
  22021051.797    -5168055.0340 
  22144744.461    -3902081.1170 
  20590444.232    -6594538.9450 
  22387774.500    -3766251.9600 
  23143090.505    -1808636.0010 
  23950405.398    -4066662.9240 
 25 10 20 18 24 30.0000000  0 10G06G11G12G13G15G17G19G22G24G30      
  22652184.881   -10641526.7330 
  23667732.576   -16865597.8480 
  23934972.337    -2803151.1910 
  20770406.196    -6727862.3740 
  22021564.901    -5208922.1080 
  22150183.075    -3917064.0600 
  20594239.435    -6618156.7100 
  22390964.281    -3793052.2760 
  23137422.466    -1881984.4070 
  23955434.911    -4083796.4380 
 25 10 20 18 24 40.0000000  0 10G06G11G12G13G15G17G19G22G24G30      
  22648331.357   -10705330.0160 
  23662187.277   -16938300.0700 
  23932483.911    -2859786.1180 
  20774180.045    -6751591.5360 
  22022085.411    -5249738.5050 
  22155625.805    -3932017.0330 
  20598042.331    -6641726.0050 
  22394152.598    -3819850.7330 
  23131753.965    -1955326.9580 
  23960468.971    -4100905.6320 
 25 10 20 18 24 50.0000000  0 10G06G11G12G13G15G17G19G22G24G30      
  22644484.103   -10769102.4740 
  23656640.376   -17011003.9280 
  23929998.605    -2916414.4300 
  20777963.453    -6775270.1240 
  22022615.768    -5290505.4200 
  22161073.372    -3946941.2520 
  20601855.216    -6665247.9930 
  22397342.317    -3846648.3900 
  23126086.152    -2028664.5750 
  23965507.009    -4117991.4830 
 25 10 20 18 25 00.0000000  0 10G06G11G12G13G15G17G19G22G24G30      
  22640645.276   -10832845.0310 
  23651096.181   -17083710.2990 
  23927513.715    -2973037.0540 
  20781758.294    -6798899.2500 
  22023159.418    -5331223.9310 
  22166529.939    -3961837.8700 
  20605678.819    -6688723.8100 
  22400533.740    -3873446.3500 
  23120422.903    -2101998.1920 
  23970549.039    -4135055.2030 
 25 10 20 18 25 10.0000000  0 10G06G11G12G13G15G17G19G22G24G30      
  22636813.473   -10896556.9750 
  23645552.998   -17156418.4600 
  23925030.410    -3029653.4780 
  20785562.735    -6822478.3050 
  22023712.667    -5371893.4860 
  22171992.386    -3976706.3360 
  20609513.023    -6712152.9280 
  22403726.606    -3900244.0110 
  23114759.238    -2175327.0450 
  23975597.664    -4152096.1070 
 25 10 20 18 25 20.0000000  0 10G06G11G12G13G15G17G19G22G24G30      
  22632986.211   -10960237.2070 
  23640007.202   -17229127.3320 
  23922549.929    -3086262.8480 
  20789375.294    -6846006.5240 
  22024272.889    -5412513.1120 
  22177458.229    -3991545.6500 
  20613353.628    -6735534.3810 
  22406918.003    -3927040.3840 
  23109094.961    -2248650.2580 
  23980649.113    -4169113.2620 
 25 10 20 18 25 30.0000000  0 10G06G11G12G13G15G17G19G22G24G30      
  22629164.275   -11023886.2220 
  23634459.577   -17301837.4140 
  23920070.481    -3142865.5070 
  20793197.614    -6869484.5500 
  22024843.445    -5453083.4630 
  22182929.684    -4006356.7040 
  20617202.992    -6758868.8310 
  22410110.718    -3953836.0250 
  23103432.863    -2321968.1610 
  23985705.172    -4186107.2310 
 25 10 20 18 25 40.0000000  0 10G06G11G12G13G15G17G19G22G24G30      
  22625348.701   -11087504.4300 
  23628913.450   -17374549.1120 
  23917592.530    -3199462.2660 
  20797029.731    -6892913.0710 
  22025424.085    -5493605.0990 
  22188406.642    -4021140.2150 
  20621062.154    -6782157.0370 
  22413302.356    -3980631.4890 
  23097772.262    -2395281.2990 
  23990766.734    -4203078.6810 
 25 10 20 18 25 50.0000000  0 10G06G11G12G13G15G17G19G22G24G30      
  22621538.924   -11151091.1180 
  23623367.967   -17447261.7190 
  23915115.511    -3256052.4550 
  20800870.793    -6916291.4980 
  22026013.239    -5534077.4610 
  22193888.253    -4035895.5270 
  20624929.974    -6805398.5040 
  22416494.496    -4007426.1670 
  23092112.449    -2468588.9880 
  23995832.234    -4220026.9840 
 25 10 20 18 26 00.0000000  0 10G06G11G12G13G15G17G19G22G24G30      
  22617736.685   -11214646.1740 
  23617823.299   -17519975.1400 
  23912641.166    -3312635.9960 
  20804723.829    -6939619.9600 
  22026612.938    -5574500.5890 
  22199378.690    -4050622.7860 
  20628807.765    -6828593.3070 
  22419687.449    -4034220.1070 
  23086456.455    -2541891.1390 
  24000902.124    -4236952.1520 
 25 10 20 18 26 10.0000000  0 10G06G11G12G13G15G17G19G22G24G30      
  22613942.394   -11278169.0180 
  23612280.567   -17592688.8300 
  23910166.611    -3369212.5920 
  20808587.960    -6962898.0790 
  22027223.158    -5614874.1170 
  22204875.357    -4065321.5430 
  20632696.365    -6851741.0550 
  22422883.770    -4061012.8340 
  23080801.682    -2615187.2890 
  24005978.100    -4253853.8650 
 25 10 20 18 26 20.0000000  0 10G06G11G12G13G15G17G19G22G24G30      
  22610152.215   -11341659.3530 
  23606736.224   -17665402.4460 
  23907694.309    -3425782.2240 
  20812461.498    -6986125.7680 
  22027841.499    -5655197.9180 
  22210377.424    -4079991.8490 
  20636592.941    -6874841.7140 
  22426077.622    -4087804.1760 
  23075147.445    -2688476.9980 
  24011059.048    -4270731.8760 
 25 10 20 18 26 30.0000000  0 10G06G11G12G13G15G17G19G22G24G30      
  22606369.133   -11405118.4710 
  23601191.538   -17738117.2680 
  23905221.806    -3482346.2040 
  20816343.135    -7009304.5080 
  22028470.227    -5695473.3210 
  22215883.727    -4094635.0850 
  20640497.759    -6897896.5160 
  22429272.418    -4114595.4870 
  23069496.155    -2761761.6350 
  24016145.233    -4287587.5940 
 25 10 20 18 26 40.0000000  0 10G06G11G12G13G15G17G19G22G24G30      
  22602593.984   -11468545.8110 
  23595649.204   -17810832.7970 
  23902752.943    -3538904.1740 
  20820235.710    -7032433.9770 
  22029109.178    -5735700.0100 
  22221397.390    -4109250.9280 
  20644414.373    -6920905.2920 
  22432466.275    -4141386.4180 
  23063848.219    -2835040.7450 
  24021235.631    -4304420.6240 
 25 10 20 18 26 50.0000000  0 10G06G11G12G13G15G17G19G22G24G30      
  22598823.914   -11531940.9150 
  23590105.795   -17883548.5330 
  23900285.009    -3595455.9710 
  20824136.941    -7055513.9080 
  22029757.500    -5775877.6660 
  22226914.701    -4123839.0850 
  20648338.641    -6943867.8890 
  22435662.920    -4168176.5530 
  23058199.494    -2908313.8630 
  24026329.246    -4321230.7330 
 25 10 20 18 27 00.0000000  0 10G06G11G12G13G15G17G19G22G24G30      
  22595061.482   -11595302.5670 
  23584563.014   -17956263.2490 
  23897819.277    -3652000.3160 
  20828049.817    -7078543.3280 
  22030417.181    -5816005.1650 
  22232439.222    -4138398.7020 
  20652272.982    -6966783.3000 
  22438860.194    -4194964.8340 
  23052552.972    -2981579.7940 
  24031429.356    -4338016.7390 
 25 10 20 18 27 10.0000000  0 10G06G11G12G13G15G17G19G22G24G30      
  22591306.592   -11658630.3620 
  23579020.762   -18028976.5650 
  23895355.648    -3708536.9520 
  20831973.525    -7101521.9150 
  22031086.693    -5856082.2880 
  22237970.567    -4152929.5490 
  20656217.295    -6989651.3270 
  22442060.000    -4221750.9720 
  23046906.835    -3054838.1120 
  24036535.003    -4354778.4620 
 25 10 20 18 27 20.0000000  0 10G06G11G12G13G15G17G19G22G24G30      
  22587555.873   -11721923.6480 
  23573476.959   -18101687.7960 
  23892893.758    -3765065.3390 
  20835904.839    -7124449.2970 
  22031762.237    -5896108.6390 
  22243505.513    -4167431.0840 
  20660168.499    -7012471.5070 
  22445255.965    -4248534.4000 
  23041260.721    -3128088.2720 
  24041643.964    -4371515.3450 
 25 10 20 18 27 30.0000000  0 10G06G11G12G13G15G17G19G22G24G30      
  22583813.592   -11785183.0920 
  23567936.584   -18174397.6270 
  23890433.581    -3821586.3550 
  20839846.451    -7147326.3400 
  22032448.936    -5936084.8960 
  22249046.892    -4181904.1090 
  20664129.571    -7035244.7570 
  22448454.500    -4275315.8770 
  23035616.176    -3201330.8500 
  24046755.925    -4388228.1630 
 25 10 20 18 27 40.0000000  0 10G06G11G12G13G15G17G19G22G24G30      
  22580075.525   -11848409.2390 
  23562394.128   -18247106.5980 
  23887974.469    -3878100.7020 
  20843795.855    -7170153.7170 
  22033144.859    -5976011.7130 
  22254592.486    -4196349.5430 
  20668098.006    -7057971.7200 
  22451651.383    -4302096.1670 
  23029972.983    -3274566.5130 
  24051871.956    -4404917.6970 
 25 10 20 18 27 50.0000000  0 10G06G11G12G13G15G17G19G22G24G30      
  22576346.918   -11911601.5940 
  23556854.120   -18319814.2870 
  23885515.660    -3934607.8580 
  20847757.723    -7192931.1620 
  22033852.530    -6015888.9520 
  22260144.964    -4210766.9320 
  20672078.762    -7080652.1100 
  22454850.572    -4328874.8680 
  23024333.240    -3347794.7550 
  24056997.305    -4421583.5190 
 25 10 20 18 28 00.0000000  0 10G06G11G12G13G15G17G19G22G24G30      
  22572624.376   -11974759.5590 
  23551314.740   -18392520.1360 
  23883055.189                  
  20851729.234    -7215658.3500 
  22034569.702    -6055716.1500 
  22265702.506    -4225156.2220 
  20676067.730    -7103285.5710 
  22458053.250    -4355651.5120 
  23018696.415    -3421015.1030 
  24062128.004    -4438225.2210 
 25 10 20 18 28 10.0000000  0 10G06G11G12G13G15G17G19G22G24G30      
  22568910.689   -12037881.6880 
  23545776.774   -18465222.5370 
  23880593.556                  
  20855711.889    -7238334.0750 
  22035298.303    -6095491.9900 
  22271267.185    -4239515.8760 
  20680067.556    -7125870.8270 
  22461255.195    -4382424.6800 
  23013062.720    -3494226.0630 
  24067264.838    -4454841.3990 
 25 10 20 18 28 20.0000000  0 10G06G11G12G13G15G17G19G22G24G30      
  22565198.624   -12100968.8060 
  23540234.421   -18537922.4290 
  23878136.551                  
  20859698.742    -7260959.2760 
  22036031.962    -6135217.4090 
  22276832.485    -4253847.1180 
  20684071.294    -7148408.8800 
  22464453.612    -4409195.2780 
  23007428.502    -3567428.4620 
  24072399.718    -4471433.0880 
 25 10 20 18 28 30.0000000  0 10G06G11G12G13G15G17G19G22G24G30      
  22561499.031   -12164019.9350 
  23534699.531   -18610618.7800 
  23875688.869                  
  20863702.932    -7283533.2310 
  22036781.383    -6174891.5950 
  22282409.828    -4268149.1020 
  20688090.652    -7170899.0520 
  22467658.347    -4435962.5720 
  23001800.173    -3640621.3630 
  24077546.068    -4487999.5360 
 25 10 20 18 28 40.0000000  0 10G06G11G12G13G15G17G19G22G24G30      
  22557800.625   -12227034.6070 
  23529159.246   -18683311.1200 
  23873238.654                  
  20867709.740    -7306055.6640 
  22037534.423    -6214514.2130 
  22287986.497    -4282421.5960 
  20692113.486    -7193341.1270 
  22470859.691    -4462726.1170 
  22996166.592    -3713804.4150 
  24082691.744    -4504540.3040 
 25 10 20 18 28 50.0000000  0 10G06G11G12G13G15G17G19G22G24G30      
  22554107.246   -12290013.6240 
  23523617.406   -18756000.2320 
  23870790.175    -4307526.0750 
  20871724.007    -7328527.5290 
  22038294.924    -6254086.1640 
  22293566.906    -4296665.6260 
  20696143.064    -7215736.0270 
  22474056.760    -4489486.9140 
  22990531.742    -3786978.3050 
  24087843.306    -4521056.3910 
 25 10 20 18 29 00.0000000  0 10G06G11G12G13G15G17G19G22G24G30      
  22550420.809   -12352959.6190 
  23518077.356   -18828688.7970 
  23868343.629    -4363978.3230 
  20875747.363    -7350951.7750 
  22039064.083    -6293610.3820 
  22299153.255    -4310884.0970 
  20700181.445    -7238086.6100 
  22477255.906    -4516247.6930 
  22984898.396    -3860145.7970 
  24092994.083    -4537550.6560 
 25 10 20 18 29 10.0000000  0 10G06G11G12G13G15G17G19G22G24G30      
  22546741.019   -12415872.1700 
  23512538.801   -18901376.3960 
  23865896.146    -4420424.9800 
  20879780.227    -7373328.1130 
  22039844.039    -6333086.5850 
  22304744.962    -4325076.6470 
  20704228.332    -7260392.6570 
  22480455.690    -4543008.1520 
  22979267.976    -3933306.4420 
  24098152.365    -4554022.6580 
 25 10 20 18 29 20.0000000  0 10G06G11G12G13G15G17G19G22G24G30      
  22543071.943   -12478751.0280 
  23507002.805   -18974062.7790 
  23863450.793    -4476866.0600 
  20883828.099    -7395656.4480 
  22040636.998    -6372514.6020 
  22310345.381    -4339243.0940 
  20708288.510    -7282654.1760 
  22483658.460    -4569768.0120 
  22973644.408    -4006460.0130 
  24103318.214    -4570472.3430 
 25 10 20 18 29 30.0000000  0 10G06G11G12G13G15G17G19G22G24G30      
  22539407.535   -12541595.0860 
  23501465.897   -19046746.7700 
  23861006.387    -4533300.4420 
  20887884.359    -7417935.9610 
  22041438.919    -6411893.3170 
  22315950.897    -4353382.7490 
  20712356.360    -7304870.1860 
  22486862.894    -4596526.4550 
  22968022.217    -4079605.4660 
  24108487.586    -4586898.8000 
 25 10 20 18 29 40.0000000  0 10G06G11G12G13G15G17G19G22G24G30      
  22535749.907   -12604404.1100 
  23495930.044   -19119428.1900 
  23858561.748    -4589728.2580 
  20891949.974    -7440166.5970 
  22042249.478    -6451222.9940 
  22321561.047    -4367495.4230 
  20716432.421    -7327040.7440 
  22490066.094    -4623283.3190 
  22962400.651    -4152742.6070 
  24113664.167    -4603301.8730 
 25 10 20 18 29 50.0000000  0 10G06G11G12G13G15G17G19G22G24G30      
  22532099.712   -12667177.7080 
  23490395.614   -19192106.6780 
  23856120.680    -4646149.1860 
  20896024.739    -7462348.2180 
  22043070.477    -6490503.3920 
  22327176.340    -4381581.2220 
  20720517.632    -7349165.6600 
  22493270.002    -4650038.3830 
  22956779.079    -4225871.0750 
  24118843.745    -4619681.4120 
 25 10 20 18 30 00.0000000  0 10G06G11G12G13G15G17G19G22G24G30      
  22528453.800   -12729917.0320 
  23484858.456   -19264783.3140 
  23853682.464                  
  20900104.932    -7484482.0820 
  22043898.047    -6529735.7230 
  22332793.483    -4395641.4580 
  20724609.129    -7371246.2560 
  22496471.897    -4676792.8210 
  22951155.350    -4298991.9710 
  24124024.601    -4636038.5930 
 25 10 20 18 30 10.0000000  0 10G06G11G12G13G15G17G19G22G24G30      
  22524814.213   -12792622.0380 
  23479321.328   -19337458.0930 
  23851245.422    -4758974.0520 
  20904195.171    -7506568.3610 
  22044734.233    -6568920.1100 
  22338415.807    -4409676.2210 
  20728708.097    -7393282.6780 
  22499674.250    -4703546.6530 
  22945534.227    -4372105.2330 
  24129209.493    -4652373.5500 
 25 10 20 18 30 20.0000000  0 10G06G11G12G13G15G17G19G22G24G30      
  22521182.547   -12855292.5940 
  23473787.684   -19410130.8680 
  23848809.289    -4815377.9660 
  20908296.050    -7528607.2180 
  22045582.203    -6608056.5270 
  22344043.763    -4423685.6660 
  20732818.133    -7415275.0940 
  22502878.229    -4730300.0620 
  22939916.445    -4445210.8900 
  24134400.446    -4668686.3450 
 25 10 20 18 30 30.0000000  0 10G06G11G12G13G15G17G19G22G24G30      
  22517560.205   -12917927.7850 
  23468255.493   -19482800.7050 
  23846375.039    -4871775.7470 
  20912407.969    -7550597.8590 
  22046439.925    -6647144.2250 
  22349678.752    -4437669.0020 
  20736938.208    -7437222.7230 
  22506083.374    -4757052.0670 
  22934301.548    -4518307.9840 
  24139596.572    -4684976.1500 
 25 10 20 18 30 40.0000000  0 10G06G11G12G13G15G17G19G22G24G30      
  22513945.002   -12980527.3440 
  23462725.148   -19555467.4430 
  23843940.057    -4928167.0810 
  20916529.602    -7572540.3290 
  22047308.364    -6686183.1810 
  22355319.593    -4451626.1740 
  20741067.569    -7459125.5840 
  22509290.078    -4783802.6470 
  22928689.210    -4591396.2900 
  24144799.552    -4701242.8750 
 25 10 20 18 30 50.0000000  0 10G06G11G12G13G15G17G19G22G24G30      
  22510334.942   -13043091.2060 
  23457192.935   -19628130.9020 
  23841506.500    -4984552.1640 
  20920658.813    -7594434.7160 
  22048185.238    -6725173.4730 
  22360962.859    -4465557.3630 
  20745203.791    -7480983.7370 
  22512495.344    -4810551.7800 
  22923079.728    -4664475.7460 
  24150005.958    -4717486.6150 
 25 10 20 18 31 00.0000000  0 10G06G11G12G13G15G17G19G22G24G30      
  22506732.486   -13105619.0240 
  23451662.601   -19700790.7650 
  23839074.250    -5040930.7090 
  20924798.202    -7616280.8170 
  22049071.147    -6764114.6790 
  22366613.585    -4479462.1560 
  20749349.190    -7502797.0350 
  22515702.776    -4837299.1810 
  22917471.981    -4737546.0880 
  24155216.391    -4733707.0890 
 25 10 20 18 31 10.0000000  0 10G06G11G12G13G15G17G19G22G24G30      
  22503146.894   -13168109.7200 
  23446142.979   -19773445.9350 
  23836649.133                  
  20928955.743    -7638077.8210 
  22049976.781    -6803006.1700 
  22372277.884    -4493339.7230 
  20753511.310    -7524564.6600 
  22518917.198    -4864043.8860 
  22911875.948    -4810606.1850 
  24160438.393    -4749903.4240 
 25 10 20 18 31 20.0000000  0 10G06G11G12G13G15G17G19G22G24G30      
  22499558.192   -13230562.9700 
  23440613.521   -19846096.1100 
  23834213.752                  
  20933111.606    -7659825.6040 
  22050882.167    -6841847.6150 
  22377936.069    -4507190.2860 
  20757672.896    -7546286.5330 
  22522123.502    -4890785.7870 
  22906272.083    -4883655.7420 
  24165656.140    -4766075.4650 
 25 10 20 18 31 30.0000000  0  9G06G11G13G15G17G19G22G24G30         
  22495979.723   -13292980.2130 
  23435086.999   -19918742.7070 
  20937281.850    -7681525.7600 
  22051800.075    -6880640.7250 
  22383604.486    -4521015.4280 
  20761847.291    -7567964.2940 
  22525335.461    -4917526.4210 
  22900672.583    -4956696.2870 
  24170878.397    -4782224.7310 
 25 10 20 18 31 40.0000000  0  9G06G11G13G15G17G19G22G24G30         
  22492406.943   -13355360.9460 
  23429561.157   -19991385.2120 
  20941459.787    -7703177.9630 
  22052725.104    -6919385.2020 
  22389276.732    -4534814.6770 
  20766029.377    -7589597.6430 
  22528546.811    -4944265.3100 
  22895072.906    -5029727.3270 
  24176107.773    -4798350.9220 
 25 10 20 18 31 50.0000000  0  9G06G11G13G15G17G19G22G24G30         
  22488838.732   -13417704.3710 
  23424035.877   -20064022.8640 
  20945644.439    -7724781.7130 
  22053657.705    -6958080.2720 
  22394951.686    -4548587.7310 
  20770217.177    -7611185.9720 
  22531755.290    -4971001.8540 
  22889473.075    -5102748.0030 
  24181340.573    -4814453.3790 
 25 10 20 18 32 00.0000000  0  9G06G11G13G15G17G19G22G24G30         
  22485280.571   -13480010.7650 
  23418511.634   -20136655.8950 
  20949840.001    -7746337.5390 
  22054599.500    -6996726.3540 
  22400633.543    -4562334.9270 
  20774414.742    -7632729.8200 
  22534965.378    -4997736.3780 
  22883877.286    -5175758.7050 
  24186578.559                  
 25 10 20 18 32 10.0000000  0  9G06G11G13G15G17G19G22G24G30         
  22481730.405   -13542280.7020 
  23412989.231   -20209284.9010 
  20954045.416    -7767846.1830 
  22055553.008    -7035324.2820 
  22406322.965    -4576057.0220 
  20778622.018    -7654229.8530 
  22538177.592    -5024469.5510 
  22878284.053    -5248759.9760 
  24191818.673    -4846588.8130 
 25 10 20 18 32 20.0000000  0  9G06G11G13G15G17G19G22G24G30         
  22478185.468   -13604513.3420 
  23407466.621   -20281909.0510 
  20958258.924    -7789307.0380 
  22056515.038    -7073873.3940 
  22412014.612    -4589753.3910 
  20782835.382    -7675685.5170 
  22541387.596    -5051200.4950 
  22872691.185    -5321751.0470 
  24197064.302    -4862621.9870 
 25 10 20 18 32 30.0000000  0  9G06G11G13G15G17G19G22G24G30         
  22474646.529   -13666708.0910 
  23401945.001   -20354527.6940 
  20962481.291    -7810719.6060 
  22057486.213    -7112373.1960 
  22417709.967    -4603423.4200 
  20787058.751    -7697096.3970 
  22544597.874    -5077929.0080 
  22867099.592    -5394731.2820 
  24202317.217    -4878631.2390 
 25 10 20 18 32 40.0000000  0  9G06G11G13G15G17G19G22G24G30         
  22471114.843   -13728865.0880 
  23396424.050   -20427141.0120 
  20966713.486    -7832084.3140 
  22058466.931    -7150824.0470 
  22423410.571    -4617067.6920 
  20791290.230    -7718462.8090 
  22547807.677    -5104655.3470 
  22861509.814    -5467700.8880 
  24207573.378    -4894617.1390 
 25 10 20 18 32 50.0000000  0  9G06G11G13G15G17G19G22G24G30         
  22467590.642   -13790984.4330 
  23390904.576   -20499749.0990 
  20970954.741    -7853401.4860 
  22059457.566    -7189226.1380 
  22429117.660    -4630686.4460 
  20795530.483    -7739785.1460 
  22551018.670    -5131379.6900 
  22855924.947    -5540659.9550 
  24212832.875    -4910579.8550 
 25 10 20 18 33 00.0000000  0  9G06G11G13G15G17G19G22G24G30         
  22464072.619   -13853065.2760 
  23385385.698   -20572351.0910 
  20975203.747    -7874670.3770 
  22060456.097    -7227578.7880 
  22434827.349    -4644279.1350 
  20799778.059    -7761062.7420 
  22554231.548    -5158101.2820 
  22850340.963    -5613607.6570 
  24218095.544    -4926518.4740 
 25 10 20 18 33 10.0000000  0  9G06G11G13G15G17G19G22G24G30         
  22460563.633   -13915108.1370 
  23379867.845   -20644947.4830 
  20979462.363    -7895891.7750 
  22061464.237    -7265882.6830 
  22440542.927    -4657846.3890 
  20804034.958    -7782296.3440 
  22557444.735    -5184820.7120 
  22844759.148    -5686544.5780 
  24223363.817    -4942433.8970 
 25 10 20 18 33 20.0000000  0  9G06G11G13G15G17G19G22G24G30         
  22457064.015   -13977111.7980 
  23374351.776   -20717537.0430 
  20983730.919    -7917064.6790 
  22062482.031    -7304136.8400 
  22446264.295    -4671387.2880 
  20808300.509    -7803484.8950 
  22560658.989    -5211536.8300 
  22839180.261    -5759469.4620 
  24228637.165    -4958324.8930 
 25 10 20 18 33 30.0000000  0  9G06G11G13G15G17G19G22G24G30         
  22453570.464   -14039077.0320 
  23368836.193   -20790120.5370 
  20988008.261    -7938190.0790 
  22063507.895    -7342342.0460 
  22451988.869    -4684902.7930 
  20812574.560    -7824629.4110 
  22563873.731    -5238250.4800 
  22833603.148    -5832383.1740 
  24233916.150    -4974192.4740 
 25 10 20 18 33 40.0000000  0  9G06G11G13G15G17G19G22G24G30         
  22450085.230   -14101003.8350 
  23363323.919   -20862697.9790 
  20992296.210    -7959268.2300 
  22064545.510    -7380498.5310 
  22457719.327    -4698392.9060 
  20816858.073    -7845730.1410 
  22567088.776    -5264961.8510 
  22828028.343    -5905285.6470 
  24239199.732    -4990036.7460 
 25 10 20 18 33 50.0000000  0  9G06G11G13G15G17G19G22G24G30         
  22446599.459   -14162891.6400 
  23357804.525   -20935268.8300 
  20996584.908    -7980298.6910 
  22065584.448    -7418605.9820 
  22463447.960    -4711857.5910 
  20821142.049    -7866786.6880 
  22570297.417    -5291670.3780 
  22822447.992    -5978176.4370 
  24244480.344    -5005857.2910 
 25 10 20 18 34 00.0000000  0 10G06G11G12G13G15G17G19G22G24G30      
  22443133.196   -14224741.6170 
  23352299.059   -21007834.2350 
  23795540.597                  
  21000894.404    -8001282.8620 
  22066644.470    -7456665.6260 
  22469193.813    -4725298.1840 
  20825446.823    -7887800.3780 
  22573518.413    -5318377.5270 
  22816882.428    -6051056.6500 
  24249777.890    -5021655.4650 
 25 10 20 18 34 10.0000000  0 10G06G11G12G13G15G17G19G22G24G30      
  22439669.178   -14286551.9920 
  23346790.973   -21080392.3930 
  23793135.459                  
  21005208.577    -8022219.0880 
  22067708.882    -7494675.9260 
  22474938.475    -4738713.0250 
  20829755.558    -7908769.6610 
  22576734.641    -5345081.5430 
  22811313.528    -6123924.5830 
  24255074.818    -5037429.5350 
 25 10 20 18 34 20.0000000  0  9G06G11G13G15G17G19G22G24G30         
  22436211.381   -14348322.3500 
  23341282.812   -21152942.9100 
  21009530.115    -8043107.2490 
  22068782.663    -7532636.5540 
  22480687.785    -4752101.8640 
  20834071.087    -7929694.3340 
  22579949.506    -5371782.0650 
  22805745.840    -6196779.7590 
  24260374.389    -5053179.3400 
 25 10 20 18 34 30.0000000  0  9G06G11G13G15G17G19G22G24G30         
  22432761.032   -14410053.7300 
  23335775.516   -21225486.7740 
  21013861.391    -8063948.6140 
  22069864.607    -7570548.7630 
  22486442.396    -4765465.9210 
  20838394.492    -7950575.6820 
  22583166.096    -5398480.3750 
  22800181.737    -6269623.2750 
  24265677.402    -5068905.9420 
 25 10 20 18 34 40.0000000  0  9G06G11G13G15G17G19G22G24G30         
  22429317.362   -14471745.9850 
  23330267.603   -21298023.8830 
  21018201.636    -8084743.2240 
  22070956.093    -7608412.5160 
  22492199.966    -4778805.1230 
  20842725.150    -7971413.8240 
  22586382.354    -5425176.3200 
  22794618.876    -6342455.0640 
  24270986.666    -5084609.4110 
 25 10 20 18 34 50.0000000  0  9G06G11G13G15G17G19G22G24G30         
  22425882.703   -14533399.0650 
  23324763.118   -21370554.1560 
  21022552.178    -8105491.1800 
  22072058.306    -7646227.9930 
  22497963.827    -4792119.7600 
  20847065.390    -7992208.8120 
  22589600.466    -5451870.0270 
  22789058.729    -6415275.0340 
  24276299.072    -5100289.9040 
 25 10 20 18 35 00.0000000  0  9G06G11G13G15G17G19G22G24G30         
  22422455.974   -14595012.0200 
  23319258.409   -21443076.6650 
  21026910.795    -8126191.8410 
  22073168.736    -7683994.3430 
  22503732.329    -4805409.3120 
  20851413.704    -8012959.9830 
  22592819.213    -5478560.6870 
  22783501.362    -6488082.3080 
  24281617.263    -5115946.5270 
 25 10 20 18 35 10.0000000  0  9G06G11G13G15G17G19G22G24G30         
  22419035.840   -14656585.2560 
  23313755.142   -21515591.7590 
  21031277.294    -8146845.7670 
  22074288.765    -7721712.2000 
  22509504.276    -4818674.0580 
  20855769.757    -8033667.8370 
  22596036.254    -5505248.7570 
  22777946.296    -6560877.2450 
  24286939.616    -5131579.8870 
 25 10 20 18 35 20.0000000  0  9G06G11G13G15G17G19G22G24G30         
  22415620.347   -14718118.8470 
  23308252.654   -21588099.5470 
  21035649.436    -8167453.0600 
  22075415.010    -7759381.7750 
  22515280.150    -4831914.4850 
  20860132.884    -8054332.7330 
  22599254.933    -5531934.4180 
  22772391.436    -6633659.9900 
  24292264.035    -5147190.1770 
 25 10 20 18 35 30.0000000  0  9G06G11G13G15G17G19G22G24G30         
  22412212.086   -14779612.5590 
  23302751.101   -21660599.7570 
  21040030.097    -8188014.0150 
  22076550.347    -7797002.9270 
  22521059.965    -4845130.5320 
  20864503.530    -8074954.6570 
  22602472.400    -5558617.5510 
  22766839.086    -6706430.2830 
  24297593.396    -5162777.2130 
 25 10 20 18 35 40.0000000  0  9G06G11G13G15G17G19G22G24G30         
  22408812.395   -14841065.9580 
  23297252.251   -21733091.9200 
  21044421.475    -8208528.2740 
  22077694.110    -7834575.4840 
  22526844.199    -4858321.8030 
  20868882.315    -8095533.4240 
  22605689.708    -5585297.7340 
  22761289.724    -6779187.6880 
  24302927.749    -5178340.7490 
 25 10 20 18 35 50.0000000  0  9G06G11G13G15G17G19G22G24G30         
  22405422.992   -14902477.5600 
  23291755.105   -21805574.6210 
  21048824.858    -8228994.5720 
  22078850.595    -7872097.9940 
  22532635.574    -4871487.0450 
  20873270.674    -8116067.7040 
  22608910.437    -5611973.6250 
  22755744.499    -6851930.8200 
  24308266.381    -5193879.5160 
 25 10 20 18 36 00.0000000  0  9G06G11G13G15G17G19G22G24G30         
  22402040.030   -14963848.3890 
  23286258.532   -21878048.8280 
  21053235.112    -8249414.1490 
  22080015.523    -7909571.7540 
  22538429.956    -4884627.8300 
  20877666.475    -8136558.7730 
  22612128.592    -5638646.4250 
  22750200.420    -6924660.6640 
  24313609.880    -5209394.6140 
 25 10 20 18 36 10.0000000  0  9G06G11G13G15G17G19G22G24G30         
  22398666.045   -15025178.4420 
  23280765.928   -21950514.5160 
  21057654.914    -8269787.1260 
  22081190.716    -7946996.9460 
  22544229.451    -4897743.9280 
  20882071.682    -8157006.7180 
  22615350.285    -5665316.2390 
  22744659.164    -6997377.2090 
  24318957.062    -5224886.2640 
 25 10 20 18 36 20.0000000  0  9G06G11G13G15G17G19G22G24G30         
  22395298.968   -15086467.4000 
  23275274.222   -22022971.3890 
  21062082.484    -8290113.4880 
  22082373.533    -7984373.4090 
  22550033.421    -4910835.5660 
  20886485.372    -8177411.4470 
  22618571.304    -5691982.9370 
  22739119.523    -7070080.2420 
  24324309.863    -5240354.2130 
 25 10 20 18 36 30.0000000  0  9G06G11G13G15G17G19G22G24G30         
  22391939.463   -15147714.2420 
  23269783.220   -22095418.4210 
  21066518.627    -8310392.3430 
  22083566.069    -8021700.2380 
  22555842.531    -4923901.9410 
  20890905.345    -8197772.1940 
  22621792.453    -5718645.5200 
  22733582.302    -7142768.6920 
  24329665.658    -5255797.6160 
 25 10 20 18 36 40.0000000  0  9G06G11G13G15G17G19G22G24G30         
  22388586.311   -15208918.9310 
  23264291.273   -22167855.5810 
  21070961.123    -8330623.8730 
  22084765.673    -8058977.6400 
  22561654.417    -4936943.0870 
  20895331.243    -8218089.3210 
  22625014.089    -5745304.0450 
  22728045.710    -7215442.5710 
  24335025.230    -5271216.6540 
 25 10 20 18 36 50.0000000  0  9G06G11G13G15G17G19G22G24G30         
  22385240.320   -15270081.5420 
  23258800.191   -22240282.9120 
  21075412.353    -8350808.4270 
  22085974.726    -8096205.7950 
  22567470.458    -4949959.2610 
  20899765.588    -8238362.8960 
  22628233.727    -5771958.6200 
  22722510.842    -7288101.9650 
  24340390.532    -5286611.3830 
 25 10 20 18 37 00.0000000  0  9G06G11G13G15G17G19G22G24G30         
  22381904.037   -15331202.0550 
  23253313.952   -22312700.3700 
  21079875.153    -8370946.1990 
  22087194.061    -8133384.8100 
  22573292.774    -4962950.6380 
  20904211.360    -8258593.2190 
  22631457.494    -5798609.3670 
  22716980.817    -7360746.8360 
  24345760.964    -5301982.0170 
 25 10 20 18 37 10.0000000  0  9G06G11G13G15G17G19G22G24G30         
  22378576.421   -15392279.3990 
  23247830.369   -22385106.8730 
  21084347.048    -8391036.3180 
  22088422.778    -8170513.8490 
  22579120.751    -4975916.1230 
  20908665.225    -8278779.3340 
  22634682.486    -5825255.2090 
  22711455.022    -7433376.1830 
  24351134.337    -5317327.6310 
 25 10 20 18 37 20.0000000  0 10G06G11G12G13G15G17G19G22G24G30      
  22375241.822   -15453313.1450 
  23242335.798   -22457502.0100 
  23747618.845                  
  21088814.822    -8411078.5070 
  22089647.803    -8207592.5200 
  22584940.744    -4988855.7590 
  20913113.826    -8298921.0130 
  22637893.341    -5851896.0220 
  22705918.525    -7505989.5480 
  24356500.586    -5332647.8780 
 25 10 20 18 37 30.0000000  0 10G06G11G12G13G15G17G19G22G24G30      
  22371936.617   -15514304.0360 
  23236864.038   -22529886.4990 
  23745245.598                  
  21093311.847    -8431073.7110 
  22090905.084    -8244621.8560 
  22590786.124    -5001770.5290 
  20917591.247    -8319019.1630 
  22641127.150    -5878532.5520 
  22700405.841    -7578587.6490 
  24361891.220    -5347943.7220 
 25 10 20 18 37 40.0000000  0  9G06G11G13G15G17G19G22G24G30         
  22368629.136   -15575252.7780 
  23231383.134   -22602261.0830 
  21097807.312    -8451022.8210 
  22092160.089    -8281602.7120 
  22596625.795    -5014661.3810 
  20922066.106    -8339074.8440 
  22644350.242    -5905165.7070 
  22694885.014    -7651171.3120 
  24367276.145    -5363216.0150 
 25 10 20 18 37 50.0000000  0  9G06G11G13G15G17G19G22G24G30         
  22365334.239   -15636159.2760 
  23225907.230   -22674625.5430 
  21102315.074    -8470926.0310 
  22093426.390    -8318535.0970 
  22602472.182    -5027528.3200 
  20926552.548    -8359088.0720 
  22647576.759    -5931795.4510 
  22689370.046    -7723740.3630 
  24372666.498    -5378464.8090 
 25 10 20 18 38 00.0000000  0  9G06G11G13G15G17G19G22G24G30         
  22362047.747   -15697023.1630 
  23220432.147   -22746979.5960 
  21106831.242    -8490783.0980 
  22094701.239    -8355418.7910 
  22608322.968    -5040371.1350 
  20931047.681    -8379058.7070 
  22650804.384    -5958421.4780 
  22683857.759    -7796294.5270 
  24378062.681    -5393689.7380 
 25 10 20 18 38 10.0000000  0  9G06G11G13G15G17G19G22G24G30         
  22358767.379   -15757843.4200 
  23214958.180   -22819322.1920 
  21111354.821    -8510593.2890 
  22095984.502    -8392253.0310 
  22614174.726    -5053189.0560 
  20935548.222    -8398985.9180 
  22654031.264    -5985042.8550 
  22678347.303    -7868832.7550 
  24383462.841    -5408890.0440 
 25 10 20 18 38 20.0000000  0  9G06G11G13G15G17G19G22G24G30         
  22355493.823   -15818620.0520 
  23209486.160   -22891653.3450 
  21115885.928    -8530356.8030 
  22097276.294    -8429037.9190 
  22620031.436    -5065982.2680 
  20940056.291    -8418869.9940 
  22657257.945    -6011659.8520 
  22672838.652    -7941355.1070 
  24388865.377    -5424065.8230 
 25 10 20 18 38 30.0000000  0  9G06G11G13G15G17G19G22G24G30         
  22352228.054   -15879353.9780 
  23204015.916   -22963973.9000 
  21120425.250    -8550074.7570 
  22098577.303    -8465774.5660 
  22625893.358    -5078751.7930 
  20944572.147    -8438711.8270 
  22660485.830    -6038273.2860 
  22667333.064    -8013862.4720 
  24394271.980    -5439218.2780 
 25 10 20 18 38 40.0000000  0  9G06G11G13G15G17G19G22G24G30         
  22348969.337   -15940044.1780 
  23198547.145   -23036282.8550 
  21124971.769    -8569746.3820 
  22099886.653    -8502462.1130 
  22631758.469    -5091496.7900 
  20949094.912    -8458510.9320 
  22663710.609    -6064882.2090 
  22661829.236    -8086353.8120 
  24399683.490    -5454346.3890 
 25 10 20 18 38 50.0000000  0  9G06G11G13G15G17G19G22G24G30         
  22345717.497   -16000691.4100 
  23193078.381   -23108581.0120 
  21129526.308    -8589372.6570 
  22101202.879    -8539101.4910 
  22637626.592    -5104218.5780 
  20953623.838    -8478268.1130 
  22666935.394    -6091487.6460 
  22656325.987    -8158829.9400 
  24405099.585    -5469451.0810 
 25 10 20 18 39 00.0000000  0  9G06G11G13G15G17G19G22G24G30         
  22342472.729   -16061294.9590 
  23187609.106   -23180867.6270 
  21134087.061    -8608952.8150 
  22102526.893    -8575692.2330 
  22643498.210    -5116916.4580 
  20958159.407    -8497982.9100 
  22670161.529    -6118089.0560 
  22650824.087    -8231290.1610 
  24410520.178    -5484531.8400 
 25 10 20 18 39 10.0000000  0  9G06G11G13G15G17G19G22G24G30         
  22339236.310   -16121854.7350 
  23182143.316   -23253142.5540 
  21138656.308    -8628487.2770 
  22103859.972    -8612234.3420 
  22649373.313    -5129590.4510 
  20962702.753    -8517655.4030 
  22673388.573    -6144686.3010 
  22645325.242    -8303734.4100 
  24415944.112    -5499588.6500 
 25 10 20 18 39 20.0000000  0  9G06G11G13G15G17G19G22G24G30         
  22336009.211   -16182371.1600 
  23176680.834   -23325406.2170 
  21143236.303    -8647976.6290 
  22105204.373    -8648728.3680 
  22655253.871    -5142241.2290 
  20967255.561    -8537286.2680 
  22676617.924    -6171279.9320 
  22639830.422    -8376163.1210 
  24421372.499    -5514622.0830 
 25 10 20 18 39 30.0000000  0  9G06G11G13G15G17G19G22G24G30         
  22332791.958   -16242843.4390 
  23171220.330   -23397657.7820 
  21147826.718    -8667420.1390 
  22106559.766    -8685173.7020 
  22661140.412    -5154868.1540 
  20971818.503    -8556874.8640 
  22679847.821    -6197869.1450 
  22634340.583    -8448575.4770 
  24426805.297    -5529631.5490 
 25 10 20 18 39 40.0000000  0  9G06G11G13G15G17G19G22G24G30         
  22329583.102   -16303270.1730 
  23165763.071   -23469895.8720 
  21152425.387    -8686816.6950 
  22107923.842    -8721569.0890 
  22667031.344    -5167469.7640 
  20976388.840    -8576420.0570 
  22683076.385    -6224452.7180 
  22628852.989    -8520970.1130 
  24432243.629    -5544615.6890 
 25 10 20 18 39 50.0000000  0  9G06G11G13G15G17G19G22G24G30         
  22326379.409   -16363652.7870 
  23160306.395   -23542121.9330 
  21157030.792    -8706167.9770 
  22109294.797    -8757916.1910 
  22672925.149    -5180048.2390 
  20980964.338    -8595923.4860 
  22686305.388    -6251032.3740 
  22623366.693    -8593348.4870 
  24437683.546    -5559576.2050 
 25 10 20 18 40 00.0000000  0  9G06G11G13G15G17G19G22G24G30         
  22323185.449   -16423991.8340 
  23154851.439   -23614336.4530 
  21161644.786    -8725474.7090 
  22110675.343    -8794215.6210 
  22678823.679    -5192604.2050 
  20985548.426    -8615385.7490 
  22689535.826    -6277608.5140 
  22617884.836    -8665711.1260 
  24443128.617    -5574513.6770 
 25 10 20 18 40 10.0000000  0  9G06G11G13G15G17G19G22G24G30         
  22319997.076   -16484286.8610 
  23149397.778   -23686538.9300 
  21166265.369    -8744736.6260 
  22112063.479    -8830467.2010 
  22684725.078    -5205137.3040 
  20990138.387    -8634806.8160 
  22692766.558    -6304180.9000 
  22612403.988    -8738057.5670 
  24448575.842    -5589427.8150 
 25 10 20 18 40 20.0000000  0  9G06G11G13G15G17G19G22G24G30         
  22316818.260   -16544536.5000 
  23143947.234   -23758728.0690 
  21170895.650    -8763952.6020 
  22113461.458    -8866669.6570 
  22690631.024    -5217646.3410 
  20994738.333    -8654185.4080 
  22695996.256    -6330748.1670 
  22606927.687    -8810386.5150 
  24454029.189    -5604317.4450 
 25 10 20 18 40 30.0000000  0  9G06G11G13G15G17G19G22G24G30         
  22313646.583   -16604742.7550 
  23138497.106   -23830905.8490 
  21175532.930    -8783124.8060 
  22114867.149    -8902825.2100 
  22696541.249    -5230133.5760 
  20999344.133    -8673523.7120 
  22699227.085    -6357312.5700 
  22601452.947    -8882699.9830 
  24459485.956    -5619184.7210 
 25 10 20 18 40 40.0000000  0  9G06G11G13G15G17G19G22G24G30         
  22310482.774   -16664904.4540 
  23133049.692   -23903071.0750 
  21180178.362    -8802252.3660 
  22116281.279    -8938932.9150 
  22702455.334    -5242598.0580 
  21003956.940    -8692820.8050 
  22702459.770    -6383872.9600 
  22595979.777    -8954996.7590 
  24464946.153    -5634028.5350 
 25 10 20 18 40 50.0000000  0  9G06G11G13G15G17G19G22G24G30         
  22307319.388   -16725021.1200 
  23127597.694   -23975223.2190 
  21184825.363    -8821334.9960 
  22117696.263    -8974992.4260 
  22708365.980    -5255039.3870 
  21008570.314    -8712076.3530 
  22705684.437    -6410428.9130 
  22590502.738    -9027276.4020 
  24470404.772    -5648848.6490 
 25 10 20 18 41 00.0000000  0 10G06G11G12G13G15G17G19G22G24G30      
  22304175.497   -16785093.8920 
  23122156.462   -24047363.4120 
  23695423.625                  
  21189488.996    -8840373.8940 
  22119130.168    -9011004.8460 
  22714290.252    -5267458.8330 
  21013200.749    -8731291.7690 
  22708919.297    -6436981.7430 
  22585038.611    -9099540.0130 
  24475874.584    -5663646.1570 
 25 10 20 18 41 10.0000000  0 10G06G11G12G13G15G17G19G22G24G30      
  22301038.861   -16845122.4740 
  23116715.617   -24119491.3850 
  23693062.118    -4258760.5640 
  21194159.169    -8859369.0410 
  22120571.329    -9046970.2360 
  22720217.631    -5279856.5160 
  21017837.439    -8750466.8940 
  22712153.400    -6463531.1900 
  22579576.731    -9171787.4120 
  24481348.934    -5678421.0870 
 25 10 20 18 41 20.0000000  0 10G06G11G12G13G15G17G19G22G24G30      
  22297906.195   -16905104.9970 
  23111275.021   -24191605.2120 
  23690699.144    -4314699.1340 
  21198834.027    -8878318.9060 
  22122018.177    -9082886.9030 
  22726146.118    -5292230.6950 
  21022478.242    -8769600.1560 
  22715383.316    -6490075.5610 
  22574113.956    -9244016.6760 
  24486819.956                  
 25 10 20 18 41 30.0000000  0  9G06G11G12G13G15G17G19G22G24         
  22294784.793   -16965043.8990 
  23105837.676   -24263707.3470 
  23688340.994    -4370632.3340 
  21203520.436    -8897226.0860 
  22123477.576    -9118757.2930 
  22732080.002    -5304583.9810 
  21027129.879    -8788694.0290 
  22718616.912    -6516617.3190 
  22568657.151    -9316230.3030 
 25 10 20 18 41 40.0000000  0  9G06G11G12G13G15G17G19G22G24         
  22291670.657   -17024938.2300 
  23100403.019   -24335796.7980 
  23685983.099    -4426559.4940 
  21208214.826    -8916089.7690 
  22124945.673    -9154580.6560 
  22738016.574    -5316915.5870 
  21031787.066    -8807747.7550 
  22721849.905    -6543155.6760 
  22563201.745    -9388427.2360 
 25 10 20 18 41 50.0000000  0  9G06G11G12G13G15G17G19G22G24         
  22288566.573   -17084787.2100 
  23094972.546   -24407872.8040 
  23683625.668    -4482479.9150 
  21212918.123    -8934909.3700 
  22126422.391    -9190356.4540 
  22743957.330    -5329224.8300 
  21036453.874    -8826761.0920 
  22725085.079    -6569689.9970 
  22557750.238    -9460606.8230 
 25 10 20 18 42 00.0000000  0  9G06G11G12G13G15G17G19G22G24         
  22285471.454   -17144592.7650 
  23089544.743   -24479937.2160 
  23681269.047    -4538395.5580 
  21217629.814    -8953687.0240 
  22127907.645    -9226086.8000 
  22749902.616    -5341513.9200 
  21041128.075    -8845736.0130 
  22728320.634    -6596222.1420 
  22552302.402    -9532770.9190 
 25 10 20 18 42 10.0000000  0  9G06G11G12G13G15G17G19G22G24         
  22282384.080   -17204353.3170 
  23084116.815   -24551988.5220 
  23678913.589    -4594305.0300 
  21222348.677    -8972421.4270 
  22129401.215    -9261770.1960 
  22755852.212    -5353781.6530 
  21045808.303    -8864671.2340 
  22731556.635    -6622750.7320 
  22546857.159    -9604918.0160 
 25 10 20 18 42 20.0000000  0  9G06G11G12G13G15G17G19G22G24         
  22279307.138   -17264068.1220 
  23078693.880   -24624025.9180 
  23676559.547    -4650207.6980 
  21227078.830    -8991112.0430 
  22130905.647    -9297406.1900 
  22761808.091    -5366027.4120 
  21050498.247    -8883566.1560 
  22734793.480    -6649275.1230 
  22541418.055    -9677047.3690 
 25 10 20 18 42 30.0000000  0  9G06G11G12G13G15G17G19G22G24         
  22276235.314   -17323738.5740 
  23073272.487   -24696050.8040 
  23674205.472    -4706105.0450 
  21231813.815    -9009760.4990 
  22132416.485    -9332996.3110 
  22767764.508    -5378252.8060 
  21055193.595    -8902422.3180 
  22738030.722    -6675796.7200 
  22535978.776    -9749160.3480 
 25 10 20 18 42 40.0000000  0  9G06G11G12G13G15G17G19G22G24         
  22273171.369   -17383364.1080 
  23067852.676   -24768062.5700 
  23671851.978    -4761996.6840 
  21236556.106    -9028366.3510 
  22133934.486    -9368540.1040 
  22773724.941    -5390457.4000 
  21059895.678    -8921239.3710 
  22741267.114    -6702315.2280 
  22530542.939    -9821256.4330 
 25 10 20 18 42 50.0000000  0  9G06G11G12G13G15G17G19G22G24         
  22270114.883   -17442943.2170 
  23062434.888   -24840059.6700 
  23669499.791    -4817881.2830 
  21241304.999    -9046928.2100 
  22135460.806    -9404036.2280 
  22779688.112    -5402639.5630 
  21064604.648    -8940015.9420 
  22744502.953    -6728829.0650 
  22525108.695    -9893334.0510 
 25 10 20 18 43 00.0000000  0  9G06G11G12G13G15G17G19G22G24         
  22267069.317   -17502477.2190 
  23057020.721   -24912043.5090 
  23667146.074    -4873760.3560 
  21246063.666    -9065447.8000 
  22136998.903    -9439486.0500 
  22785657.479    -5414801.1920 
  21069322.963    -8958753.6460 
  22747737.548                  
  22519679.503    -9965394.6090 
 25 10 20 18 43 10.0000000  0  9G06G11G12G13G15G17G19G22G24         
  22264032.346   -17561965.4160 
  23051607.852   -24984013.3290 
  23664796.660    -4929633.4140 
  21250830.213    -9083924.6280 
  22138546.597    -9474889.3090 
  22791630.292    -5426941.8240 
  21074047.870    -8977452.0020 
  22750975.873    -6274732.4720 
  22514252.468   -10037437.4100 
 25 10 20 18 43 20.0000000  0  9G06G11G12G13G15G17G19G22G24         
  22261000.249   -17621406.8270 
  23046193.847   -25055968.0190 
  23662446.396    -4985499.2850 
  21255601.920    -9102357.7930 
  22140097.019    -9510245.0480 
  22797603.971    -5439060.5530 
  21078775.792    -8996110.0980 
  22754211.346                  
  22508825.298   -10109461.4330 
 25 10 20 18 43 30.0000000  0  8G06G11G12G13G15G17G19G24            
  22257982.226   -17680802.9780 
  23040787.476   -25127909.1660 
  23660101.191    -5041359.7100 
  21260387.558    -9120749.0810 
  22141660.942    -9545554.9680 
  22803587.574    -5451159.1570 
  21083517.643    -9014729.8110 
  22503407.623   -10181468.2310 
 25 10 20 18 43 40.0000000  0  9G06G11G12G13G15G17G19G22G24         
  22254968.116   -17740152.0920 
  23035379.010   -25199835.0270 
  23657751.887    -5097213.1850 
  21265176.108    -9139096.9480 
  22143230.353    -9580817.5110 
  22809569.797    -5463236.0690 
  21088261.835    -9033309.5510 
  22760697.181    -6300604.9200 
  22497988.854   -10253456.0620 
 25 10 20 18 43 50.0000000  0  9G06G11G12G13G15G17G19G22G24         
  22251963.177   -17799454.1180 
  23029974.133   -25271745.4460 
  23655404.741    -5153059.7560 
  21269972.398    -9157401.4430 
  22144809.650    -9616032.7370 
  22815555.038    -5475291.3030 
  21093014.338    -9051849.3730 
  22763940.350                  
  22492573.532   -10325424.8320 
 25 10 20 18 44 00.0000000  0  9G06G11G12G13G15G17G19G22G24         
  22248972.664   -17858710.0040 
  23024578.960   -25343641.4130 
  23653065.153    -5208900.5370 
  21274783.113    -9175663.8060 
  22146403.516    -9651201.7870 
  22821550.697    -5487326.0780 
  21097779.121    -9070350.5640 
  22767187.071                  
  22487167.484   -10397375.5350 
 25 10 20 18 44 10.0000000  0  8G06G11G12G13G15G17G19G24            
  22245978.593   -17917919.0630 
  23019172.216   -25415522.2400 
  23650711.705    -5264734.8320 
  21279588.983    -9193883.5260 
  22147993.109    -9686324.0940 
  22827537.075    -5499339.8520 
  21102538.486    -9088812.5380 
  22481752.298   -10469307.4490 
 25 10 20 18 44 20.0000000  0  9G06G11G12G13G15G17G19G24G30         
  22242999.549   -17977081.0960 
  23013774.918   -25487387.6700 
  23648360.691    -5320562.6110 
  21284408.877    -9212060.6560 
  22149597.728    -9721399.6910 
  22833533.614    -5511332.4670 
  21107311.732    -9107235.3370 
  22476346.128   -10541220.3860 
  24586120.326    -5235046.2590 
 25 10 20 18 44 30.0000000  0  9G06G11G12G13G15G17G19G24G30         
  22240031.604   -18036196.7640 
  23008385.000   -25559238.3500 
  23646018.773    -5376384.7510 
  21289239.299    -9230196.0380 
  22151212.874    -9756429.3180 
  22839537.819    -5523304.9120 
  21112095.077    -9125619.7670 
  22470946.909   -10613115.0670 
  24591674.507    -5249369.1850 
 25 10 20 18 44 40.0000000  0  9G06G11G12G13G15G17G19G24G30         
  22237069.298   -18095266.6520 
  23002993.708   -25631074.8920 
  23643676.770    -5432201.9400 
  21294073.929    -9248290.5500 
  22152833.373    -9791413.8200 
  22845540.365    -5535258.2350 
  21116881.771    -9143966.6550 
  22465547.174   -10684992.0830 
  24597231.178    -5263670.8970 
 25 10 20 18 44 50.0000000  0  9G06G11G12G13G15G17G19G24G30         
  22234117.222   -18154290.3410 
  22997605.349   -25702896.7450 
  23641335.411    -5488013.8820 
  21298917.930    -9266343.8020 
  22154463.959    -9826352.8450 
  22851547.132    -5547192.0250 
  21121675.977    -9162275.8290 
  22460152.234   -10756850.9450 
  24602792.786    -5277951.1370 
 25 10 20 18 45 00.0000000  0  9G06G11G12G13G15G17G19G24G30         
  22231171.640   -18213267.2120 
  22992219.048   -25774703.4200 
  23638994.249    -5543820.0940 
  21303768.425    -9284355.5530 
  22156101.182    -9861246.0330 
  22857557.673    -5559105.8950 
  21126476.819    -9180546.8620 
  22454760.209   -10828691.1150 
  24608357.453    -5292209.3200 
 25 10 20 18 45 10.0000000  0  9G06G11G12G13G15G17G19G24G30         
  22228234.677   -18272197.2720 
  22986835.213   -25846494.7740 
  23636654.695    -5599620.6530 
  21308627.253    -9302325.9820 
  22157746.737    -9896093.4750 
  22863571.968    -5570999.9780 
  21131285.135    -9198779.8850 
  22449370.936   -10900512.5480 
  24613926.303    -5306445.6590 
 25 10 20 18 45 20.0000000  0 10G06G11G12G13G15G17G19G22G24G30      
  22225308.864   -18331079.9930 
  22981457.234   -25918270.3190 
  23634317.991    -5655414.9820 
  21313494.799    -9320254.8010 
  22159403.157    -9930894.8870 
  22869590.545    -5582873.9860 
  21136102.741    -9216974.6480 
  22793107.340                  
  22443985.946   -10972314.7720 
  24619499.292    -5320659.7150 
 25 10 20 18 45 30.0000000  0 10G06G11G12G13G15G17G19G22G24G30      
  22222392.176   -18389915.5530 
  22976081.798   -25990030.2510 
  23631982.256    -5711203.7110 
  21318370.324    -9338142.2700 
  22161068.273    -9965650.5770 
  22875613.668    -5594728.1620 
  21140926.182    -9235131.5340 
  22796351.761    -6301651.0650 
  22438604.929   -11044097.9420 
  24625076.111    -5334851.8930 
 25 10 20 18 45 40.0000000  0 10G06G11G12G13G15G17G19G22G24G30      
  22219481.320   -18448703.1010 
  22970705.468   -26061773.6610 
  23629643.482    -5766986.1960 
  21323249.965    -9355987.8230 
  22162740.365   -10000359.8350 
  22881636.613    -5606561.9860 
  21145753.021    -9253249.8600 
  22799599.152    -6328098.5520 
  22433224.735   -11115861.2010 
  24630654.898    -5349021.4470 
 25 10 20 18 45 50.0000000  0 10G06G11G12G13G15G17G19G22G24G30      
  22216579.946   -18507443.1700 
  22965332.181   -26133501.0440 
  23627305.032    -5822762.7990 
  21328138.945    -9373792.1800 
  22164421.224   -10035023.3850 
  22887665.463    -5618376.1020 
  21150589.629    -9271330.3530 
  22802843.434    -6354542.1660 
  22427849.016   -11187605.0980 
  24636240.736    -5363169.0500 
 25 10 20 18 46 00.0000000  0 10G06G11G12G13G15G17G19G22G24G30      
  22213687.050   -18566136.1760 
  22959961.219   -26205212.7670 
  23624966.044    -5878534.2000 
  21333033.969    -9391555.8450 
  22166109.844   -10069641.8360 
  22893696.637    -5630171.1170 
  21155430.994    -9289373.6410 
  22806087.893                  
  22422476.766   -11259329.9970 
  24641830.472    -5377295.1000 
 25 10 20 18 46 10.0000000  0 10G06G11G12G13G15G17G19G22G24G30      
  22210801.880   -18624782.2920 
  22954592.260   -26276909.0170 
  23622628.917    -5934300.7250 
  21337936.435    -9409279.2570 
  22167806.764   -10104215.5370 
  22899731.103    -5641947.4120 
  21160279.800    -9307380.1790 
  22809337.217                  
  22417106.662   -11331036.1360 
  24647421.782    -5391400.1380 
 25 10 20 18 46 20.0000000  0 10G06G11G12G13G15G17G19G22G24G30      
  22207928.050   -18683380.8780 
  22949227.914   -26348589.2140 
  23620295.545    -5990061.9060 
  21342848.236    -9426962.1300 
  22169512.591   -10138744.0000 
  22905771.041    -5653704.5410 
  21165137.227    -9325349.4970 
  22812583.142                  
  22411740.886   -11402722.8940 
  24653017.705    -5405483.5800 
 25 10 20 18 46 30.0000000  0 10G06G11G12G13G15G17G19G22G24G30      
  22205063.205   -18741932.2960 
  22943867.546   -26420253.5790 
  23617963.145    -6045818.0470 
  21347768.450    -9444604.9600 
  22171226.974   -10173227.5720 
  22911814.956    -5665443.0290 
  21170001.921    -9343282.1400 
  22815829.324    -6296059.6620 
  22406378.801   -11474390.6130 
  24658616.032    -5419545.9800 
 25 10 20 18 46 40.0000000  0 10G06G11G12G13G15G17G19G22G24G30      
  22202205.761   -18800435.0410 
  22938509.427   -26491900.6120 
  23615631.992    -6101567.9600 
  21352693.775    -9462206.4110 
  22172947.755   -10207665.1030 
  22917860.261    -5677161.5800 
  21174872.156    -9361176.7280 
  22819077.469    -6322484.8930 
  22401019.537   -11546037.7640 
  24664217.037                  
 25 10 20 18 46 50.0000000  0 10G06G11G12G13G15G17G19G22G24G30      
  22199359.791   -18858889.7380 
  22933156.774   -26563530.9740 
  23613301.583    -6157312.4010 
  21357630.003    -9479767.3840 
  22174680.871   -10242057.3680 
  22923912.320    -5688861.0490 
  21179752.149    -9379034.1360 
  22822328.503    -6348906.1830 
  22395668.028   -11617665.0200 
  24669823.651                  
 25 10 20 18 47 00.0000000  0 10G06G11G12G13G15G17G19G22G24G30      
  22196520.441   -18917296.0050 
  22927804.729   -26635144.1200 
  23610970.639    -6213050.9110 
  21362570.131    -9497287.5940 
  22176420.748   -10276404.1520 
  22929964.845    -5700541.1250 
  21184637.330    -9396854.1210 
  22825577.571    -6375323.1120 
  22390317.844   -11689271.9250 
  24675434.451                  
 25 10 20 18 47 10.0000000  0 10G06G11G12G13G15G17G19G22G24G30      
  22193690.029   -18975653.9610 
  22922454.611   -26706740.3370 
  23608639.045    -6268783.9500 
  21367516.622    -9514767.5040 
  22178167.274   -10310705.8640 
  22936019.296    -5712202.2830 
  21189527.299    -9414637.1140 
  22828826.276    -6401735.9610 
  22384969.729   -11760858.7170 
  24681049.896                  
 25 10 20 18 47 20.0000000  0 10G06G11G12G13G15G17G19G22G24G30      
  22190867.080   -19033964.0060 
  22917106.806   -26778319.9560 
  23606307.760    -6324511.9020 
  21372470.290    -9532207.6320 
  22179920.977   -10344962.8530 
  22942076.060    -5723845.0110 
  21194421.727    -9432383.7190 
  22832072.285    -6428145.2850 
  22379622.639   -11832425.7360 
  24686668.941    -5271010.3800 
 25 10 20 18 47 30.0000000  0 10G06G11G12G13G15G17G19G22G24G30      
  22188049.673   -19092226.3750 
  22911758.675   -26849883.1220 
  23603974.433    -6380235.2140 
  21377429.643    -9549608.3580 
  22181680.509   -10379175.6220 
  22948133.787    -5735469.8150 
  21199321.410    -9450094.3580 
  22835318.827    -6454551.2760 
  22374276.941   -11903973.1600 
  24692292.241    -5284943.0360 
 25 10 20 18 47 40.0000000  0 10G06G11G12G13G15G17G19G22G24G30      
  22185244.712   -19150439.7430 
  22906417.410   -26921428.5880 
  23601646.111    -6435952.7190 
  21382399.581    -9566968.7120 
  22183451.055   -10413343.1270 
  22954197.233    -5747075.5050 
  21204231.107    -9467767.9140 
  22838565.939    -6480952.8480 
  22368938.394   -11975499.7740 
  24697917.684                  
 25 10 20 18 47 50.0000000  0 10G06G11G12G13G15G17G19G22G24G30      
  22182450.767   -19208605.1160 
  22901081.151   -26992957.2530 
  23599317.358    -6491665.4070 
  21387379.391    -9584289.8520 
  22185232.331   -10447466.3830 
  22960267.261    -5758663.3160 
  21209148.815    -9485405.6150 
  22841812.763    -6507351.0610 
  22363605.999   -12047006.5210 
  24703547.131                  
 25 10 20 18 48 00.0000000  0 10G06G11G12G13G15G17G19G22G24G30      
  22179664.089   -19266723.0780 
  22895745.290   -27064469.6930 
  23596988.145    -6547374.1260 
  21392363.319    -9601572.5640 
  22187020.731   -10481546.1920 
  22966340.119    -5770234.0110 
  21214072.931    -9503008.2090 
  22845064.134    -6533746.4600 
  22358276.434   -12118494.0160 
  24709181.841    -5224831.8620 
 25 10 20 18 48 10.0000000  0  9G06G11G12G13G15G17G19G22G24         
  22176890.550   -19324793.6450 
  22890415.843   -27135965.8220 
  23594660.480    -6603078.9650 
  21397357.669    -9618816.9890 
  22188819.551   -10515582.6940 
  22972418.819    -5781787.6700 
  21219007.182    -9520575.8060 
  22848318.915    -6560139.2040 
  22352953.999   -12189962.1630 
 25 10 20 18 48 20.0000000  0  9G06G11G12G13G15G17G19G22G24         
  22174126.002   -19382815.5610 
  22885089.377   -27207444.4190 
  23592334.509    -6658778.8150 
  21402359.578    -9636022.0310 
  22190625.359   -10549574.8370 
  22978499.927    -5793323.3740 
  21223946.417    -9538107.3630 
  22851572.384    -6586528.1400 
  22347634.545   -12261409.8030 
 25 10 20 18 48 30.0000000  0  9G06G11G12G13G15G17G19G22G24         
  22171364.689   -19440789.9230 
  22879761.282   -27278906.6070 
  23590009.483    -6714474.8730 
  21407363.864    -9653189.1650 
  22192436.406   -10583523.9040 
  22984579.119    -5804842.3890 
  21228888.028    -9555604.3290 
  22854822.077    -6612914.4410 
  22342312.459   -12332838.0490 
 25 10 20 18 48 40.0000000  0  9G06G11G12G13G15G17G19G22G24         
  22168613.422   -19498715.5170 
  22874438.653   -27350351.1870 
  23587684.774    -6770166.0340 
  21412377.623    -9670317.3550 
  22194257.355   -10617428.8210 
  22990662.348    -5816343.6840 
  21233837.253    -9573065.6030 
  22858072.514    -6639297.0020 
  22336995.411   -12404245.6850 
 25 10 20 18 48 50.0000000  0  9G06G11G12G13G15G17G19G22G24         
  22165872.095   -19556591.1950 
  22869119.096   -27421776.9150 
  23585360.846    -6825851.2510 
  21417397.888    -9687405.6170 
  22196086.670   -10651288.5820 
  22996749.077    -5827826.1960 
  21238794.272    -9590490.3010 
  22861325.880    -6665674.7340 
  22331683.294   -12475631.5290 
 25 10 20 18 49 00.0000000  0  9G06G11G12G13G15G17G19G22G24         
  22163141.415   -19614418.9390 
  22863803.316   -27493185.7190 
  23583037.834    -6881532.5300 
  21422426.510    -9704456.0820 
  22197924.771   -10685105.2830 
  23002838.725    -5839292.1210 
  21243758.216    -9607880.5210 
  22864579.018    -6692049.7290 
  22326376.100   -12546997.5130 
 25 10 20 18 49 10.0000000  0  9G06G11G12G13G15G17G19G22G24         
  22160419.222   -19672198.4400 
  22858490.015   -27564577.3250 
  23580715.297    -6937209.8820 
  21427461.330    -9721468.7040 
  22199770.502   -10718878.8990 
  23008932.712    -5850741.4520 
  21248727.214    -9625236.1420 
  22867832.200    -6718421.7860 
  22321072.243   -12618343.4310 
 25 10 20 18 49 20.0000000  0  9G06G11G12G13G15G17G19G22G24         
  22157703.060   -19729928.5670 
  22853176.877   -27635950.5420 
  23578392.208    -6992882.2240 
  21432501.036    -9738442.5370 
  22201621.977   -10752608.3900 
  23015027.149    -5862173.2400 
  21253700.239    -9642556.3100 
  22871085.404    -6744789.8580 
  22315769.408   -12689668.0970 
 25 10 20 18 49 30.0000000  0  9G06G11G12G13G15G17G19G22G24         
  22154992.794   -19787610.0200 
  22847865.344   -27707306.0850 
  23576064.856    -7048550.3360 
  21437544.636    -9755378.5620 
  22203478.490   -10786294.6580 
  23021122.187    -5873588.3110 
  21258678.016    -9659841.8760 
  22874336.920    -6771154.6880 
  22310466.889   -12760972.2270 
 25 10 20 18 49 40.0000000  0 10G06G11G12G13G15G17G19G22G24G30      
  22152296.345   -19845242.4760 
  22842560.758   -27778643.5220 
  23573741.591    -7104214.1600 
  21442599.477    -9772276.5880 
  22205347.103   -10819937.5780 
  23027223.316    -5884986.5580 
  21263666.462    -9677092.7370 
  22877593.095    -6797516.0510 
  22305171.748   -12832255.4600 
  24765730.641                  
 25 10 20 18 49 50.0000000  0 10G06G11G12G13G15G17G19G22G24G30      
  22149609.217   -19902825.5900 
  22837260.628   -27849962.5820 
  23571420.206    -7159873.4410 
  21447662.207    -9789136.5300 
  22207225.322   -10853536.9280 
  23033329.330    -5896367.7540 
  21268661.796    -9694308.7790 
  22880849.433    -6823873.6800 
  22299882.064   -12903517.5320 
  24771405.376                  
 25 10 20 18 50 00.0000000  0 10G06G11G12G13G15G17G19G22G24G30      
  22146930.272   -19960358.7980 
  22831962.243   -27921262.5720 
  23569099.564    -7215527.6760 
  21452731.404    -9805957.8910 
  22209110.152   -10887092.1700 
  23039436.372    -5907731.5200 
  21273662.309    -9711489.5280 
  22884104.797    -6850227.0420 
  22294595.842   -12974757.7390 
  24777083.572                  
 25 10 20 18 50 10.0000000  0 10G06G11G12G13G15G17G19G22G24G30      
  22144260.772   -20017842.3970 
  22826666.148   -27992543.8690 
  23566779.494    -7271177.3600 
  21457807.040    -9822741.3100 
  22211003.424   -10920603.9700 
  23045546.277    -5919078.4410 
  21278669.547    -9728635.6230 
  22887361.019    -6876576.7610 
  22289313.340   -13045976.4970 
  24782765.489    -5229833.8930 
 25 10 20 18 50 20.0000000  0 10G06G11G12G13G15G17G19G22G24G30      
  22141602.222   -20075277.0580 
  22821376.710   -28063807.1130 
  23564460.930    -7326823.3140 
  21462891.623    -9839487.7300 
  22212905.356   -10954073.1570 
  23051661.408    -5930409.3480 
  21283684.302    -9745747.8640 
  22890617.174    -6902923.3470 
  22284035.635   -13117174.5080 
  24788451.201                  
 25 10 20 18 50 30.0000000  0 10G06G11G12G13G15G17G19G22G24G30      
  22138953.432   -20132662.0320 
  22816090.878   -28135051.4660 
  23562145.974    -7382464.8820 
  21467983.819    -9856196.5300 
  22214815.761   -10987499.0320 
  23057779.860    -5941723.6040 
  21288705.954    -9762825.6460 
  22893877.794    -6929266.1950 
  22278762.110   -13188350.8740 
  24794136.657                  
 25 10 20 18 50 40.0000000  0 10G06G11G12G13G15G17G19G22G24G30      
  22136315.691   -20189996.8240 
  22810809.657   -28206276.4010 
  23559832.622    -7438101.6010 
  21473083.774    -9872867.3220 
  22216735.641   -11020881.3600 
  23063902.636    -5953020.9220 
  21293736.223    -9779868.6850 
  22897137.300    -6955604.8700 
  22273493.338   -13259505.1650 
  24799828.010                  
 25 10 20 18 50 50.0000000  0 10G06G11G12G13G15G17G19G22G24G30      
  22133682.493   -20247281.5530 
  22805527.971   -28277482.0170 
  23557514.083    -7493733.6900 
  21478186.554    -9889500.5490 
  22218659.634   -11054220.4210 
  23070024.803    -5964301.6220 
  21298768.172    -9796877.3760 
  22900395.768    -6981939.5880 
  22268225.674   -13330637.4620 
  24805524.622    -5284046.0640 
 25 10 20 18 51 00.0000000  0 10G06G11G12G13G15G17G19G22G24G30      
  22131057.375   -20304517.3720 
  22800248.498   -28348669.4240 
  23555197.185    -7549362.4620 
  21483295.699    -9906097.4940 
  22220590.563   -11087517.4600 
  23076149.470    -5975566.9660 
  21303805.055    -9813852.9220 
  22903648.152                  
  22262961.512   -13401748.9190 
  24811224.879    -5297549.3220 
 25 10 20 18 51 10.0000000  0 10G06G11G12G13G15G17G19G22G24G30      
  22128444.276   -20361702.8060 
  22794974.318   -28419837.2870 
  23552881.288    -7604986.6470 
  21488413.427    -9922657.0010 
  22222530.506   -11120771.3990 
  23082277.713    -5986815.8620 
  21308849.234    -9830794.2510 
  22906904.683                  
  22257702.643   -13472838.2240 
  24816927.567    -5311032.2890 
 25 10 20 18 51 20.0000000  0 10G06G11G12G13G15G17G19G22G24G30      
  22125843.264   -20418837.6050 
  22789706.503   -28490985.1990 
  23550566.460    -7660605.9620 
  21493539.379    -9939178.9050 
  22224480.533   -11153981.9740 
  23088410.174    -5998048.0580 
  21313901.780    -9847701.0700 
  22910166.577    -7378034.6760 
  22252449.423   -13543904.9400 
  24822634.472    -5324494.7250 
 25 10 20 18 51 30.0000000  0 10G06G11G12G13G15G17G19G22G24G30      
  22123247.947   -20475923.0370 
  22784440.374   -28562114.2970 
  23548250.745    -7716221.8480 
  21498670.167    -9955664.6050 
  22226436.397   -11187150.5590 
  23094544.323    -6009264.9570 
  21318958.017    -9864574.9100 
  22913426.438                  
  22247197.890   -13614950.2800 
  24828342.206                  
 25 10 20 18 51 40.0000000  0  9G06G11G12G13G15G17G19G24G30         
  22120663.984   -20532958.3180 
  22779177.731   -28633223.9500 
  23545937.226    -7771833.7210 
  21503809.018    -9972113.6690 
  22228402.328   -11220276.8120 
  23100682.957    -6020465.8380 
  21324023.176    -9881415.2580 
  22241951.702   -13685973.6360 
  24834057.861                  
 25 10 20 18 51 50.0000000  0  9G06G11G12G13G15G17G19G24G30         
  22118087.548   -20589943.2010 
  22773918.607   -28704313.8710 
  23543623.935    -7827441.4820 
  21508954.680    -9988526.0080 
  22230375.643   -11253360.3680 
  23106821.105    -6031650.8890 
  21329094.001    -9898222.1440 
  22236710.036   -13756974.6570 
  24839776.750                  
 25 10 20 18 52 00.0000000  0  9G06G11G12G13G15G17G19G24G30         
  22115523.639   -20646877.8590 
  22768665.715   -28775384.0550 
  23541311.153    -7883045.1460 
  21514108.291   -10004901.9550 
  22232359.052   -11286401.6690 
  23112964.340    -6042820.6450 
  21334172.632    -9914995.8880 
  22231473.885   -13827953.4820 
  24845503.301                  
 25 10 20 18 52 10.0000000  0  8G06G11G12G13G15G17G19G24            
  22112967.407   -20703762.1470 
  22763413.488   -28846434.4060 
  23538998.606    -7938644.9130 
  21519266.573   -10021241.5830 
  22234348.277   -11319400.6860 
  23119109.527    -6053974.9270 
  21339254.646    -9931736.2540 
  22226239.115   -13898910.0080 
 25 10 20 18 52 20.0000000  0  8G06G11G12G13G15G17G19G24            
  22110420.355   -20760595.7620 
  22758165.146   -28917464.6310 
  23536687.226    -7994240.6530 
  21524432.749   -10037544.8230 
  22236344.537   -11352357.3220 
  23125256.740    -6065113.6450 
  21344342.979    -9948443.5310 
  22221009.090   -13969843.9290 
 25 10 20 18 52 30.0000000  0  8G06G11G12G13G15G17G19G24            
  22107882.787   -20817378.0200 
  22752919.564   -28988473.9620 
  23534379.035    -8049831.6860 
  21529606.261   -10053811.1400 
  22238349.136   -11385270.9850 
  23131406.999    -6076236.2510 
  21349438.650    -9965117.0760 
  22215784.113   -14040754.4650 
 25 10 20 18 52 40.0000000  0  8G06G11G12G13G15G17G19G24            
  22105354.128   -20874109.3920 
  22747678.025   -29059462.8860 
  23532068.734    -8105418.8030 
  21534784.533   -10070041.2900 
  22240359.925   -11418142.4570 
  23137560.298    -6087343.2640 
  21354539.795    -9981757.6410 
  22210561.318   -14111642.2620 
 25 10 20 18 52 50.0000000  0  8G06G11G12G13G15G17G19G24            
  22102835.136   -20930790.0490 
  22742438.426   -29130431.4410 
  23529756.653    -8161002.0920 
  21539969.038   -10086235.5610 
  22242379.666   -11450971.8950 
  23143717.399    -6098435.2500 
  21359645.599    -9998365.4170 
  22205342.325   -14182507.2760 
 25 10 20 18 53 00.0000000  0  8G06G11G12G13G15G17G19G24            
  22100326.108   -20987419.8400 
  22737203.497   -29201379.5050 
  23527445.950    -8216581.5120 
  21545161.646   -10102393.9580 
  22244407.367   -11483759.3080 
  23149875.878    -6109512.1010 
  21364756.932   -10014940.4260 
  22200127.858   -14253349.3740 
 25 10 20 18 53 10.0000000  0  8G06G11G12G13G15G17G19G24            
  22097823.800   -21043997.5440 
  22731969.994   -29272305.9170 
  23525135.386    -8272156.1950 
  21550357.684   -10118515.6560 
  22246441.073   -11516503.8370 
  23156035.497    -6120572.7190 
  21369872.552   -10031481.7540 
  22194914.960   -14324167.4790 
 25 10 20 18 53 20.0000000  0  8G06G11G12G13G15G17G19G24            
  22095331.360   -21100524.4880 
  22726741.065   -29343211.9560 
  23522826.104    -8327727.3520 
  21555560.728   -10134602.1420 
  22248483.360   -11549206.9670 
  23162197.972    -6131618.9650 
  21374995.178   -10047990.7910 
  22189707.494   -14394962.8670 
 25 10 20 18 53 30.0000000  0  8G06G11G12G13G15G17G19G24            
  22092849.497   -21157000.4120 
  22721516.559   -29414097.1600 
  23520517.668    -8383294.7620 
  21560770.628   -10150653.1990 
  22250532.789   -11581868.3840 
  23168364.012    -6142650.4630 
  21380124.660   -10064467.5310 
  22184505.597   -14465735.1120 
 25 10 20 18 53 40.0000000  0  8G06G11G12G13G15G17G19G24            
  22090379.153   -21213425.0130 
  22716297.848   -29484961.3600 
  23518209.876    -8438858.5060 
  21565988.470   -10166668.8950 
  22252591.161   -11614488.2140 
  23174533.129    -6153667.1700 
  21385261.083   -10080912.0370 
  22179308.779   -14536484.1090 
 25 10 20 18 53 50.0000000  0  8G06G11G12G13G15G17G19G24            
  22087917.058   -21269798.8260 
  22711082.091   -29555805.1110 
  23515902.320    -8494419.1280 
  21571212.128   -10182649.9970 
  22254655.635   -11647067.0720 
  23180704.342    -6164669.8280 
  21390402.606   -10097325.0660 
  22174114.201   -14607210.3870 
 25 10 20 18 54 00.0000000  0  8G06G11G12G13G15G17G19G24            
  22085463.042   -21326122.3650 
  22705869.263   -29626628.8240 
  23513594.258    -8549977.3620 
  21576441.862   -10198597.1340 
  22256727.760   -11679605.5200 
  23186878.053    -6175659.1140 
  21395550.205   -10113707.1900 
  22168922.979   -14677914.3400 
 25 10 20 18 54 10.0000000  0  8G06G11G12G13G15G17G19G24            
  22083019.464   -21382395.1860 
  22700661.007   -29697431.9660 
  23511286.904    -8605532.6700 
  21581678.314   -10214509.9990 
  22258809.178   -11712103.3770 
  23193054.476    -6186634.6860 
  21400703.092   -10130058.1780 
  22163738.047   -14748595.5500 
 25 10 20 18 54 20.0000000  0  8G06G11G12G13G15G17G19G24            
  22080586.267   -21438616.9940 
  22695456.548   -29768214.2350 
  23508981.917    -8661084.9570 
  21586922.284   -10230388.5280 
  22260898.258   -11744560.5130 
  23199233.123    -6197596.5300 
  21405863.210   -10146377.8620 
  22158557.627   -14819253.6560 
 25 10 20 18 54 30.0000000  0  8G06G11G12G13G15G17G19G24            
  22078161.586   -21494787.8790 
  22690255.598   -29838975.7300 
  23506674.429    -8716634.4790 
  21592172.482   -10246232.9400 
  22262994.137   -11776977.1720 
  23205415.994    -6208544.8390 
  21411028.697   -10162666.4890 
  22153381.146   -14889888.8130 
 25 10 20 18 54 40.0000000  0  8G06G11G12G13G15G17G19G24            
  22075744.402   -21550907.2860 
  22685056.707   -29909715.8560 
  23504367.282    -8772180.6980 
  21597426.885   -10262043.0670 
  22265095.510   -11809353.0080 
  23211600.065    -6219479.2740 
  21416197.818   -10178923.7820 
  22148207.296   -14960500.4380 
 25 10 20 18 54 50.0000000  0  8G06G11G12G13G15G17G19G24            
  22073339.394   -21606974.7170 
  22679864.268   -29980434.1460 
  23502059.576    -8827723.3040 
  21602689.171   -10277818.5980 
  22267207.055   -11841687.6470 
  23217788.013    -6230399.5490 
  21421374.964   -10195149.5160 
  22143039.183   -15031088.0990 
 25 10 20 18 55 00.0000000  0  8G06G11G12G13G15G17G19G24            
  22070940.627   -21662991.3070 
  22674670.916   -30051131.5750 
  23499749.240    -8883263.4720 
  21607954.837   -10293560.8070 
  22269322.981   -11873982.3430 
  23223974.046    -6241306.8880 
  21426553.916   -10211344.8440 
  22137872.159   -15101652.8030 
 25 10 20 18 55 10.0000000  0  9G06G11G12G13G15G17G19G24G30         
  22068555.651   -21718955.5940 
  22669485.774   -30121806.6050 
  23497444.396    -8938799.8170 
  21613231.145   -10309268.3340 
  22271448.835   -11906235.7110 
  23230165.284    -6252199.7810 
  21431741.937   -10227508.3670 
  22132712.917   -15172192.9950 
  24954858.086    -5233842.8190 
 25 10 20 18 55 20.0000000  0  9G06G11G12G13G15G17G19G24G30         
  22066182.122   -21774867.7150 
  22664307.215   -30192459.4780 
  23495141.125    -8994332.6900 
  21618515.467   -10324941.6190 
  22273583.274   -11938448.3090 
  23236360.672    -6263078.9240 
  21436938.687   -10243640.5990 
  22127560.687   -15242709.0130 
  24960649.383    -5246845.4660 
 25 10 20 18 55 30.0000000  0  9G06G11G12G13G15G17G19G24G30         
  22063819.109   -21830728.7140 
  22659134.162   -30263091.1870 
  23492840.357    -9049863.3510 
  21623806.012   -10340581.9210 
  22275725.367   -11970621.2010 
  23242560.566    -6273945.4630 
  21442141.802   -10259742.9130 
  22122413.391   -15313201.7840 
  24966442.323                  
 25 10 20 18 55 40.0000000  0  9G06G11G12G13G15G17G19G24G30         
  22061464.787   -21886537.5880 
  22653962.789   -30333700.6760 
  23490539.265    -9105390.7540 
  21629099.952   -10356188.3910 
  22277875.578   -12002753.6420 
  23248760.994    -6284798.5940 
  21447348.886   -10275814.4790 
  22117268.776   -15383670.2750 
  24972235.797                  
 25 10 20 18 55 50.0000000  0  8G06G11G12G13G15G17G19G24            
  22059118.746   -21942293.7770 
  22648793.258   -30404287.3790 
  23488239.156    -9160914.6010 
  21634400.601   -10371760.7210 
  22280033.499   -12034845.1910 
  23254961.261    -6295637.9030 
  21452559.529   -10291854.8480 
  22112127.864   -15454113.9450 
 25 10 20 18 56 00.0000000  0  9G06G11G12G13G15G17G19G24G30         
  22056777.687   -21997998.7890 
  22643624.989   -30474852.7090 
  23485935.301    -9216436.4260 
  21639703.083   -10387300.6370 
  22282194.684   -12066897.3980 
  23261161.931    -6306465.0380 
  21457772.007   -10307865.6460 
  22106987.068   -15524534.3400 
  24983838.711                  
 25 10 20 18 56 10.0000000  0  8G06G11G12G13G15G17G19G24            
  22054448.281   -22053652.3470 
  22638462.507   -30545396.3930 
  23483633.226    -9271956.0300 
  21645014.786   -10402807.9230 
  22284366.378   -12098910.3540 
  23267365.956    -6317279.8540 
  21462992.417   -10323846.8550 
  22101853.204   -15594931.0730 
 25 10 20 18 56 20.0000000  0  8G06G11G12G13G15G17G19G24            
  22052130.654   -22109254.4450 
  22633305.078   -30615918.3830 
  23481333.915    -9327473.6010 
  21650333.403   -10418282.8230 
  22286543.412   -12130884.1550 
  23273573.316    -6328082.5700 
  21468219.741   -10339798.6320 
  22096725.252   -15665304.1910 
 25 10 20 18 56 30.0000000  0  8G06G11G12G13G15G17G19G24            
  22049823.603   -22164804.3940 
  22628151.927   -30686417.9400 
  23479034.590    -9382988.4540 
  21655656.155   -10433724.8280 
  22288728.158   -12162818.1130 
  23279782.953    -6338872.6320 
  21473453.348   -10355720.4610 
  22091601.722   -15735652.9530 
 25 10 20 18 56 40.0000000  0  8G06G11G12G13G15G17G19G24            
  22047527.291   -22220301.8250 
  22623005.797   -30756894.6730 
  23476734.273    -9438500.5030 
  21660988.361   -10449133.8320 
  22290922.787   -12194712.1450 
  23285995.459    -6349649.8320 
  21478693.831   -10371612.2040 
  22086483.781   -15805976.9950 
 25 10 20 18 56 50.0000000  0  8G06G11G12G13G15G17G19G24            
  22045239.208   -22275747.7770 
  22617861.742   -30827349.5700 
  23474434.456    -9494010.7910 
  21666324.501   -10464511.0520 
  22293124.213   -12226567.4370 
  23292209.755    -6360415.4140 
  21483937.820   -10387475.0770 
  22081368.487   -15876277.3390 
 25 10 20 18 57 00.0000000  0  8G06G11G12G13G15G17G19G24            
  22042958.214   -22331140.6040 
  22612719.340   -30897781.0190 
  23472133.000    -9549517.6760 
  21671666.014   -10479855.1270 
  22295331.727   -12258382.6070 
  23298424.415    -6371167.8360 
  21489185.465   -10403307.6380 
  22076255.132   -15946552.3620 
 25 10 20 18 57 10.0000000  0  8G06G11G12G13G15G17G19G24            
  22040688.290   -22386480.6390 
  22607582.139   -30968189.2400 
  23469832.311    -9605021.7260 
  21677014.017   -10495166.5360 
  22297547.447   -12290158.1720 
  23304642.131    -6381907.7370 
  21494439.457   -10419110.3260 
  22071146.836   -16016802.3230 
 25 10 20 18 57 20.0000000  0  8G06G11G12G13G15G17G19G24            
  22038429.247   -22441767.5410 
  22602450.526   -31038573.8910 
  23467532.773    -9660522.8370 
  21682367.894   -10510445.0800 
  22299770.616   -12321893.8240 
  23310862.286    -6392634.9130 
  21499698.893   -10434883.0370 
  22066045.129   -16087026.8770 
 25 10 20 18 57 30.0000000  0  8G06G11G12G13G15G17G19G24            
  22036174.455   -22497002.6160 
  22597317.440   -31108936.2230 
  23465226.897    -9716022.1460 
  21687721.729   -10525692.2360 
  22301995.460   -12353591.0470 
  23317079.681    -6403350.7690 
  21504959.575   -10450627.2670 
  22060943.237   -16157227.3290 
 25 10 20 18 57 40.0000000  0  9G06G11G12G13G15G17G19G22G24         
  22033951.316   -22552184.7900 
  22592210.427   -31179275.1570 
  23462942.372    -9771518.8980 
  21693105.356   -10540907.2100 
  22304249.953   -12385248.9430 
  23323322.003    -6414054.4170 
  21510247.760   -10466342.0890 
  23034376.199    -7325630.2160 
  22055868.849   -16227402.6100 
 25 10 20 18 57 50.0000000  0  9G06G11G12G13G15G17G19G22G24         
  22031719.485   -22607312.5840 
  22587089.284   -31249589.1880 
  23460641.427    -9827011.6570 
  21698475.856   -10556088.7370 
  22306491.891   -12416866.2910 
  23329546.618    -6424744.6230 
  21515522.961   -10482026.2850 
  23037659.417    -7351816.8380 
  22050779.472   -16297551.2070 
 25 10 20 18 58 00.0000000  0  8G06G11G12G13G15G17G19G24            
  22029495.191   -22662387.8150 
  22581969.667   -31319880.0550 
  23458338.576    -9882502.2790 
  21703850.172   -10571238.8350 
  22308738.075   -12448444.9520 
  23335771.616    -6435423.1990 
  21520800.976   -10497681.7850 
  22045690.907   -16367674.9410 
 25 10 20 18 58 10.0000000  0  9G06G11G12G13G15G17G19G22G24         
  22027286.656   -22717410.5570 
  22576859.658   -31390147.7790 
  23456041.324    -9937990.9990 
  21709235.097   -10586357.7110 
  22310997.299   -12479985.1400 
  23342003.645    -6446090.5950 
  21526090.172   -10513308.9260 
  23044213.329                  
  22040612.378   -16437773.7920 
 25 10 20 18 58 20.0000000  0  9G06G11G12G13G15G17G19G22G24         
  22025091.549   -22772380.9040 
  22571756.780   -31460392.4590 
  23453746.768    -9993478.0550 
  21714628.584   -10601445.7590 
  22313267.948   -12511487.1970 
  23348241.088    -6456747.0690 
  21531386.786   -10528907.9120 
  23047499.072    -7346161.3270 
  22035542.697   -16507847.9220 
 25 10 20 18 58 30.0000000  0  9G06G11G12G13G15G17G19G22G24         
  22022900.501   -22827298.1350 
  22566653.382   -31530613.3140 
  23451447.543   -10048962.8290 
  21720022.266   -10616502.3530 
  22315540.939   -12542950.5130 
  23354474.577    -6467391.9450 
  21536683.166   -10544478.2480 
  23050781.576    -7372335.4810 
  22030471.924   -16577896.5850 
 25 10 20 18 58 40.0000000  0  9G06G11G12G13G15G17G19G22G24         
  22020723.121   -22882161.9290 
  22561558.214   -31600810.0550 
  23449151.682   -10104445.1560 
  21725425.752   -10631527.3920 
  22317825.307   -12574374.9900 
  23360713.863    -6478025.0540 
  21541989.206   -10560019.7720 
  23054062.007    -7398505.9350 
  22025409.810   -16647919.4850 
 25 10 20 18 58 50.0000000  0  9G06G11G12G13G15G17G19G22G24         
  22018556.276   -22936972.7130 
  22556467.715   -31670982.9680 
  23446856.341   -10159925.4870 
  21730834.337   -10646521.4900 
  22320115.919   -12605761.1850 
  23366954.813    -6488647.1040 
  21547298.914   -10575533.1410 
  23057342.958    -7424673.0280 
  22020351.507   -16717916.8970 
 25 10 20 18 59 00.0000000  0  9G06G11G12G13G15G17G19G22G24         
  22016395.199   -22991730.0810 
  22551376.974   -31741131.7030 
  23444558.325   -10215403.6280 
  21736246.114   -10661484.4050 
  22322409.008   -12637108.7870 
  23373195.665    -6499257.8810 
  21552610.384   -10591018.1000 
  23060624.382    -7450836.5420 
  22015294.679   -16787888.4820 
 25 10 20 18 59 10.0000000  0  9G06G11G12G13G15G17G19G22G24         
  22014245.695   -23046433.8500 
  22546293.799   -31811255.9710 
  23442263.153   -10270879.4130 
  21741665.743   -10676416.1710 
  22324711.379   -12668417.8710 
  23379439.217    -6509857.3230 
  21557928.274   -10606474.6550 
  23063904.644    -7476996.3850 
  22010245.703   -16857834.0630 
 25 10 20 18 59 20.0000000  0  9G06G11G12G13G15G17G19G22G24         
  22012107.783   -23101083.3430 
  22541215.634   -31881355.0730 
  23439967.983   -10326352.3410 
  21747092.385   -10691316.2880 
  22327022.195   -12699688.0080 
  23385685.490    -6520444.8870 
  21563253.465   -10621902.2610 
  23067189.487    -7503152.0330 
  22005203.311   -16927752.9470 
 25 10 20 18 59 30.0000000  0  9G06G11G12G13G15G17G19G22G24         
  22009979.025   -23155679.0810 
  22536141.902   -31951429.5150 
  23437672.810   -10381822.9060 
  21752523.460   -10706185.5240 
  22329340.305   -12730919.7930 
  23391934.908    -6531021.2510 
  21568584.089   -10637301.7710 
  23070473.611    -7529303.9260 
  22000165.066   -16997645.5820 
 25 10 20 18 59 40.0000000  0  9G06G11G12G13G15G17G19G22G24         
  22007861.727   -23210219.1950 
  22531073.619   -32021477.3730 
  23435377.934   -10437289.4570 
  21757960.700   -10721022.2380 
  22331666.011   -12762111.5340 
  23398186.341    -6541584.7030 
  21573920.020   -10652671.4640 
  23073757.460    -7555450.2930 
  21995131.984   -17067510.0920 
 25 10 20 18 59 50.0000000  0  9G06G11G12G13G15G17G19G22G24         
  22005755.484   -23264703.7790 
  22526010.525   -32091498.6920 
  23433085.099   -10492752.1000 
  21763404.845   -10735826.6270 
  22333999.052   -12793263.4730 
  23404438.812    -6552135.5100 
  21579262.141   -10668011.5830 
  23077042.777    -7581591.3750 
  21990102.372   -17137346.5720 
 25 10 20 19 00 00.0000000  0  9G06G11G12G13G15G17G19G22G24         
  22003660.458   -23319134.1750 
  22520952.494   -32161494.7640 
  23430794.037   -10548212.2910 
  21768855.915   -10750600.2480 
  22336340.877   -12824377.0410 
  23410692.770    -6562675.2670 
  21584611.758   -10683323.6420 
  23080329.725    -7607728.4690 
  21985079.828   -17207156.3070 
 25 10 20 19 00 10.0000000  0  9G06G11G12G13G15G17G19G22G24         
  22001573.855   -23373510.6210 
  22515897.735   -32231465.8070 
  23428502.240   -10603670.5360 
  21774311.258   -10765343.5780 
  22338687.834   -12855452.7420 
  23416948.140    -6573204.3090 
  21589963.645   -10698608.0450 
  23083618.083    -7633861.9920 
  21980061.701   -17276939.5670 
 25 10 20 19 00 20.0000000  0  9G06G11G12G13G15G17G19G22G24         
  21999498.587   -23427832.8480 
  22510850.735   -32301411.5190 
  23426210.904   -10659126.4650 
  21779773.930   -10780056.5610 
  22341043.265   -12886490.4070 
  23423207.118    -6583722.7100 
  21595322.289   -10713864.7130 
  23086904.184    -7659991.6130 
  21975050.045   -17346696.0460 
 25 10 20 19 00 30.0000000  0  9G06G11G12G13G15G17G19G22G24         
  21997428.501   -23482100.3710 
  22505803.335   -32371331.4010 
  23423914.160   -10714579.9100 
  21785237.204   -10794738.9150 
  22343401.444   -12917489.6720 
  23429465.125    -6594229.7140 
  21600681.679   -10729093.3730 
  23090195.466                  
  21970038.990   -17416425.2800 
 25 10 20 19 00 40.0000000  0  9G06G11G12G13G15G17G19G22G24         
  21995368.220   -23536313.0620 
  22500759.015   -32441225.2620 
  23421618.779   -10770030.8100 
  21790706.133   -10809390.6540 
  22345764.993   -12948450.5370 
  23435723.493    -6604725.7940 
  21606045.149   -10744294.0670 
  23093487.967                  
  21965030.872   -17486127.0610 
 25 10 20 19 00 50.0000000  0  7G06G11G12G13G15G19G24               
  21993317.803   -23590470.9380 
  22495719.694   -32511093.0720 
  23419324.391   -10825479.1680 
  21796180.205   -10824012.0040 
  22348136.832   -12979373.3330 
  21611414.049   -10759467.0030 
  21960027.754   -17555801.3930 
 25 10 20 19 01 00.0000000  0  8G06G11G12G13G15G17G19G24            
  21991278.290   -23644574.9170 
  22490685.123   -32580935.7020 
  23417029.029   -10880926.0970 
  21801659.600   -10838604.0840 
  22350514.423   -13010259.1750 
  23448242.957                  
  21616788.128   -10774613.2520 
  21955029.815   -17625449.2430 
 25 10 20 19 01 10.0000000  0  8G06G11G12G13G15G17G19G24            
  21989253.923   -23698625.7350 
  22485659.833   -32650753.8450 
  23414738.225   -10936372.4150 
  21807147.988   -10853167.7870 
  22352903.440   -13041108.8930 
  23454514.345                  
  21622169.913   -10789733.7210 
  21950042.443   -17695071.2530 
 25 10 20 19 01 20.0000000  0  8G06G11G12G13G15G17G19G24            
  21987235.704   -23752622.1610 
  22480636.397   -32720546.2580 
  23412445.269   -10991816.9510 
  21812638.804   -10867702.0950 
  22355297.604   -13071921.4000 
  23460779.574                  
  21627553.553   -10804827.3750 
  21945056.355   -17764666.1740 
 25 10 20 19 01 30.0000000  0  8G06G11G12G13G15G17G19G24            
  21985230.972   -23806563.7770 
  22475620.868   -32790312.4930 
  23410157.502   -11047259.5070 
  21818139.387   -10882206.7990 
  22357702.822   -13102696.5080 
  23467053.712                  
  21632946.673   -10819894.0460 
  21940078.602   -17834233.5970 
 25 10 20 19 01 40.0000000  0  7G06G11G12G13G15G19G24               
  21983233.470   -23860450.2410 
  22470605.844   -32860052.1100 
  23407865.945   -11102699.7480 
  21823642.620   -10896681.7790 
  22360111.836   -13133433.9880 
  21638340.871   -10834933.5090 
  21935102.785   -17903773.1280 
 25 10 20 19 01 50.0000000  0  8G06G11G12G13G15G17G19G24            
  21981248.446   -23914281.2990 
  22465598.146   -32929764.8790 
  23405574.562   -11158137.5460 
  21829152.465   -10911127.0000 
  22362528.320   -13164133.7550 
  23479599.448                  
  21643743.540   -10849945.6810 
  21930133.579   -17973284.5610 
 25 10 20 19 02 00.0000000  0  8G06G11G12G13G15G17G19G24            
  21979273.746   -23968057.9820 
  22460596.337   -32999451.7270 
  23403284.201   -11213574.0100 
  21834668.341   -10925543.6240 
  22364953.982   -13194797.0210 
  23485876.000                  
  21649153.385   -10864931.7140 
  21925170.834   -18042768.8330 
 25 10 20 19 02 10.0000000  0  8G06G11G12G13G15G17G19G24            
  21977300.521   -24021780.3570 
  22455590.707   -33069112.7000 
  23400985.156   -11269009.2510 
  21840179.968   -10939931.8830 
  22367377.113   -13225423.9000 
  23492143.725                  
  21654557.693   -10879891.9240 
  21920204.268   -18112225.9760 
 25 10 20 19 02 20.0000000  0  8G06G11G12G13G15G17G19G24            
  21975345.015   -24075448.3730 
  22450598.361   -33138747.7280 
  23398693.813   -11324443.4740 
  21845705.450   -10954292.0010 
  22369814.243   -13256014.5870 
  23498423.302    -6269477.8970 
  21659974.568   -10894826.4970 
  21915250.128   -18181655.9820 
 25 10 20 19 02 30.0000000  0  8G06G11G12G13G15G17G19G24            
  21973403.194   -24129060.0690 
  22445612.547   -33208354.8200 
  23396403.421   -11379874.7170 
  21851237.751   -10968622.1390 
  22372259.621   -13286567.2410 
  23504704.545                  
  21665397.117   -10909733.5490 
  21910302.948   -18251056.8430 
 25 10 20 19 02 40.0000000  0  7G06G11G12G13G15G19G24               
  21971470.951   -24182615.7820 
  22440630.728   -33277934.2380 
  23394113.304   -11435303.4480 
  21856775.478   -10982922.8060 
  22374711.857   -13317082.4400 
  21670823.805   -10924613.6670 
  21905360.050   -18320428.8770 
 25 10 20 19 02 50.0000000  0  7G06G11G12G13G15G19G24               
  21969551.203   -24236116.1790 
  22435655.539   -33347486.5980 
  23391825.381   -11490730.4590 
  21862321.265   -10997194.9470 
  22377173.012   -13347560.9570 
  21676258.696   -10939467.7000 
  21900425.070   -18389772.6900 
 25 10 20 19 03 00.0000000  0  7G06G11G12G13G15G19G24               
  21967637.033   -24289561.8890 
  22430680.060   -33417012.4740 
  23389534.879   -11546156.3770 
  21867867.478   -11011439.2280 
  22379635.594   -13378003.5500 
  21681691.723   -10954296.4040 
  21895490.658   -18459088.9310 
 25 10 20 19 03 10.0000000  0  7G06G11G12G13G15G19G24               
  21965734.705   -24342952.4330 
  22425711.844   -33486511.3200 
  23387244.771   -11601580.9320 
  21873420.239   -11025655.4540 
  22382107.013   -13408410.0180 
  21687132.014   -10969099.5460 
  21890562.508   -18528377.0340 
 25 10 20 19 03 20.0000000  0  7G06G11G12G13G15G19G24               
  21963839.586   -24396286.7720 
  22420746.116   -33555982.1410 
  23384952.716   -11657003.2790 
  21878974.772   -11039842.8490 
  22384582.352   -13438779.3720 
  21692574.363   -10983876.2200 
  21885636.560   -18597636.0130 
 25 10 20 19 03 30.0000000  0  7G06G11G12G13G15G19G24               
  21961959.662   -24449563.8760 
  22415790.145   -33625423.8310 
  23382664.694   -11712422.3310 
  21884539.921   -11054000.5120 
  22387069.164   -13469110.7580 
  21698024.609   -10998625.5890 
  21880721.227   -18666864.7620 
 25 10 20 19 03 40.0000000  0  7G06G11G12G13G15G19G24               
  21960086.877   -24502783.8520 
  22410836.304   -33694836.4330 
  23380374.653   -11767838.2880 
  21890106.198   -11068128.7860 
  22389559.108   -13499404.4610 
  21703477.844   -11013347.9200 
  21875808.311   -18736063.4170 
 25 10 20 19 03 50.0000000  0  7G06G11G12G13G15G19G24               
  21958226.136   -24555946.7250 
  22405889.213   -33764219.9330 
  23378086.353   -11823251.3740 
  21895678.510   -11082227.8090 
  22392057.519   -13529660.6550 
  21708936.684   -11028043.4210 
  21870902.573   -18805231.8910 
 25 10 20 19 04 00.0000000  0  7G06G11G12G13G15G19G24               
  21956375.556   -24609052.6620 
  22400945.988   -33833574.4600 
  23375797.339   -11878661.7930 
  21901255.546   -11096297.9720 
  22394562.514   -13559879.7090 
  21714400.390   -11042712.4100 
  21866001.989   -18874370.4140 
 25 10 20 19 04 10.0000000  0  8G06G11G12G13G15G17G19G24            
  21954523.416   -24662102.4820 
  22395996.480   -33902900.7950 
  23373497.321   -11934070.5100 
  21906825.298   -11110340.2480 
  22397060.941   -13590062.6140 
  23567602.086                  
  21719857.100   -11057355.9600 
  21861093.119   -18943479.7640 
 25 10 20 19 04 20.0000000  0  9G06G11G12G13G15G17G19G22G24         
  21952690.799   -24715095.1610 
  22391062.346   -33972197.8630 
  23371206.095   -11989476.5320 
  21912411.425   -11124353.8580 
  22399576.602   -13620208.5040 
  23573899.094    -6281735.0110 
  21725328.610   -11071973.1740 
  23165967.062    -7334192.8510 
  21856199.480   -19012558.8390 
 25 10 20 19 04 30.0000000  0  9G06G11G12G13G15G17G19G22G24         
  21950871.705   -24768030.8100 
  22386135.724   -34041465.6980 
  23368917.802   -12044880.1110 
  21918004.349   -11138339.0550 
  22402101.349   -13650317.5070 
  23580200.180    -6292005.0830 
  21730807.490   -11086564.2400 
  23169266.366    -7360216.1280 
  21851314.069   -19081607.7320 
 25 10 20 19 04 40.0000000  0  9G06G11G12G13G15G17G19G22G24         
  21949062.691   -24820909.9730 
  22381213.889   -34110704.8720 
  23366628.429   -12100281.8390 
  21923602.203   -11152296.6360 
  22404632.886   -13680390.4890 
  23586501.903    -6302266.2520 
  21736290.298   -11101129.9880 
  23172568.166    -7386234.8930 
  21846433.015   -19150627.0210 
 25 10 20 19 04 50.0000000  0  9G06G11G12G13G15G17G19G22G24         
  21947263.056   -24873732.2140 
  22376295.565   -34179914.8260 
  23364336.414   -12155681.3830 
  21929202.136   -11166226.2770 
  22407168.077   -13710427.0540 
  23592805.419    -6312518.1920 
  21741775.758   -11115670.1800 
  23175871.046    -7412248.7530 
  21841556.617   -19219616.2130 
 25 10 20 19 05 00.0000000  0  9G06G11G12G13G15G17G19G22G24         
  21945478.490   -24926498.4690 
  22371387.160   -34249096.5180 
  23362049.739   -12211079.8210 
  21934812.275   -11180129.1640 
  22409714.617   -13740428.3570 
  23599111.843    -6322761.9440 
  21747269.706   -11130185.8170 
  23179172.396    -7438258.7120 
  21836690.853   -19288576.2200 
 25 10 20 19 05 10.0000000  0  9G06G11G12G13G15G17G19G22G24         
  21943705.686   -24979208.0090 
  22366485.221   -34318249.1440 
  23359764.237   -12266476.5000 
  21940428.308   -11194004.8240 
  22412268.913   -13770393.9240 
  23605420.728                  
  21752769.692   -11144676.4390 
  23182478.210    -7464264.1240 
  21831831.556   -19357506.3340 
 25 10 20 19 05 20.0000000  0  9G06G11G12G13G15G17G19G22G24         
  21941939.160   -25031861.0070 
  22361584.267   -34387372.8290 
  23357474.853   -12321871.6050 
  21946046.471   -11207853.5200 
  22414826.482   -13800324.0230 
  23611725.302                  
  21758269.517   -11159142.3450 
  23185785.152    -7490265.1870 
  21826972.957   -19426406.5760 
 25 10 20 19 05 30.0000000  0  9G06G11G12G13G15G17G19G22G24         
  21940183.335   -25084458.7030 
  22356688.147   -34456468.7740 
  23355185.724   -12377266.6400 
  21951669.324   -11221676.7040 
  22417390.173   -13830220.0970 
  23618033.708    -6353444.2640 
  21763773.747   -11173584.8830 
  23189088.771    -7516263.2000 
  21822119.335   -19495278.2930 
 25 10 20 19 05 40.0000000  0  9G06G11G12G13G15G17G19G22G24         
  21938437.819   -25136999.8170 
  22351797.185   -34525535.6350 
  23352896.173   -12432660.3990 
  21957295.904   -11235473.2140 
  22419959.880   -13860080.9400 
  23624342.551    -6363656.2530 
  21769281.990   -11188003.0560 
  23192396.117    -7542256.7990 
  21817271.300   -19564120.0690 
 25 10 20 19 05 50.0000000  0  9G06G11G12G13G15G17G19G22G24         
  21936702.521   -25189484.3190 
  22346911.431   -34594573.3150 
  23350606.537   -12488052.8840 
  21962928.408   -11249243.2820 
  22422536.371   -13889906.6950 
  23630652.596    -6373860.3470 
  21774795.013   -11202396.8280 
  23195703.521    -7568246.2650 
  21812428.618   -19632931.8770 
 25 10 20 19 06 00.0000000  0  9G06G11G12G13G15G17G19G22G24         
  21934977.431   -25241913.2090 
  22342031.594   -34663582.8470 
  23348315.947   -12543444.9820 
  21968566.543   -11262988.1370 
  22425120.065   -13919698.4330 
  23636963.977    -6384057.7240 
  21780312.950   -11216767.6130 
  23199011.976                  
  21807592.423   -19701714.7090 
 25 10 20 19 06 10.0000000  0  9G06G11G12G13G15G17G19G22G24         
  21933262.399   -25294285.9960 
  22337157.378   -34732563.6150 
  23346029.264   -12598836.5580 
  21974207.867   -11276707.3930 
  22427710.239   -13949456.0110 
  23643275.687    -6394248.0040 
  21785833.218   -11231115.1050 
  23202318.326                  
  21802761.279   -19770468.0650 
 25 10 20 19 06 20.0000000  0  9G06G11G12G13G15G17G19G22G24         
  21931556.834   -25346602.8920 
  22332286.763   -34801515.7990 
  23343741.887   -12654227.8850 
  21979852.647   -11290401.3660 
  22430305.159   -13979179.6280 
  23649587.133    -6404431.4660 
  21791357.516   -11245439.5390 
  23205626.702    -7348968.7460 
  21797934.450   -19839192.0820 
 25 10 20 19 06 30.0000000  0  9G06G11G12G13G15G17G19G22G24         
  21929865.519   -25398863.9250 
  22327424.817   -34870439.4210 
  23341455.023   -12709619.1310 
  21985505.096   -11304070.4270 
  22432908.891   -14008869.5920 
  23655903.385    -6414608.3710 
  21796889.767   -11259741.2540 
  23208934.589    -7374944.8530 
  21793115.861   -19907886.8100 
 25 10 20 19 06 40.0000000  0  9G06G11G12G13G15G17G19G22G24         
  21928185.053   -25451068.9810 
  22322568.712   -34939334.2960 
  23339169.421   -12765010.2710 
  21991163.099   -11317714.6070 
  22435518.893   -14038525.9390 
  23662220.469    -6424778.8110 
  21802426.142   -11274020.2500 
  23212245.169    -7400917.7450 
  21788303.398   -19976552.0600 
 25 10 20 19 06 50.0000000  0  9G06G11G12G13G15G17G19G22G24         
  21926514.912   -25503217.2510 
  22317716.779   -35008199.4970 
  23336881.982   -12820400.4230 
  21996825.274   -11331333.2300 
  22438134.069   -14068147.9960 
  23668539.580    -6434942.0190 
  21807967.118   -11288275.8510 
  23215554.913    -7426886.4440 
  21783494.536   -20045186.9570 
 25 10 20 19 07 00.0000000  0  9G06G11G12G13G15G17G19G22G24         
  21924853.123   -25555309.8330 
  22312867.617   -35077036.1970 
  23334592.305   -12875790.8370 
  22002489.219   -11344927.7070 
  22440755.021   -14097737.0620 
  23674859.172    -6445099.2690 
  21813509.148   -11302509.3220 
  23218864.424                  
  21778690.305   -20113792.6580 
 25 10 20 19 07 10.0000000  0  9G06G11G12G13G15G17G19G22G24         
  21923201.198   -25607345.6950 
  22308024.313   -35145843.2010 
  23332303.335   -12931180.7150 
  22008157.304   -11358497.1290 
  22443381.401   -14127292.2010 
  23681178.325    -6455249.7680 
  21819055.177   -11316719.7950 
  23222176.930    -7478814.2800 
  21773891.073   -20182368.0350 
 25 10 20 19 07 20.0000000  0  9G06G11G12G13G15G17G19G22G24         
  21921561.017   -25659325.4070 
  22303186.601   -35214621.1170 
  23330015.234   -12986570.7230 
  22013830.981   -11372042.2320 
  22446014.232   -14156814.1080 
  23687498.778    -6465394.1930 
  21824606.796   -11330907.9870 
  23225488.731                  
  21769097.576   -20250913.6480 
 25 10 20 19 07 30.0000000  0  8G06G11G12G13G15G17G19G24            
  21919932.635   -25711249.4910 
  22298356.107   -35283370.3670 
  23327727.341   -13041961.4210 
  22019508.872   -11385563.7200 
  22448654.567   -14186303.3360 
  23693820.868    -6475533.2470 
  21830161.199   -11345074.4640 
  21764310.439   -20319430.0100 
 25 10 20 19 07 40.0000000  0  8G06G11G12G13G15G17G19G24            
  21918318.582   -25763118.1820 
  22293535.222   -35352091.1460 
  23325443.761   -13097353.0470 
  22025196.801   -11399062.0020 
  22451303.939   -14215760.5350 
  23700146.557    -6485667.2950 
  21835725.782   -11359219.8550 
  21759534.771   -20387917.3010 
 25 10 20 19 07 50.0000000  0  8G06G11G12G13G15G17G19G24            
  21916711.984   -25814930.9330 
  22288716.639   -35420782.9080 
  23323156.761   -13152745.2060 
  22030886.603   -11412536.7740 
  22453957.617   -14245185.3270 
  23706471.259    -6495795.9100 
  21841291.380   -11373343.8020 
  21754761.263   -20456375.0010 
 25 10 20 19 08 00.0000000  0  8G06G11G12G13G15G17G19G24            
  21915114.754   -25866688.1610 
  22283901.987   -35489445.9730 
  23320868.969   -13208138.4010 
  22036578.761   -11425988.5580 
  22456615.940   -14274578.1860 
  23712797.028    -6505919.6020 
  21846860.193   -11387446.7660 
  21749991.398   -20524803.4450 
 25 10 20 19 08 10.0000000  0  8G06G11G12G13G15G17G19G24            
  21913531.685   -25918388.8450 
  22279097.203   -35558079.2690 
  23318583.605   -13263531.7120 
  22042278.927   -11439416.5370 
  22459283.559   -14303938.2910 
  23719125.368    -6516037.3950 
  21852436.156   -11401527.9510 
  21745231.402   -20593201.5650 
 25 10 20 19 08 20.0000000  0  8G06G11G12G13G15G17G19G24            
  21911957.218   -25970032.8110 
  22274295.441   -35626682.5270 
  23316296.397   -13318924.9890 
  22047980.256   -11452820.6710 
  22461956.490   -14333265.4090 
  23725454.011    -6526149.3820 
  21858013.996   -11415587.2840 
  21740474.571   -20661569.1470 
