     2.11           OBSERVATION DATA    GPS                 RINEX VERSION / TYPE
SpecSurv v4.22                          16-Jun-25 11:47     PGM / RUN BY / DATE
00062970                                                    MARKER NAME         
                                                            MARKER NUMBER       
                                                            OBSERVER / AGENCY   
07430006                                169-614678-005      REC # / TYPE / VERS 
                    <None>                                  ANT # / TYPE        
  3983111.1141 -4353255.8644 -2415209.4077                  APPROX POSITION XYZ 
        1.6210        0.0000        0.0000                  ANTENNA: DELTA H/E/N
     1     1                                                WAVELENGTH FACT L1/2
     1     0     7   G 6   G11   G12   G13   G14   G15   G17WAVELENGTH FACT L1/2
     1     0     4   G19   G22   G24   G30                  WAVELENGTH FACT L1/2
     3    L1    C1    D1                                    # / TYPES OF OBSERV 
    10.000                                                  INTERVAL            
  2005    10    24    17    43    0.0000000     GPS         TIME OF FIRST OBS   
  2005    10    24    19     8   20.0000000     GPS         TIME OF LAST OBS    
    11                                                      # OF SATELLITES     
   G 6         439                                          PRN / # OF OBS      
   G11         513                                          PRN / # OF OBS      
   G12         301                                          PRN / # OF OBS      
   G13         512                                          PRN / # OF OBS      
   G14          68                                          PRN / # OF OBS      
   G15         419                                          PRN / # OF OBS      
   G17         502                                          PRN / # OF OBS      
   G19         513                                          PRN / # OF OBS      
   G22         370                                          PRN / # OF OBS      
   G24         304                                          PRN / # OF OBS      
   G30         394                                          PRN / # OF OBS      
                                                            END OF HEADER       
 05 10 24 17 43  0.0000000  0  5G30G19G17G11G13
   1029122.5010   22862331.438           0.000
   1017456.8370   19981192.475           0.000
   1027793.1450   21025099.272           0.000
    992154.0520   24999928.143           0.000
   1017012.6990   20178152.066           0.000
 05 10 24 17 43 10.0000000  0  5G30G19G17G11G13
   1004908.7690   22866049.484           0.000
    978876.6810   19982177.036           0.000
   1001962.3290   21028510.386           0.000
    922252.7640   24994953.785           0.000
    977883.6750   20179032.170           0.000
 05 10 24 17 43 20.0000000  0  5G30G19G17G11G13
    980730.3150   22869772.651           0.000
    940370.0510   19983174.301           0.000
    976191.9990   21031931.342           0.000
    852334.7650   24989974.243           0.000
    938827.4540   20179924.978           0.000
 05 10 24 17 43 30.0000000  0  5G30G19G17G11G13
    956587.0310   22873503.443           0.000
    901936.7260   19984186.347           0.000
    950481.8560   21035364.360           0.000
    782399.9440   24984992.168           0.000
    899843.7990   20180832.281           0.000
 05 10 24 17 43 40.0000000  0  5G30G19G17G11G13
    932478.5750   22877240.855           0.000
    863576.3580   19985211.023           0.000
    924831.5260   21038808.005           0.000
    712448.1450   24980005.409           0.000
    860932.5210   20181751.927           0.000
 05 10 24 17 43 50.0000000  0  5G30G19G17G11G13
    908404.1430   22880983.229           0.000
    825288.0930   19986248.244           0.000
    899240.1580   21042261.333           0.000
    642478.6300   24975014.454           0.000
    822092.7240   20182684.262           0.000
 05 10 24 17 44  0.0000000  0  5G30G19G17G11G13
    884361.7720   22884730.621           0.000
    787070.0010   19987298.640           0.000
    873705.7030   21045725.976           0.000
    572489.4520   24970018.787           0.000
    783322.3500   20183630.201           0.000
 05 10 24 17 44 10.0000000  0  5G30G19G17G11G13
    860354.7910   22888485.709           0.000
    748925.2980   19988363.313           0.000
    848231.4620   21049201.606           0.000
    502484.0570   24965018.939           0.000
    744624.8170   20184589.129           0.000
 05 10 24 17 44 20.0000000  0  5G30G19G17G11G13
    836383.2710   22892246.219           0.000
    710853.9690   19989440.850           0.000
    822817.3630   21052687.665           0.000
    432462.5370   24960015.355           0.000
    706000.1330   20185561.922           0.000
 05 10 24 17 44 30.0000000  0  5G30G19G17G11G13
    812443.9710   22896014.559           0.000
    672852.8100   19990532.655           0.000
    797460.1600   21056185.132           0.000
    362421.7240   24955009.584           0.000
    667445.0660   20186548.126           0.000
 05 10 24 17 44 40.0000000  0  5G30G19G17G11G13
    788535.9270   22899788.027           0.000
    634920.8300   19991636.744           0.000
    772158.6660   21059692.306           0.000
    292360.7710   24949999.498           0.000
    628958.5970   20187546.756           0.000
 05 10 24 17 44 50.0000000  0  5G30G19G17G11G13
    764659.6270   22903566.670           0.000
    597058.4420   19992752.731           0.000
    746913.3350   21063209.090           0.000
    222280.2170   24944984.855           0.000
    590541.2040   20188558.000           0.000
 05 10 24 17 45  0.0000000  0  5G30G19G17G11G13
    740815.0710   22907347.581           0.000
    559265.6070   19993879.716           0.000
    721724.1420   21066735.011           0.000
    152180.2630   24939962.322           0.000
    552192.8600   20189579.240           0.000
 05 10 24 17 45 10.0000000  0  5G30G19G17G11G13
    717002.0310   22911134.679           0.000
    521542.0530   19995020.616           0.000
    696590.7270   21070271.413           0.000
     82060.5610   24934937.248           0.000
    513913.2660   20190613.680           0.000
 05 10 24 17 45 20.0000000  0  5G30G19G17G11G13
    693219.7520   22914930.196           0.000
    483887.0100   19996175.085           0.000
    671512.4770   21073818.379           0.000
     11920.6050   24929911.147           0.000
    475701.7450   20191662.261           0.000
 05 10 24 17 45 30.0000000  0  5G30G19G17G11G13
    669469.5440   22918729.259           0.000
    446301.7060   19997340.970           0.000
    646490.2250   21077374.471           0.000
    -58238.2850   24924879.149           0.000
    437559.4870   20192721.829           0.000
 05 10 24 17 45 40.0000000  0  5G30G19G17G11G13
    645751.1240   22922531.448           0.000
    408785.8820   19998517.566           0.000
    621523.7780   21080939.272           0.000
   -128416.2520   24919840.976           0.000
    399486.2830   20193792.250           0.000
 05 10 24 17 45 50.0000000  0  5G30G19G17G11G13
    622063.7390   22926336.797           0.000
    371338.7420   19999704.905           0.000
    596612.3380   21084512.811           0.000
   -198614.0040   24914797.234           0.000
    361481.2840   20194873.415           0.000
 05 10 24 17 46  0.0000000  0  5G30G19G17G11G13
    598407.6040   22930149.533           0.000
    333960.4270   20000906.214           0.000
    571755.9680   21088097.745           0.000
   -268831.2850   24909750.148           0.000
    323544.8610   20195968.836           0.000
 05 10 24 17 46 10.0000000  0  5G30G19G17G11G13
    574782.6290   22933966.072           0.000
    296650.8150   20002119.338           0.000
    546954.5770   21091691.490           0.000
   -339068.0250   24904697.993           0.000
    285676.7330   20197075.929           0.000
 05 10 24 17 46 20.0000000  0  5G30G19G17G11G13
    551188.3990   22937792.224           0.000
    259409.3370   20003348.086           0.000
    522207.6290   21095298.426           0.000
   -409324.6300   24899643.288           0.000
    247876.4380   20198198.789           0.000
 05 10 24 17 46 30.0000000  0  5G30G19G17G11G13
    527626.1710   22941622.985           0.000
    222237.2100   20004588.454           0.000
    497516.3480   21098914.549           0.000
   -479599.8030   24894584.607           0.000
    210145.3050   20199333.126           0.000
 05 10 24 17 46 40.0000000  0  5G30G19G17G11G13
    504096.4450   22945456.629           0.000
    185135.0720   20005840.147           0.000
    472881.0990   21102538.706           0.000
   -549892.8480   24889520.795           0.000
    172483.8250   20200477.643           0.000
 05 10 24 17 46 50.0000000  0  5G30G19G17G11G13
    480598.7390   22949297.831           0.000
    148102.3560   20007106.409           0.000
    448301.2780   21106173.855           0.000
   -620204.2570   24884454.238           0.000
    134891.4600   20201636.729           0.000
 05 10 24 17 47  0.0000000  0  5G30G19G17G11G13
    457133.0360   22953148.003           0.000
    111139.0160   20008388.082           0.000
    423777.0810   21109822.125           0.000
   -690533.8740   24879386.779           0.000
     97368.2020   20202812.085           0.000
 05 10 24 17 47 10.0000000  0  5G30G19G17G11G13
    433698.2920   22957003.201           0.000
     74243.9490   20009681.649           0.000
    399307.1730   21113480.285           0.000
   -760882.6660   24874312.469           0.000
     59912.9550   20203999.620           0.000
 05 10 24 17 47 20.0000000  0  5G30G19G17G11G13
    410294.2300   22960862.190           0.000
     37416.7310   20010985.588           0.000
    374891.0960   21117146.386           0.000
   -831250.8900   24869233.649           0.000
     22525.4260   20205197.528           0.000
 05 10 24 17 47 30.0000000  0  5G30G19G17G11G13
    386921.3290   22964729.410           0.000
       657.7890   20012305.199           0.000
    350529.2170   21120824.868           0.000
   -901637.9880   24864152.902           0.000
    -14794.0360   20206410.536           0.000
 05 10 24 17 47 40.0000000  0  5G30G19G17G11G13
    363579.7300   22968601.437           0.000
    -36032.7070   20013636.057           0.000
    326221.7140   21124511.305           0.000
   -972043.7020   24859068.663           0.000
    -52045.1410   20207634.218           0.000
 05 10 24 17 47 50.0000000  0  5G30G19G17G11G13
    340269.1010   22972482.010           0.000
    -72655.2390   20014983.616           0.000
    301968.0900   21128212.583           0.000
  -1042468.2860   24853979.805           0.000
    -89228.3220   20208874.601           0.000
 05 10 24 17 48  0.0000000  0  5G30G19G17G11G13
    316988.7910   22976361.458           0.000
   -109210.2700   20016339.353           0.000
    277767.8500   21131919.034           0.000
  -1112912.2500   24848884.671           0.000
   -126344.1330   20210123.019           0.000
 05 10 24 17 48 10.0000000  0  5G30G19G17G11G13
    293739.1320   22980240.977           0.000
   -145697.7270   20017702.314           0.000
    253620.9640   21135630.706           0.000
  -1183375.2650   24843782.596           0.000
   -163392.4630   20211378.518           0.000
 05 10 24 17 48 20.0000000  0  5G30G19G17G11G13
    270520.2360   22984133.669           0.000
   -182117.4340   20019081.596           0.000
    229527.6100   21139355.980           0.000
  -1253857.1120   24838680.530           0.000
   -200373.1570   20212651.197           0.000
 05 10 24 17 48 30.0000000  0  5G30G19G17G11G13
    247332.9180   22988031.800           0.000
   -218468.4800   20020474.760           0.000
    205488.6250   21143091.988           0.000
  -1324356.8320   24833575.460           0.000
   -237285.3640   20213937.900           0.000
 05 10 24 17 48 40.0000000  0  5G30G19G17G11G13
    224176.4520   22991928.249           0.000
   -254751.8380   20021873.683           0.000
    181503.0550   21146832.180           0.000
  -1394875.1360   24828461.411           0.000
   -274129.8910   20215230.362           0.000
 05 10 24 17 48 50.0000000  0  5G30G19G17G11G13
    201050.5840   22995835.159           0.000
   -290967.7660   20023289.362           0.000
    157570.8050   21150585.267           0.000
  -1465412.1290   24823347.949           0.000
   -310907.0190   20216539.725           0.000
 05 10 24 17 49  0.0000000  0  5G30G19G17G11G13
    177955.2420   22999745.273           0.000
   -327116.3150   20024716.832           0.000
    133691.4060   21154346.852           0.000
  -1535967.9090   24818229.392           0.000
   -347616.7860   20217860.162           0.000
 05 10 24 17 49 10.0000000  0  5G30G19G17G11G13
    154890.1630   23003658.764           0.000
   -363197.7690   20026154.975           0.000
    109864.6600   21158116.821           0.000
  -1606542.4740   24813103.910           0.000
   -384259.4830   20219190.843           0.000
 05 10 24 17 49 20.0000000  0  5G30G19G17G11G13
    131854.8700   23007585.543           0.000
   -399212.8480   20027610.843           0.000
     86089.8800   21161901.081           0.000
  -1677136.4120   24807981.126           0.000
   -420835.7410   20220539.249           0.000
 05 10 24 17 49 30.0000000  0  5G30G19G17G11G13
    108848.5710   23011513.877           0.000
   -435162.3600   20029076.422           0.000
     62366.1510   21165693.334           0.000
  -1747750.3940   24802851.169           0.000
   -457346.2880   20221898.940           0.000
 05 10 24 17 49 40.0000000  0  5G30G19G17G11G13
     85871.9760   23015441.581           0.000
   -471045.5920   20030551.387           0.000
     38694.2280   21169492.112           0.000
  -1818383.5030   24797713.714           0.000
   -493790.3710   20223267.731           0.000
 05 10 24 17 49 50.0000000  0  5G30G19G17G11G13
     62924.6980   23019389.927           0.000
   -506862.9270   20032049.713           0.000
     15073.6730   21173310.102           0.000
  -1889036.0390   24792581.589           0.000
   -530168.4490   20224659.453           0.000
 05 10 24 17 50  0.0000000  0  5G30G19G17G11G13
     40006.0010   23023340.533           0.000
   -542615.1860   20033555.451           0.000
     -8496.3680   21177134.357           0.000
  -1959708.7930   24787442.567           0.000
   -566481.4060   20226058.158           0.000
 05 10 24 17 50 10.0000000  0  5G30G19G17G11G13
     17115.4910   23027292.491           0.000
   -578302.7830   20035070.982           0.000
    -32016.3040   21180966.547           0.000
  -2030401.8920   24782297.456           0.000
   -602729.5080   20227467.229           0.000
 05 10 24 17 50 20.0000000  0  5G30G19G17G11G13
     -5746.2330   23031249.017           0.000
   -613925.1510   20036597.808           0.000
    -55485.7480   21184807.312           0.000
  -2101114.7580   24777147.899           0.000
   -638912.2040   20228888.167           0.000
 05 10 24 17 50 30.0000000  0  5G30G19G17G11G13
    -28577.8500   23035211.533           0.000
   -649481.0930   20038139.065           0.000
    -78903.3940   21188658.073           0.000
  -2171845.9950   24771996.031           0.000
   -675028.2540   20230323.536           0.000
 05 10 24 17 50 40.0000000  0  5G30G19G17G11G13
    -51379.4700   23039177.386           0.000
   -684970.8010   20039691.674           0.000
   -102269.3820   21192518.039           0.000
  -2242595.6590   24766839.203           0.000
   -711077.8030   20231769.827           0.000
 05 10 24 17 50 50.0000000  0  5G30G19G17G11G13
    -74151.1890   23043146.441           0.000
   -720394.2580   20041253.778           0.000
   -125583.8170   21196385.784           0.000
  -2313363.5900   24761675.415           0.000
   -747060.8680   20233224.899           0.000
 05 10 24 17 51  0.0000000  0  5G30G19G17G11G13
    -96894.4710   23047129.792           0.000
   -755753.0410   20042836.333           0.000
   -148848.4970   21200269.113           0.000
  -2384151.2620   24756513.904           0.000
   -782979.0660   20234699.277           0.000
 05 10 24 17 51 10.0000000  0  5G30G19G17G11G13
   -119608.6100   23051120.545           0.000
   -791046.4650   20044432.300           0.000
   -172062.7520   21204163.280           0.000
  -2454957.9820   24751350.495           0.000
   -818831.6120   20236188.926           0.000
 05 10 24 17 51 20.0000000  0  5G30G19G17G11G13
   -142293.7910   23055108.609           0.000
   -826274.6900   20046033.734           0.000
   -195226.7850   21208060.481           0.000
  -2525783.7070   24746179.388           0.000
   -854618.8070   20237683.900           0.000
 05 10 24 17 51 30.0000000  0  5G30G19G17G11G13
   -164951.0460   23059107.645           0.000
   -861439.0220   20047651.577           0.000
   -218341.7710   21211971.372           0.000
  -2596629.4560   24741006.661           0.000
   -890341.6240   20239194.567           0.000
 05 10 24 17 51 40.0000000  0  5G30G19G17G11G13
   -187579.0490   23063109.200           0.000
   -896538.0800   20049278.951           0.000
   -241406.3180   21215888.932           0.000
  -2667493.7280   24735829.728           0.000
   -925998.7950   20240716.482           0.000
 05 10 24 17 51 50.0000000  0  5G30G19G17G11G13
   -210178.0080   23067118.786           0.000
   -931572.0590   20050921.796           0.000
   -264420.8660   21219818.386           0.000
  -2738376.7180   24730651.238           0.000
   -961590.6230   20242254.155           0.000
 05 10 24 17 52  0.0000000  0  5G30G19G17G11G13
   -232748.9230   23071134.055           0.000
   -966542.0730   20052577.766           0.000
   -287386.4390   21223758.246           0.000
  -2809279.2960   24725467.986           0.000
   -997118.1030   20243803.664           0.000
 05 10 24 17 52 10.0000000  0  5G30G19G17G11G13
   -255291.1220   23075154.988           0.000
  -1001447.4570   20054245.410           0.000
   -310302.4370   21227707.061           0.000
  -2880200.6480   24720281.098           0.000
  -1032580.5480   20245365.706           0.000
 05 10 24 17 52 20.0000000  0  5G30G19G17G11G13
   -277804.4800   23079180.864           0.000
  -1036288.1360   20055925.436           0.000
   -333168.7870   21231665.826           0.000
  -2951140.6080   24715090.136           0.000
  -1067978.0040   20246939.988           0.000
 05 10 24 17 52 30.0000000  0  5G30G19G17G11G13
   -300289.3740   23083210.524           0.000
  -1071064.5450   20057615.973           0.000
   -355985.9290   21235631.811           0.000
  -3022099.5300   24709895.805           0.000
  -1103310.7410   20248524.637           0.000
 05 10 24 17 52 40.0000000  0  5G30G19G17G11G13
   -322746.2870   23087246.776           0.000
  -1105777.2570   20059319.254           0.000
   -378754.5190   21239607.678           0.000
  -3093077.7350   24704698.621           0.000
  -1138579.1910   20250122.029           0.000
 05 10 24 17 52 50.0000000  0  5G30G19G17G11G13
   -345175.3700   23091287.376           0.000
  -1140426.4650   20061033.466           0.000
   -401474.6900   21243591.756           0.000
  -3164075.2920   24699497.773           0.000
  -1173783.6450   20251730.496           0.000
 05 10 24 17 53  0.0000000  0  5G30G19G17G11G13
   -367575.7230   23095330.946           0.000
  -1175011.3250   20062759.233           0.000
   -424145.7200   21247584.672           0.000
  -3235091.2790   24694290.736           0.000
  -1208923.2190   20253349.946           0.000
 05 10 24 17 53 10.0000000  0  5G30G19G17G11G13
   -389946.5220   23099378.641           0.000
  -1209531.0270   20064496.566           0.000
   -446766.7080   21251585.719           0.000
  -3306124.6550   24689079.955           0.000
  -1243997.0720   20254981.820           0.000
 05 10 24 17 53 20.0000000  0  5G30G19G17G11G13
   -412287.5230   23103430.973           0.000
  -1243985.4510   20066244.545           0.000
   -469337.8050   21255595.839           0.000
  -3377175.1750   24683864.795           0.000
  -1279005.0870   20256624.341           0.000
 05 10 24 17 53 30.0000000  0  5G30G19G17G11G13
   -434599.4950   23107491.325           0.000
  -1278375.2900   20068005.267           0.000
   -491859.2880   21259616.554           0.000
  -3448243.4330   24678647.210           0.000
  -1313947.9460   20258281.464           0.000
 05 10 24 17 53 40.0000000  0  5G30G19G17G11G13
   -456882.4300   23111557.120           0.000
  -1312700.6110   20069779.731           0.000
   -514331.6970   21263646.719           0.000
  -3519329.3920   24673426.196           0.000
  -1348825.8050   20259951.328           0.000
 05 10 24 17 53 50.0000000  0  5G30G19G17G11G13
   -479135.7520   23115631.189           0.000
  -1346960.9420   20071568.479           0.000
   -536754.6020   21267688.021           0.000
  -3590432.3490   24668203.869           0.000
  -1383637.9470   20261634.760           0.000
 05 10 24 17 54  0.0000000  0  5G30G19G17G11G13
   -501359.9290   23119708.236           0.000
  -1381156.7710   20073368.218           0.000
   -559128.3350   21271737.451           0.000
  -3661552.6740   24662976.793           0.000
  -1418385.0790   20263329.326           0.000
 05 10 24 17 54 10.0000000  0  5G30G19G17G11G13
   -523555.6040   23123793.882           0.000
  -1415288.8200   20075183.281           0.000
   -581453.6360   21275798.628           0.000
  -3732690.9240   24657747.727           0.000
  -1453067.7630   20265038.645           0.000
 05 10 24 17 54 20.0000000  0  5G30G19G17G11G13
   -545722.3500   23127888.366           0.000
  -1449356.7290   20077012.907           0.000
   -603730.2690   21279870.790           0.000
  -3803846.6000   24652517.913           0.000
  -1487685.6390   20266761.953           0.000
 05 10 24 17 54 30.0000000  0  5G30G19G17G11G13
   -567859.4850   23131980.869           0.000
  -1483359.6900   20078848.277           0.000
   -625957.5980   21283947.695           0.000
  -3875018.8780   24647279.820           0.000
  -1522238.0270   20268492.866           0.000
 05 10 24 17 54 40.0000000  0  5G30G19G17G11G13
   -589967.5630   23136081.728           0.000
  -1517298.4460   20080697.442           0.000
   -648136.2730   21288034.818           0.000
  -3946208.3130   24642039.782           0.000
  -1556725.4990   20270237.860           0.000
 05 10 24 17 54 50.0000000  0  7G30G12G19G17G11G13G22
   -612046.0950   23140190.579           0.000
         0.0000   24410167.875           0.000
  -1551172.5540   20082560.609           0.000
   -670265.8770   21292132.794           0.000
  -4017414.2460   24636798.721           0.000
  -1591147.5980   20271997.572           0.000
   1034065.4280   21833642.709           0.000
 05 10 24 17 55  0.0000000  0  8G30G12G19G17G11G13G14G22
   -634094.8270   23144304.144           0.000
    990290.8100   24407284.817           0.000
  -1584981.7740   20084435.930           0.000
   -692346.1500   21296239.490           0.000
  -4088636.2720   24631554.789           0.000
  -1625504.1250   20273769.151           0.000
         0.0000   23043985.689           0.000
   1006456.5710   21836697.823           0.000
 05 10 24 17 55 10.0000000  0  8G30G12G19G17G11G13G14G22
   -656113.0310   23148418.363           0.000
    931496.9970   24404396.547           0.000
  -1618725.5780   20086318.201           0.000
   -714376.5890   21300351.420           0.000
  -4159873.7190   24626302.354           0.000
  -1659794.4640   20275547.967           0.000
   1018107.4530   23047834.043           0.000
    978855.6020   21839749.727           0.000
 05 10 24 17 55 20.0000000  0  9G30G 6G12G19G17G11G13G14G22
   -678100.8050   23152550.736           0.000
   1008047.8830   23402225.534           0.000
    872719.7190   24401528.004           0.000
  -1652403.9690   20088226.496           0.000
   -736357.2180   21304484.508           0.000
  -4231126.4800   24621059.917           0.000
  -1694018.5800   20277351.661           0.000
    994680.6490   23051691.822           0.000
    951262.5400   21842815.063           0.000
 05 10 24 17 55 30.0000000  0  9G30G 6G12G19G17G11G13G14G22
   -700059.0270   23156679.018           0.000
    940206.3190   23397624.637           0.000
    813957.9710   24398654.655           0.000
  -1686017.9220   20090139.286           0.000
   -758289.1740   21308620.088           0.000
  -4302395.4110   24615808.523           0.000
  -1728177.4650   20279160.853           0.000
    971249.1450   23055542.792           0.000
    923676.2590   21845873.877           0.000
 05 10 24 17 55 40.0000000  0  9G30G 6G12G19G17G11G13G14G22
   -721986.9410   23160810.209           0.000
    872378.9810   23393023.500           0.000
    755212.4700   24395781.354           0.000
  -1719566.6840   20092059.993           0.000
   -780171.6230   21312760.866           0.000
  -4373679.5790   24610548.735           0.000
  -1762270.3480   20280978.534           0.000
    947813.9830   23059390.804           0.000
    896097.7130   21848930.877           0.000
 05 10 24 17 55 50.0000000  0  9G30G 6G12G19G17G11G13G14G22
   -743884.6190   23164948.356           0.000
    804565.8310   23388421.879           0.000
    696483.1310   24392910.143           0.000
  -1753050.4120   20093992.950           0.000
   -802004.5040   21316910.317           0.000
  -4444978.9910   24605285.313           0.000
  -1796297.3820   20282808.322           0.000
    924374.8890   23063237.473           0.000
    868526.7350   21851989.681           0.000
 05 10 24 17 56  0.0000000  0  9G30G 6G12G19G17G11G13G14G22
   -765753.3050   23169095.083           0.000
    736765.8490   23383824.974           0.000
    637768.6910   24390041.502           0.000
  -1786470.4180   20095940.211           0.000
   -823789.4140   21321071.640           0.000
  -4516294.8150   24600021.314           0.000
  -1830259.8690   20284652.270           0.000
    900930.6960   23067083.135           0.000
    840961.9910   21855050.770           0.000
 05 10 24 17 56 10.0000000  0  9G30G 6G12G19G17G11G13G14G22
   -787591.5120   23173247.802           0.000
    668980.5150   23379229.053           0.000
    579070.5130   24387175.849           0.000
  -1819825.3120   20097898.187           0.000
   -845525.0520   21325240.529           0.000
  -4587625.4560   24594753.433           0.000
  -1864156.3880   20286506.791           0.000
    877482.8090   23070926.060           0.000
    813404.9240   21858111.841           0.000
 05 10 24 17 56 20.0000000  0  9G30G 6G12G19G17G11G13G14G22
   -809399.9090   23177403.098           0.000
    601209.4450   23374636.281           0.000
    520388.1810   24384314.775           0.000
  -1853115.7330   20099867.610           0.000
   -867212.1260   21329417.431           0.000
  -4658971.4030   24589480.831           0.000
  -1897987.4120   20288373.187           0.000
    854030.7090   23074766.696           0.000
    785854.9460   21861174.343           0.000
 05 10 24 17 56 30.0000000  0  9G30G 6G12G19G17G11G13G14G22
   -831179.7450   23181562.380           0.000
    533451.5190   23370047.353           0.000
    461720.2530   24381455.828           0.000
  -1886342.9610   20101848.604           0.000
   -888851.8220   21333603.185           0.000
  -4730333.8720   24584205.062           0.000
  -1931754.3930   20290251.728           0.000
    830573.1780   23078606.884           0.000
    758310.8730   21864237.828           0.000
 05 10 24 17 56 40.0000000  0 10G15G30G 6G12G19G17G11G13G14G22
   1010583.1970   22076127.030           0.000
   -852930.0280   23185725.898           0.000
    465707.6760   23365458.224           0.000
    403067.8250   24378599.972           0.000
  -1919506.1970   20103841.560           0.000
   -910443.3340   21337798.613           0.000
  -4801711.7590   24578926.230           0.000
  -1965456.3680   20292141.515           0.000
    807111.0410   23082445.583           0.000
    730773.6010   21867300.826           0.000
 05 10 24 17 56 50.0000000  0 10G15G30G 6G12G19G17G11G13G14G22
    960722.1480   22074942.147           0.000
   -874650.2820   23189897.661           0.000
    397978.6550   23360874.621           0.000
    344431.0520   24375747.209           0.000
  -1952604.9700   20105848.486           0.000
   -931986.3530   21342005.004           0.000
  -4873104.5610   24573645.054           0.000
  -1999092.9010   20294045.700           0.000
    783644.7260   23086283.512           0.000
    703243.5000   21870366.774           0.000
 05 10 24 17 57  0.0000000  0 10G15G30G 6G12G19G17G11G13G14G22
    910916.6450   22073767.059           0.000
   -896341.2620   23194071.921           0.000
    330263.7970   23356293.802           0.000
    285809.3130   24372896.371           0.000
  -1985640.1120   20107866.780           0.000
   -953481.6330   21346219.330           0.000
  -4944512.8950   24568359.507           0.000
  -2032664.8120   20295961.540           0.000
    760173.6190   23090123.081           0.000
    675719.8640   21873433.360           0.000
 05 10 24 17 57 10.0000000  0 10G15G30G 6G12G19G17G11G13G14G22
    861166.5220   22072603.512           0.000
   -918003.1340   23198253.430           0.000
    262563.0140   23351714.794           0.000
    227202.3450   24370048.060           0.000
  -2018611.8620   20109897.331           0.000
   -974929.4970   21350443.337           0.000
  -5015936.8820   24563072.338           0.000
  -2066172.3650   20297890.496           0.000
    736697.4060   23093960.740           0.000
    648202.4210   21876501.614           0.000
 05 10 24 17 57 20.0000000  0 10G15G30G 6G12G19G17G11G13G14G22
         0.0000   22071448.012           0.000
   -939635.6660   23202438.692           0.000
    194876.6550   23347140.112           0.000
    168610.5520   24367202.072           0.000
  -2051519.9950   20111937.789           0.000
   -996329.6600   21354675.820           0.000
  -5087376.1100   24557782.053           0.000
  -2099615.3160   20299830.790           0.000
    713216.5100   23097797.144           0.000
    620691.4610   21879571.045           0.000
 05 10 24 17 57 30.0000000  0 10G15G30G 6G12G19G17G11G13G14G22
    761833.3390   22070307.489           0.000
   -961238.4610   23206634.067           0.000
    127205.3610   23342570.821           0.000
    110034.2780   24364360.043           0.000
  -2084363.9950   20113993.796           0.000
  -1017681.7530   21358918.558           0.000
  -5158830.0490   24552489.718           0.000
  -2132993.0980   20301784.630           0.000
    689731.3210   23101631.069           0.000
    593187.3650   21882642.147           0.000
 05 10 24 17 57 40.0000000  0 10G15G30G 6G12G19G17G11G13G14G22
    712250.6940   22069174.682           0.000
   -982811.5840   23210832.294           0.000
     59549.1700   23337999.659           0.000
     51473.3430   24361517.860           0.000
  -2117144.1300   20116058.093           0.000
  -1038985.9900   21363166.866           0.000
  -5230298.6760   24547191.935           0.000
  -2166305.9660   20303747.474           0.000
    666241.7320   23105465.269           0.000
    565690.0610   21885712.093           0.000
 05 10 24 17 57 50.0000000  0 10G15G30G 6G12G19G17G11G13G14G22
    662723.8820   22068054.658           0.000
  -1004355.0790   23215036.004           0.000
     -8091.9150   23333431.548           0.000
     -7072.3640   24358680.447           0.000
  -2149860.6580   20118134.885           0.000
  -1060242.4610   21367424.666           0.000
  -5301782.0130   24541893.197           0.000
  -2199554.0200   20305723.243           0.000
    642747.6640   23109297.370           0.000
    538199.4820   21888782.945           0.000
 05 10 24 17 58  0.0000000  0 10G15G30G 6G12G19G17G11G13G14G22
    613253.0570   22066942.331           0.000
  -1025868.9470   23219244.121           0.000
    -75717.8330   23328863.981           0.000
    -65602.7560   24355845.293           0.000
  -2182513.4660   20120222.809           0.000
  -1081451.2900   21371690.449           0.000
  -5373279.9740   24536589.422           0.000
  -2232737.3290   20307710.145           0.000
    619249.0420   23113128.011           0.000
    510715.5620   21891854.340           0.000
 05 10 24 17 58 10.0000000  0 10G15G30G 6G12G19G17G11G13G14G22
    563837.8880   22065837.594           0.000
  -1047353.3930   23223458.826           0.000
   -143328.4750   23324302.429           0.000
   -124118.0390   24353013.293           0.000
  -2215102.7180   20122324.618           0.000
  -1102612.8810   21375966.111           0.000
  -5444792.5310   24531283.792           0.000
  -2265856.0120   20309710.788           0.000
    595745.7420   23116958.656           0.000
    483238.1400   21894929.890           0.000
 05 10 24 17 58 20.0000000  0 10G15G30G 6G12G19G17G11G13G14G22
    514478.1250   22064743.459           0.000
  -1068808.7920   23227678.696           0.000
   -210924.1620   23319742.035           0.000
   -182618.6180   24350183.453           0.000
  -2247628.8750   20124437.173           0.000
  -1123727.5930   21380248.941           0.000
  -5516320.0200   24525974.169           0.000
  -2298910.5070   20311723.035           0.000
         0.0000   23120780.301           0.000
    455766.8210   21898004.166           0.000
 05 10 24 17 58 30.0000000  0  9G15G30G 6G12G19G17G11G13G22
    465174.8170   22063664.097           0.000
  -1090234.0750   23231903.752           0.000
   -278503.7940   23315184.252           0.000
   -241103.4770   24347357.369           0.000
  -2280090.9860   20126560.924           0.000
  -1144794.5490   21384540.678           0.000
  -5587861.3560   24520661.290           0.000
  -2331899.8560   20313747.195           0.000
    428302.5950   21901079.907           0.000
 05 10 24 17 58 40.0000000  0 10G15G30G 6G12G19G17G11G13G14G22
    415927.7730   22062603.125           0.000
  -1111629.3940   23236140.758           0.000
   -346067.2520   23310636.415           0.000
   -299572.8850   24344537.653           0.000
  -2312489.1720   20128703.923           0.000
  -1165813.9030   21388850.088           0.000
  -5659416.4820   24515352.633           0.000
  -2364824.1590   20315790.458           0.000
   1038722.0830   23128437.901           0.000
    400845.2440   21904162.305           0.000
 05 10 24 17 58 50.0000000  0 10G15G30G 6G12G19G17G11G13G14G22
    366736.2710   22061545.691           0.000
  -1132995.4170   23240373.862           0.000
   -413615.1620   23306082.531           0.000
   -358027.4760   24341714.465           0.000
  -2344824.2790   20130850.890           0.000
  -1186786.3620   21393159.603           0.000
  -5730986.0070   24510034.495           0.000
  -2397684.2340   20317837.118           0.000
   1015201.0120   23132265.196           0.000
    373394.1970   21907238.510           0.000
 05 10 24 17 59  0.0000000  0 10G15G30G 6G12G19G17G11G13G14G22
    317600.8980   22060495.265           0.000
  -1154331.7360   23244613.831           0.000
   -481146.9380   23301531.504           0.000
   -416466.7450   24338894.422           0.000
  -2377095.8880   20133010.446           0.000
  -1207711.6010   21397478.130           0.000
  -5802569.3900   24504713.920           0.000
  -2430479.6560   20319896.509           0.000
    991675.5800   23136092.202           0.000
    345949.9240   21910316.287           0.000
 05 10 24 17 59 10.0000000  0 10G15G30G 6G12G19G17G11G13G14G22
    268521.4770   22059455.971           0.000
  -1175638.4400   23248861.211           0.000
   -548662.6400   23296984.598           0.000
   -474890.9200   24336079.643           0.000
  -2409304.3650   20135183.136           0.000
  -1228589.8100   21401807.358           0.000
  -5874166.7000   24499390.025           0.000
  -2463210.5500   20321969.321           0.000
    968145.6370   23139914.885           0.000
    318512.2190   21913397.468           0.000
 05 10 24 17 59 20.0000000  0 10G15G30G 6G12G19G17G11G13G14G22
    219497.6330   22058426.237           0.000
  -1196915.9970   23253113.428           0.000
   -616162.4910   23292440.812           0.000
   -533300.3940   24333267.412           0.000
  -2441449.9510   20137367.389           0.000
  -1249421.4850   21406145.002           0.000
  -5945778.1790   24494063.525           0.000
  -2495877.3590   20324054.697           0.000
    944610.8990   23143738.399           0.000
    291080.6770   21916477.762           0.000
 05 10 24 17 59 30.0000000  0 10G15G30G 6G12G19G17G11G13G14G22
    170530.8670   22057408.204           0.000
  -1218162.8760   23257369.907           0.000
   -683644.9420   23287899.856           0.000
   -591693.7830   24330456.009           0.000
  -2473531.2710   20139562.628           0.000
  -1270205.2740   21410490.054           0.000
  -6017402.3290   24488732.416           0.000
  -2528478.7170   20326151.203           0.000
    921072.6360   23147562.024           0.000
    263656.7280   21919559.599           0.000
 05 10 24 17 59 40.0000000  0 10G15G30G 6G12G19G17G11G13G14G22
    121619.8500   22056400.957           0.000
  -1239380.4270   23261633.451           0.000
   -751111.0590   23283362.245           0.000
   -650072.4040   24327647.378           0.000
  -2505549.6140   20141771.086           0.000
  -1290942.5140   21414845.177           0.000
  -6089040.2890   24483401.504           0.000
  -2561015.8950   20328260.928           0.000
    897529.7810   23151384.416           0.000
    236239.0540   21922642.778           0.000
 05 10 24 17 59 50.0000000  0 10G15G30G 6G12G19G17G11G13G14G22
     72764.0960   22055405.927           0.000
  -1260569.0890   23265902.630           0.000
   -818561.3030   23278827.264           0.000
   -708436.7760   24324842.092           0.000
  -2537505.6710   20143991.189           0.000
  -1311633.7290   21419209.226           0.000
  -6160692.5090   24478066.782           0.000
  -2593489.4250   20330382.440           0.000
    873981.6650   23155204.286           0.000
    208827.0440   21925727.299           0.000
 05 10 24 18  0  0.0000000  0 10G15G30G 6G12G19G17G11G13G14G22
     23963.9770   22054422.970           0.000
  -1281728.4750   23270178.872           0.000
   -885995.1310   23274294.339           0.000
   -766786.4820   24322038.290           0.000
  -2569399.0150   20146222.791           0.000
  -1332278.6880   21423581.340           0.000
  -6232358.4460   24472729.823           0.000
  -2625898.9190   20332515.881           0.000
    850428.8680   23159022.349           0.000
    181421.1550   21928813.732           0.000
 05 10 24 18  0 10.0000000  0 10G15G30G 6G12G19G17G11G13G14G22
    -24780.2200   22053451.796           0.000
  -1302858.4600   23274459.745           0.000
   -953412.1630   23269766.330           0.000
   -825121.3360   24319236.827           0.000
  -2601229.5550   20148467.465           0.000
  -1352877.2710   21427962.949           0.000
  -6304037.7900   24467390.769           0.000
  -2658244.2990   20334662.395           0.000
    826871.4560   23162842.036           0.000
    154021.5650   21931901.361           0.000
 05 10 24 18  0 20.0000000  0  9G15G30G 6G12G19G17G11G14G22
    -73468.7430   22052487.424           0.000
  -1323959.1600   23278744.271           0.000
  -1020812.6050   23265238.826           0.000
   -883441.6380   24316438.447           0.000
  -2632997.4540   20150721.804           0.000
  -1373429.7550   21432351.217           0.000
  -6375730.6490   24462048.786           0.000
    803309.2510   23166659.224           0.000
    126628.0760   21934987.636           0.000
 05 10 24 18  0 30.0000000  0 10G15G30G 6G12G19G17G11G13G14G22
   -122101.8040   22051530.660           0.000
  -1345030.7260   23283031.253           0.000
  -1088196.3850   23260714.350           0.000
   -941747.6340   24313643.809           0.000
  -2664702.9610   20152987.898           0.000
  -1393936.3940   21436747.521           0.000
  -6447437.1150   24456704.966           0.000
  -2722743.6340   20338987.077           0.000
    779742.1490   23170473.859           0.000
     99240.5210   21938075.507           0.000
 05 10 24 18  0 40.0000000  0 10G15G30G 6G12G19G17G11G13G14G22
   -170679.2110   22050585.167           0.000
  -1366073.0730   23287328.363           0.000
  -1155563.2260   23256195.138           0.000
  -1000038.9430   24310849.569           0.000
  -2696346.1690   20155266.553           0.000
  -1414397.0460   21441155.098           0.000
  -6519156.8400   24451359.254           0.000
  -2754897.6570   20341169.002           0.000
    756170.3170   23174288.320           0.000
     71859.0970   21941164.778           0.000
 05 10 24 18  0 50.0000000  0 10G15G30G 6G12G19G17G11G13G14G22
   -219201.8170   22049653.372           0.000
  -1387087.0250   23291630.583           0.000
  -1222913.8180   23251680.034           0.000
  -1058316.5420   24308060.011           0.000
  -2727927.8350   20157557.331           0.000
  -1434812.6580   21445572.079           0.000
  -6590890.6450   24446008.923           0.000
  -2786988.7580   20343363.622           0.000
    732592.8540   23178101.739           0.000
     44482.8240   21944257.014           0.000
 05 10 24 18  1  0.0000000  0 10G15G30G 6G12G19G17G11G13G14G22
   -267668.0300   22048731.923           0.000
  -1408071.1330   23295938.572           0.000
  -1290246.6900   23247166.549           0.000
  -1116578.9910   24305272.214           0.000
  -2759446.6110   20159860.458           0.000
  -1455181.9310   21449997.116           0.000
  -6662636.9360   24440655.059           0.000
  -2819015.3620   20345570.020           0.000
    709011.2300   23181915.631           0.000
     17113.2390   21947350.008           0.000
 05 10 24 18  1 10.0000000  0 10G15G30G 6G12G19G17G11G13G14G22
   -316078.6000   22047820.780           0.000
  -1429026.1520   23300251.142           0.000
  -1357562.3640   23242656.930           0.000
         0.0000   24302486.424           0.000
  -2790903.2360   20162173.892           0.000
  -1475505.6950   21454429.312           0.000
  -6734396.3720   24435298.193           0.000
  -2850978.4660   20347787.152           0.000
    685424.7120   23185727.809           0.000
    -10250.4080   21950443.007           0.000
 05 10 24 18  1 20.0000000  0 10G15G30G 6G12G19G17G11G13G14G22
   -364434.1820   22046921.318           0.000
  -1449952.5400   23304567.953           0.000
  -1424861.2440   23238150.693           0.000
         0.0000   24299704.731           0.000
  -2822298.2790   20164499.149           0.000
  -1495784.4670   21458869.754           0.000
  -6806169.3670   24429939.701           0.000
  -2882878.5680   20350015.823           0.000
    661832.8110   23189537.359           0.000
    -37608.7320   21953536.382           0.000
 05 10 24 18  1 30.0000000  0 10G15G30G 6G12G19G17G11G13G14G22
   -412732.3380   22046022.095           0.000
  -1470848.1610   23308883.000           0.000
  -1492140.9810   23233639.687           0.000
         0.0000   24296920.415           0.000
  -2853629.6340   20166827.794           0.000
  -1516016.2340   21463310.722           0.000
  -6877953.6120   24424569.571           0.000
  -2914713.3960   20352248.739           0.000
    638237.7440   23193338.133           0.000
    -64959.3580   21956622.841           0.000
 05 10 24 18  1 40.0000000  0 10G15G30G 6G12G19G17G11G13G14G22
   -460974.2290   22045143.174           0.000
  -1491713.9030   23313209.763           0.000
  -1559402.4260   23229139.539           0.000
         0.0000   24294140.375           0.000
  -2884898.2460   20169176.168           0.000
  -1536202.0160   21467767.841           0.000
  -6949749.8860   24419203.716           0.000
  -2946484.0460   20354501.241           0.000
    614638.6430   23197145.616           0.000
    -92303.3660   21959718.012           0.000
 05 10 24 18  1 50.0000000  0  9G15G30G 6G19G17G11G13G14G22
   -509160.2800   22044271.964           0.000
  -1512550.3870   23317540.231           0.000
  -1626645.9810   23224640.376           0.000
  -2916104.7160   20171534.257           0.000
  -1556342.3870   21472231.241           0.000
  -7021558.7790   24413835.556           0.000
  -2978191.1600   20356763.745           0.000
    591034.8540   23200950.936           0.000
   -119641.3580   21962812.309           0.000
 05 10 24 18  2  0.0000000  0  9G15G30G 6G19G17G11G13G14G22
   -557289.1940   22043411.364           0.000
  -1533356.3010   23321879.448           0.000
  -1693870.2460   23220147.387           0.000
  -2947247.8260   20173905.817           0.000
  -1576436.1810   21476705.394           0.000
  -7093378.8030   24408466.559           0.000
  -3009833.4370   20359041.007           0.000
    567427.6550   23204756.277           0.000
   -146972.1080   21965910.203           0.000
 05 10 24 18  2 10.0000000  0  9G15G30G 6G19G17G11G13G14G22
   -605361.5320   22042560.496           0.000
  -1554132.0680   23326224.534           0.000
  -1761075.4470   23215655.975           0.000
  -2978328.0840   20176289.255           0.000
  -1596483.7800   21481188.421           0.000
  -7165210.2500   24403096.276           0.000
  -3041411.2990   20361330.434           0.000
    543816.6980   23208561.620           0.000
   -174295.9600   21969008.386           0.000
 05 10 24 18  2 20.0000000  0  9G15G30G 6G19G17G11G13G14G22
   -653377.4530   22041719.562           0.000
  -1574877.8950   23330575.261           0.000
  -1828261.9740   23211168.916           0.000
  -3009345.8640   20178684.488           0.000
  -1616485.5890   21485679.235           0.000
  -7237053.3440   24397723.334           0.000
  -3072925.0840   20363630.797           0.000
    520201.6690   23212366.023           0.000
   -201613.2000   21972107.202           0.000
 05 10 24 18  2 30.0000000  0  9G15G30G 6G19G17G11G13G14G22
   -701337.8710   22040892.707           0.000
  -1595594.7430   23334931.195           0.000
  -1895430.3610   23206681.340           0.000
  -3040302.0610   20181090.939           0.000
  -1636442.6850   21490178.834           0.000
  -7308908.8390   24392346.156           0.000
  -3104375.7420   20365943.665           0.000
    496581.7870   23216165.043           0.000
   -228924.7480   21975207.791           0.000
 05 10 24 18  2 40.0000000  0  9G15G30G 6G19G17G11G13G14G22
         0.0000   22040076.734           0.000
  -1616281.1410   23339289.426           0.000
  -1962579.0430   23202195.632           0.000
  -3071195.2500   20183507.555           0.000
  -1656353.7490   21494685.737           0.000
  -7380775.2180   24386965.408           0.000
  -3135761.9230   20368266.986           0.000
    472958.2870   23219963.356           0.000
   -256229.2370   21978306.813           0.000
 05 10 24 18  2 50.0000000  0  8G30G 6G19G17G11G13G14G22
  -1636937.3490   23343652.168           0.000
  -2112984.1030   23197715.722           0.000
  -3102025.8230   20185934.979           0.000
  -1676218.9320   21499199.727           0.000
  -7452652.5050   24381583.304           0.000
  -3167083.8050   20370600.685           0.000
    449331.2320   23223761.886           0.000
   -283526.7900   21981407.341           0.000
 05 10 24 18  3  0.0000000  0  8G30G 6G19G17G11G13G14G22
  -1657564.9960   23348022.742           0.000
  -2180095.0910   23193240.925           0.000
  -3132795.4260   20188374.241           0.000
  -1696040.0230   21503722.980           0.000
  -7524542.3200   24376198.299           0.000
  -3198343.0270   20372947.509           0.000
    425698.7320   23227561.093           0.000
   -310819.1100   21984509.119           0.000
 05 10 24 18  3 10.0000000  0  8G30G 6G19G17G11G13G14G22
  -1678163.8030   23352399.599           0.000
  -2247187.7120   23188768.978           0.000
  -3163503.9350   20190825.796           0.000
  -1715816.8960   21508254.519           0.000
  -7596444.3490   24370811.422           0.000
  -3229539.5490   20375307.343           0.000
    402061.3110   23231359.573           0.000
   -338106.0340   21987612.744           0.000
 05 10 24 18  3 20.0000000  0  8G30G 6G19G17G11G13G14G22
  -1698733.5530   23356782.869           0.000
  -2314261.5460   23184305.018           0.000
  -3194151.0720   20193289.918           0.000
  -1735549.3160   21512795.906           0.000
  -7668358.1810   24365423.518           0.000
  -3260673.0270   20377679.170           0.000
    378418.9520   23235157.454           0.000
   -365387.2080   21990717.774           0.000
 05 10 24 18  3 30.0000000  0  8G30G 6G19G17G11G13G14G22
  -1719273.1450   23361170.118           0.000
  -2381315.3360   23179842.174           0.000
  -3224735.6640   20195767.175           0.000
  -1755236.2840   21517346.566           0.000
  -7740282.5590   24360033.009           0.000
  -3291742.4260   20380062.846           0.000
    354772.9790   23238954.020           0.000
   -392661.5390   21993824.493           0.000
 05 10 24 18  3 40.0000000  0  8G30G 6G19G17G11G13G14G22
  -1739783.6420   23365561.585           0.000
  -2448350.0150   23175381.975           0.000
  -3255258.9110   20198254.089           0.000
  -1774879.0100   21521904.019           0.000
  -7812218.4760   24354638.420           0.000
  -3322748.9330   20382456.749           0.000
    331122.2370   23242750.940           0.000
   -419930.1760   21996930.995           0.000
 05 10 24 18  3 50.0000000  0  8G30G 6G19G17G11G13G14G22
  -1760264.2100   23369960.688           0.000
  -2515364.6020   23170923.974           0.000
  -3285720.1870   20200753.646           0.000
  -1794476.6300   21526470.254           0.000
  -7884165.0210   24349242.165           0.000
  -3353691.8340   20384863.297           0.000
    307467.6210   23246545.765           0.000
   -447192.2490   22000038.693           0.000
 05 10 24 18  4  0.0000000  0  8G30G 6G19G17G11G13G14G22
  -1780715.2570   23374364.671           0.000
  -2582359.3630   23166471.856           0.000
  -3316119.9100   20203264.667           0.000
  -1814029.6780   21531045.518           0.000
  -7956122.4660   24343845.640           0.000
  -3384571.3700   20387283.311           0.000
    283808.6830   23250337.172           0.000
   -474448.2200   22003147.981           0.000
 05 10 24 18  4 10.0000000  0  8G30G 6G19G17G11G13G14G22
  -1801136.5480   23378771.395           0.000
  -2649333.8470   23162019.758           0.000
  -3346457.9550   20205785.296           0.000
  -1833537.9620   21535627.386           0.000
  -8028090.4810   24338443.984           0.000
  -3415387.3050   20389713.363           0.000
    260145.6880   23254128.028           0.000
   -501697.8160   22006255.573           0.000
 05 10 24 18  4 20.0000000  0  8G30G 6G19G17G11G13G14G22
  -1821528.9920   23383182.795           0.000
  -2716289.0020   23157570.334           0.000
  -3376735.1870   20208316.325           0.000
  -1853002.3960   21540215.934           0.000
  -8100069.7510   24333038.563           0.000
  -3446140.6690   20392154.530           0.000
    236477.8650   23257919.983           0.000
   -528941.8760   22009363.119           0.000
 05 10 24 18  4 30.0000000  0  8G30G 6G19G17G11G13G14G22
  -1841892.6680   23387599.454           0.000
  -2783224.7340   23153126.742           0.000
  -3406951.8040   20210859.053           0.000
  -1872423.3590   21544813.033           0.000
  -8172060.4530   24327631.390           0.000
  -3476831.6670   20394606.967           0.000
    212804.9230   23261710.186           0.000
   -556180.7030   22012471.919           0.000
 05 10 24 18  4 40.0000000  0  8G30G 6G19G17G11G13G14G22
  -1862228.2850   23392029.629           0.000
  -2850141.5360   23148691.656           0.000
  -3437108.5170   20213419.588           0.000
  -1891801.5270   21549424.934           0.000
  -8244063.0150   24322229.146           0.000
  -3507460.9960   20397076.639           0.000
    189126.2840   23265503.316           0.000
   -583414.8200   22015588.223           0.000
 05 10 24 18  4 50.0000000  0  9G15G30G 6G19G17G11G13G14G22
    -24006.6170   22030363.953           0.000
  -1882535.1570   23396469.543           0.000
  -2917038.5880   23144264.307           0.000
  -3467204.7300   20215995.730           0.000
  -1911136.2400   21554048.864           0.000
  -8316076.6860   24316828.342           0.000
  -3538028.0000   20399563.062           0.000
    165442.6160   23269300.747           0.000
   -610643.6180   22018709.259           0.000
 05 10 24 18  5  0.0000000  0  9G15G30G 6G19G17G11G13G14G22
    -71128.4540   22029689.313           0.000
  -1902812.2110   23400907.577           0.000
  -2983914.8830   23139835.793           0.000
  -3497239.4530   20218577.146           0.000
  -1930426.5410   21558674.778           0.000
  -8388100.3780   24311419.077           0.000
  -3568531.7270   20402056.048           0.000
    141754.9680   23273089.573           0.000
   -637866.0450   22021826.412           0.000
 05 10 24 18  5 10.0000000  0  9G15G30G 6G19G17G11G13G14G22
   -118195.0420   22029028.790           0.000
  -1923060.6850   23405347.566           0.000
  -3050771.3350   23135407.374           0.000
  -3527213.9130   20221166.957           0.000
  -1949673.7440   21563304.936           0.000
  -8460135.1260   24306005.327           0.000
  -3598973.4110   20404555.996           0.000
         0.0000   23276873.199           0.000
   -665083.2470   22024940.081           0.000
 05 10 24 18  5 20.0000000  0  8G15G30G 6G19G17G11G13G22
   -165206.1100   22028374.492           0.000
  -1943280.2340   23409790.345           0.000
  -3117607.5870   23130978.025           0.000
  -3557127.9520   20223764.852           0.000
  -1968877.7170   21567940.889           0.000
  -8532180.4910   24300587.498           0.000
  -3629352.7700   20407065.174           0.000
   -692295.0360   22028053.393           0.000
 05 10 24 18  5 30.0000000  0  8G15G30G 6G19G17G11G13G22
   -212160.5970   22027732.902           0.000
  -1963469.9440   23414241.397           0.000
  -3184422.5720   23126558.236           0.000
  -3586980.6000   20226378.317           0.000
  -1988037.5180   21572588.550           0.000
  -8604235.4790   24295169.787           0.000
  -3659668.8890   20409590.495           0.000
   -719500.4130   22031169.541           0.000
 05 10 24 18  5 40.0000000  0  8G15G30G 6G19G17G11G13G22
   -259059.3820   22027102.441           0.000
  -1983630.5790   23418696.709           0.000
  -3251216.7120   23122139.560           0.000
  -3616772.7100   20229001.194           0.000
  -2007154.0010   21577243.618           0.000
  -8676300.6500   24289745.889           0.000
  -3689922.5370   20412125.227           0.000
   -746700.1110   22034285.799           0.000
 05 10 24 18  5 50.0000000  0  8G15G30G 6G19G17G11G13G22
   -305902.8890   22026481.543           0.000
  -2003762.6160   23423154.429           0.000
  -3317990.6390   23117721.717           0.000
  -3646504.8480   20231633.347           0.000
  -2026227.7340   21581904.385           0.000
  -8748376.4750   24284319.964           0.000
  -3720114.3590   20414669.665           0.000
   -773894.7740   22037401.746           0.000
 05 10 24 18  6  0.0000000  0  8G15G30G 6G19G17G11G13G22
   -352690.5440   22025870.139           0.000
  -2023865.4110   23427617.780           0.000
  -3384743.4550   23113304.783           0.000
  -3676176.4350   20234274.995           0.000
  -2045258.1630   21586571.356           0.000
  -8820462.1560   24278891.370           0.000
  -3750243.6940   20417223.455           0.000
   -801083.6310   22040515.883           0.000
 05 10 24 18  6 10.0000000  0  8G15G30G 6G19G17G11G13G22
   -399422.9600   22025269.868           0.000
  -2043939.6850   23432086.827           0.000
  -3451475.8110   23108896.264           0.000
  -3705788.2090   20236929.207           0.000
  -2064246.0920   21591248.029           0.000
  -8892558.3530   24273460.889           0.000
  -3780311.2450   20419791.382           0.000
   -828267.4570   22043632.282           0.000
 05 10 24 18  6 20.0000000  0  8G15G30G 6G19G17G11G13G22
   -446101.1980   22024681.085           0.000
  -2063986.3770   23436564.070           0.000
  -3518188.3670   23104492.937           0.000
  -3735341.1710   20239596.338           0.000
  -2083192.5140   21595933.472           0.000
  -8964665.8080   24268029.446           0.000
  -3810318.0330   20422373.087           0.000
   -855447.1900   22046750.438           0.000
 05 10 24 18  6 30.0000000  0  8G15G30G 6G19G17G11G13G22
   -492723.3960   22024102.205           0.000
  -2084003.6700   23441045.493           0.000
  -3584879.2620   23100092.930           0.000
  -3764833.5600   20242275.804           0.000
  -2102095.6760   21600627.815           0.000
  -9036782.6030   24262597.603           0.000
  -3840262.2380   20424967.127           0.000
   -882621.0220   22049870.627           0.000
 05 10 24 18  6 40.0000000  0  8G15G30G 6G19G17G11G13G22
   -539289.8050   22023533.331           0.000
  -2103991.8930   23445532.486           0.000
  -3651548.7760   23095697.921           0.000
  -3794265.9110   20244967.565           0.000
  -2120956.1630   21605330.447           0.000
  -9108909.0420   24257164.319           0.000
  -3870144.4680   20427573.463           0.000
   -909789.3200   22052993.382           0.000
 05 10 24 18  6 50.0000000  0  8G15G30G 6G19G17G11G13G22
   -585799.6060   22022974.904           0.000
  -2123950.2130   23450026.349           0.000
  -3718195.7250   23091307.636           0.000
  -3823637.3090   20247669.774           0.000
  -2139772.9760   21610040.951           0.000
  -9181044.0200   24251728.032           0.000
  -3899963.7050   20430189.101           0.000
   -936951.1230   22056115.279           0.000
 05 10 24 18  7  0.0000000  0  9G15G30G 6G12G19G17G11G13G22
   -632254.3750   22022430.743           0.000
  -2143880.2380   23454532.331           0.000
  -3784821.7200   23086925.606           0.000
         0.0000   24206595.426           0.000
  -3852949.3880   20250387.966           0.000
  -2158547.8610   21614763.861           0.000
  -9253189.0820   24246295.708           0.000
  -3929721.4780   20432822.296           0.000
   -964108.0820   22059243.859           0.000
 05 10 24 18  7 10.0000000  0  9G15G30G 6G12G19G17G11G13G22
   -678653.9390   22021884.668           0.000
  -2163781.6740   23459029.673           0.000
  -3851426.4180   23082534.651           0.000
         0.0000   24203889.951           0.000
  -3882201.9890   20253104.815           0.000
  -2177280.6680   21619481.994           0.000
  -9325343.9190   24240849.306           0.000
  -3959417.8020   20435454.865           0.000
   -991259.9940   22062360.936           0.000
 05 10 24 18  7 20.0000000  0  9G15G30G 6G12G19G17G11G13G22
   -724998.9710   22021354.615           0.000
  -2183655.0930   23463539.175           0.000
  -3918010.2120   23078154.853           0.000
         0.0000   24201195.060           0.000
  -3911395.8000   20255839.262           0.000
  -2195971.8480   21624216.436           0.000
  -9397508.9460   24235407.910           0.000
  -3989053.3420   20438105.888           0.000
  -1018407.4790   22065485.881           0.000
 05 10 24 18  7 30.0000000  0  8G15G30G 6G19G17G11G13G22
   -771287.8960   22020836.160           0.000
  -2203499.2310   23468054.121           0.000
  -3984571.5930   23073779.927           0.000
  -3940529.5020   20258587.738           0.000
  -2214620.4200   21628960.902           0.000
  -9469682.7350   24229964.803           0.000
  -4018626.7540   20440770.942           0.000
  -1045549.1230   22068614.123           0.000
 05 10 24 18  7 40.0000000  0  8G15G30G 6G19G17G11G13G22
   -817521.4920   22020329.590           0.000
  -2223314.7130   23472573.798           0.000
  -4051111.1410   23069408.302           0.000
  -3969603.8560   20261347.385           0.000
  -2233227.1840   21633712.245           0.000
  -9541865.8650   24224519.702           0.000
  -4048138.8040   20443447.166           0.000
  -1072685.6180   22071742.804           0.000
 05 10 24 18  7 50.0000000  0  8G15G30G 6G19G17G11G13G22
   -863700.7500   22019832.939           0.000
  -2243102.6320   23477097.384           0.000
  -4117629.7030   23065040.728           0.000
  -3998619.9390   20264116.664           0.000
  -2251793.1260   21638470.358           0.000
  -9614059.1530   24219072.213           0.000
  -4077590.4820   20446133.309           0.000
  -1099817.9560   22074869.955           0.000
 05 10 24 18  8  0.0000000  0  8G15G30G 6G19G17G11G13G22
   -909824.1240   22019345.151           0.000
  -2262861.3700   23481625.826           0.000
  -4184125.7390   23060676.150           0.000
  -4027576.3200   20266894.805           0.000
  -2270316.8760   21643235.045           0.000
  -9686261.0890   24213621.425           0.000
  -4106980.3170   20448828.886           0.000
  -1126944.6920   22077996.812           0.000
 05 10 24 18  8 10.0000000  0  8G15G30G 6G19G17G11G13G22
   -955892.6730   22018867.588           0.000
  -2282591.9600   23486164.065           0.000
  -4250599.9960   23056318.364           0.000
  -4056473.9640   20269688.038           0.000
  -2288799.3780   21648010.387           0.000
  -9758472.5000   24208171.847           0.000
  -4136309.3420   20451539.269           0.000
  -1154066.7910   22081127.027           0.000
 05 10 24 18  8 20.0000000  0  8G15G30G 6G19G17G11G13G22
  -1001905.9640   22018401.009           0.000
  -2302293.9360   23490706.848           0.000
  -4317051.8430   23051964.693           0.000
  -4085312.4520   20272491.825           0.000
  -2307240.2210   21652791.705           0.000
  -9830692.7370   24202721.090           0.000
  -4165577.1020   20454261.207           0.000
  -1181183.7270   22084257.492           0.000
 05 10 24 18  8 30.0000000  0  8G15G30G 6G19G17G11G13G22
  -1047863.1480   22017945.200           0.000
  -2321966.5360   23495253.962           0.000
  -4383480.5090   23047614.351           0.000
  -4114091.1390   20275305.380           0.000
  -2325638.8380   21657579.070           0.000
  -9902920.9960   24197265.793           0.000
  -4194782.8930   20456993.486           0.000
  -1208294.8180   22087389.284           0.000
 05 10 24 18  8 40.0000000  0  8G15G30G 6G19G17G11G13G22
  -1093765.3350   22017499.495           0.000
  -2341610.7510   23499807.603           0.000
  -4449886.6930   23043266.530           0.000
  -4142811.1390   20278131.043           0.000
  -2343996.3080   21662377.254           0.000
  -9975158.0920   24191809.009           0.000
  -4223927.8100   20459738.445           0.000
  -1235401.0710   22090522.451           0.000
 05 10 24 18  8 50.0000000  0  8G15G30G 6G19G17G11G13G22
  -1139611.9110   22017064.513           0.000
  -2361226.0690   23504363.238           0.000
  -4516269.9210   23038922.276           0.000
  -4171471.9610   20280964.996           0.000
  -2362312.1410   21667179.008           0.000
 -10047403.4590   24186348.781           0.000
  -4253011.3480   20462492.123           0.000
  -1262501.9720   22093653.177           0.000
 05 10 24 18  9  0.0000000  0  8G15G30G 6G19G17G11G13G22
  -1185402.3760   22016636.297           0.000
  -2380812.0240   23508922.919           0.000
  -4582629.4740   23034580.066           0.000
  -4200073.1490   20283807.574           0.000
  -2380585.9510   21671986.954           0.000
 -10119656.5000   24180885.733           0.000
  -4282033.1140   20465254.714           0.000
  -1289597.0670   22096782.511           0.000
 05 10 24 18  9 10.0000000  0  9G15G30G 6G12G19G17G11G13G22
  -1231136.8700   22016224.537           0.000
  -2400368.7520   23513493.048           0.000
  -4648965.3640   23030248.876           0.000
  -1089580.1000   24171721.327           0.000
  -4228614.9040   20286667.183           0.000
  -2398817.9470   21676809.211           0.000
 -10191917.2100   24175427.551           0.000
  -4310993.2580   20468035.192           0.000
  -1316686.3950   22099918.430           0.000
 05 10 24 18  9 20.0000000  0  9G15G30G 6G12G19G17G11G13G22
  -1276816.9960   22015821.107           0.000
  -2419897.8730   23518066.641           0.000
  -4715279.0620   23025917.287           0.000
  -1147147.3370   24169055.613           0.000
  -4257098.9470   20289535.835           0.000
  -2417009.8030   21681635.218           0.000
 -10264187.1040   24169962.673           0.000
  -4339893.4460   20470824.715           0.000
  -1343771.6460   22103052.662           0.000
 05 10 24 18  9 30.0000000  0  8G15G30G 6G19G17G11G13G22
  -1322441.7500   22015424.153           0.000
  -2439398.2110   23522642.847           0.000
  -4781569.4250   23021588.023           0.000
  -4285524.3840   20292412.109           0.000
  -2435160.5100   21686465.984           0.000
 -10336464.9640   24164493.682           0.000
  -4368732.5960   20473621.429           0.000
  -1370851.6830   22106184.783           0.000
 05 10 24 18  9 40.0000000  0  9G15G30G 6G12G19G17G11G13G22
  -1368011.8920   22015042.363           0.000
  -2458870.6670   23527227.777           0.000
  -4847837.0920   23017268.057           0.000
         0.0000   24163727.404           0.000
  -4313891.8220   20295303.117           0.000
  -2453271.0670   21691309.338           0.000
 -10408751.4480   24159026.834           0.000
  -4397511.6520   20476434.452           0.000
  -1397927.3470   22109321.480           0.000
 05 10 24 18  9 50.0000000  0  9G15G30G 6G12G19G17G11G13G22
  -1413527.5190   22014669.723           0.000
  -2478315.3350   23531816.135           0.000
  -4914081.9640   23012951.947           0.000
         0.0000   24161067.297           0.000
  -4342201.4880   20298205.422           0.000
  -2471341.6250   21696160.413           0.000
 -10481046.5880   24153559.264           0.000
  -4426230.7010   20479258.630           0.000
  -1424998.7610   22112459.601           0.000
 05 10 24 18 10  0.0000000  0  9G15G30G 6G12G19G17G11G13G22
  -1458988.5060   22014308.041           0.000
  -2497732.0740   23536407.865           0.000
  -4980303.8550   23008640.070           0.000
         0.0000   24158409.562           0.000
  -4370453.4140   20301118.828           0.000
  -2489372.1830   21701019.153           0.000
 -10553350.1760   24148090.202           0.000
  -4454889.7480   20482094.909           0.000
  -1452065.8130   22115599.092           0.000
 05 10 24 18 10 10.0000000  0  9G15G30G 6G12G19G17G11G13G22
  -1504395.7230   22013956.316           0.000
  -2517121.8560   23541005.833           0.000
  -5046503.4270   23004331.996           0.000
  -1216472.6600   24155754.057           0.000
  -4398648.4500   20304041.475           0.000
  -2507363.5400   21705884.559           0.000
 -10625662.9260   24142618.362           0.000
  -4483489.6080   20484941.002           0.000
  -1479129.3350   22118737.665           0.000
 05 10 24 18 10 20.0000000  0  9G15G30G 6G12G19G17G11G13G22
  -1549748.6800   22013613.862           0.000
  -2536484.0460   23545607.348           0.000
  -5112680.0750   23000026.325           0.000
  -1273966.9830   24153101.813           0.000
  -4426786.2990   20306973.680           0.000
  -2525315.3740   21710755.373           0.000
 -10697984.2250   24137142.771           0.000
  -4512029.9710   20487796.796           0.000
  -1506188.8630   22121875.350           0.000
 05 10 24 18 10 30.0000000  0  9G15G30G 6G12G19G17G11G13G22
  -1595045.6110   22013276.624           0.000
  -2555816.9410   23550210.931           0.000
  -5178831.9320   22995719.860           0.000
         0.0000   24150447.488           0.000
  -4454865.0930   20309912.961           0.000
  -2543225.9430   21715628.828           0.000
 -10770312.1620   24131661.665           0.000
  -4540508.9730   20490660.381           0.000
  -1533242.5560   22125010.524           0.000
 05 10 24 18 10 40.0000000  0  8G15G30G 6G19G17G11G13G22
  -1640288.8520   22012955.233           0.000
  -2575122.8060   23554822.920           0.000
  -5244961.1430   22991423.232           0.000
  -4482887.3090   20312868.231           0.000
  -2561097.6090   21720515.982           0.000
 -10842648.9200   24126184.099           0.000
  -4568928.9820   20493540.385           0.000
  -1560292.7450   22128149.953           0.000
 05 10 24 18 10 50.0000000  0  9G15G30G 6G19G17G11G13G14G22
  -1685477.9540   22012643.245           0.000
  -2594401.3100   23559441.451           0.000
  -5311067.1580   22987129.855           0.000
  -4510852.5870   20315833.478           0.000
  -2578930.1620   21725409.536           0.000
 -10914994.0040   24120702.916           0.000
  -4597289.6980   20496430.938           0.000
         0.0000   23404886.006           0.000
  -1587339.0870   22131289.915           0.000
 05 10 24 18 11  0.0000000  0  9G15G30G 6G19G17G11G13G14G22
  -1730612.6090   22012346.329           0.000
  -2613652.1360   23564068.757           0.000
  -5377149.6690   22982845.110           0.000
  -4538760.6760   20318814.226           0.000
  -2596723.4020   21730314.870           0.000
 -10987347.0520   24115223.640           0.000
  -4625590.8500   20499336.705           0.000
   1031610.0620   23408632.438           0.000
  -1614381.2190   22134434.503           0.000
 05 10 24 18 11 10.0000000  0  9G15G30G 6G19G17G11G13G14G22
  -1775692.8620   22012055.713           0.000
  -2632875.2360   23568698.071           0.000
  -5443208.4060   22978560.656           0.000
  -4566611.6700   20321802.275           0.000
  -2614477.4170   21735222.640           0.000
 -11059707.8760   24109740.933           0.000
  -4653832.5860   20502248.629           0.000
   1007739.0710   23412377.730           0.000
  -1641419.1160   22137575.518           0.000
 05 10 24 18 11 20.0000000  0  9G15G30G 6G19G17G11G13G14G22
  -1820719.2350   22011774.996           0.000
  -2652071.1340   23573332.132           0.000
  -5509243.7260   22974282.523           0.000
  -4594406.1130   20324800.224           0.000
  -2632192.6670   21740138.020           0.000
 -11132076.8760   24104255.963           0.000
  -4682015.3810   20505173.172           0.000
    983862.1720   23416122.761           0.000
  -1668453.3310   22140716.987           0.000
 05 10 24 18 11 30.0000000  0  9G15G30G 6G19G17G11G13G14G22
  -1865690.8850   22011505.572           0.000
  -2671238.9900   23577973.479           0.000
  -5575254.7110   22970010.388           0.000
  -4622143.2040   20327810.609           0.000
  -2649868.4490   21745062.403           0.000
 -11204453.1180   24098770.838           0.000
  -4710138.4870   20508110.723           0.000
         0.0000   23419864.776           0.000
  -1695482.9860   22143862.881           0.000
 05 10 24 18 11 40.0000000  0  9G15G30G 6G19G17G11G13G14G22
  -1910608.0080   22011246.006           0.000
  -2690379.0360   23582617.388           0.000
  -5641241.4280   22965740.958           0.000
  -4649823.1980   20330830.854           0.000
  -2667504.9810   21749993.641           0.000
 -11276836.6210   24093284.697           0.000
  -4738202.1250   20511058.420           0.000
         0.0000   23423612.929           0.000
  -1722508.3140   22147006.184           0.000
 05 10 24 18 11 50.0000000  0  9G15G30G 6G19G17G11G13G14G22
  -1955471.2850   22010995.104           0.000
  -2709491.8540   23587270.817           0.000
  -5707204.3450   22961477.185           0.000
  -4677446.9030   20333863.052           0.000
  -2685103.0160   21754934.112           0.000
 -11349227.9610   24087797.346           0.000
  -4766206.9550   20514018.357           0.000
         0.0000   23427359.442           0.000
  -1749529.9810   22150153.285           0.000
 05 10 24 18 12  0.0000000  0  8G15G30G 6G19G17G11G13G22
  -2000281.0550   22010753.976           0.000
  -2728577.9370   23591927.440           0.000
  -5773143.7330   22957217.035           0.000
  -4705014.8350   20336904.024           0.000
  -2702663.0300   21759881.069           0.000
 -11421627.3790   24082306.891           0.000
  -4794153.3880   20516986.638           0.000
  -1776548.3600   22153299.430           0.000
 05 10 24 18 12 10.0000000  0  8G15G30G 6G19G17G11G13G22
  -2045036.1930   22010522.708           0.000
  -2747636.0900   23596587.770           0.000
  -5839058.3820   22952958.445           0.000
  -4732525.7440   20339953.854           0.000
  -2720183.9870   21764832.018           0.000
 -11494033.6910   24076813.418           0.000
  -4822040.3130   20519963.921           0.000
  -1803562.3490   22156444.130           0.000
 05 10 24 18 12 20.0000000  0  8G15G30G 6G19G17G11G13G22
  -2089737.6240   22010302.457           0.000
  -2766667.2750   23601250.959           0.000
  -5904949.0340   22948703.430           0.000
  -4759980.7000   20343014.700           0.000
  -2737666.9620   21769788.975           0.000
 -11566447.6800   24071321.087           0.000
  -4849868.9600   20522953.650           0.000
  -1830572.8710   22159589.543           0.000
 05 10 24 18 12 30.0000000  0  8G15G30G 6G19G17G11G13G22
  -2134386.1870   22010092.145           0.000
  -2785672.3840   23605921.513           0.000
  -5970816.4520   22944454.921           0.000
  -4787380.6410   20346087.346           0.000
  -2755112.8060   21774755.729           0.000
 -11638870.1060   24065825.961           0.000
  -4877640.1330   20525955.752           0.000
  -1857580.8010   22162736.454           0.000
 05 10 24 18 12 40.0000000  0  8G15G30G 6G19G17G11G13G22
  -2178980.4310   22009895.397           0.000
  -2804649.8130   23610598.905           0.000
  -6036658.9010   22940214.109           0.000
  -4814724.0210   20349172.840           0.000
  -2772520.0760   21779731.325           0.000
 -11711299.2300   24060329.947           0.000
  -4905352.2700   20528971.274           0.000
  -1884584.4700   22165886.340           0.000
 05 10 24 18 12 50.0000000  0  8G15G30G 6G19G17G11G13G22
  -2223520.7760   22009707.445           0.000
  -2823600.0430   23615280.372           0.000
  -6102476.8490   22935977.801           0.000
  -4842011.4340   20352267.561           0.000
  -2789889.3090   21784711.568           0.000
 -11783735.4260   24054832.284           0.000
  -4933005.9400   20531996.309           0.000
  -1911584.3880   22169035.865           0.000
 05 10 24 18 13  0.0000000  0  8G15G30G 6G19G17G11G13G22
  -2268006.2460   22009530.540           0.000
  -2842522.0270   23619966.446           0.000
  -6168268.9660   22931745.528           0.000
  -4869241.8270   20355373.041           0.000
  -2807219.6040   21789700.996           0.000
 -11856177.5670   24049332.216           0.000
  -4960600.0700   20535032.247           0.000
  -1938579.6170   22172185.560           0.000
 05 10 24 18 13 10.0000000  0  8G15G30G 6G19G17G11G13G22
  -2312437.7350   22009362.535           0.000
  -2861416.7600   23624657.842           0.000
  -6234036.1470   22927518.148           0.000
  -4896416.3110   20358489.281           0.000
  -2824512.0020   21794698.609           0.000
 -11928626.4840   24043832.892           0.000
  -4988135.7510   20538079.946           0.000
  -1965571.0690   22175336.286           0.000
 05 10 24 18 13 20.0000000  0  8G15G30G 6G19G17G11G13G22
  -2356814.8570   22009204.252           0.000
  -2880283.9160   23629354.954           0.000
  -6299777.8450   22923296.770           0.000
  -4923534.7040   20361616.390           0.000
  -2841766.1010   21799702.940           0.000
 -12001081.6420   24038333.703           0.000
  -5015612.7110   20541139.229           0.000
  -1992558.3400   22178487.863           0.000
 05 10 24 18 13 30.0000000  0  8G15G30G 6G19G17G11G13G22
  -2401137.0210   22009055.555           0.000
  -2899122.7370   23634056.358           0.000
  -6365493.3040   22919077.394           0.000
  -4950596.2740   20364753.512           0.000
  -2858981.4470   21804713.995           0.000
 -12073542.3850   24032832.796           0.000
  -5043030.3450   20544208.240           0.000
  -2019540.7520   22181638.865           0.000
 05 10 24 18 13 40.0000000  0  8G15G30G 6G19G17G11G13G22
  -2445404.9990   22008916.894           0.000
  -2917934.0310   23638763.934           0.000
  -6431183.1040   22914863.046           0.000
  -4977601.9430   20367900.385           0.000
  -2876158.8150   21809732.653           0.000
 -12146009.3120   24027328.045           0.000
  -5070389.4870   20547288.431           0.000
  -2046519.1340   22184792.320           0.000
 05 10 24 18 13 50.0000000  0  8G15G30G 6G19G17G11G13G22
  -2489619.4710   22008788.581           0.000
  -2936718.5310   23643475.133           0.000
  -6496847.8620   22910652.749           0.000
  -5004552.3970   20371056.746           0.000
  -2893298.9850   21814757.079           0.000
 -12218482.9700   24021821.335           0.000
  -5097690.8230   20550379.114           0.000
  -2073494.1540   22187945.534           0.000
 05 10 24 18 14  0.0000000  0  8G15G30G 6G19G17G11G13G22
  -2533778.8880   22008670.540           0.000
  -2955474.7040   23648192.455           0.000
  -6562485.9210   22906448.719           0.000
  -5031446.1810   20374224.669           0.000
  -2910400.5780   21819789.919           0.000
 -12290961.7030   24016315.169           0.000
  -5124932.8610   20553481.357           0.000
  -2100464.2840   22191098.861           0.000
 05 10 24 18 14 10.0000000  0  8G15G30G 6G19G17G11G13G22
  -2577884.8330   22008564.024           0.000
  -2974204.0290   23652914.861           0.000
  -6628098.6070   22902250.060           0.000
  -5058284.7580   20377404.831           0.000
  -2927465.0540   21824829.704           0.000
 -12363446.8470   24010808.077           0.000
  -5152117.1910   20556594.838           0.000
  -2127431.0270   22194253.696           0.000
 05 10 24 18 14 20.0000000  0  8G15G30G 6G19G17G11G13G22
  -2621937.4850   22008467.594           0.000
  -2992906.7160   23657641.202           0.000
  -6693685.9910   22898054.905           0.000
  -5085068.5070   20380594.650           0.000
  -2944492.7670   21829874.709           0.000
 -12435938.5480   24005299.481           0.000
  -5179244.0820   20559717.977           0.000
  -2154394.5060   22197408.171           0.000
 05 10 24 18 14 30.0000000  0  8G15G30G 6G19G17G11G13G22
  -2665935.6720   22008380.647           0.000
  -3011581.7130   23662371.587           0.000
  -6759246.8750   22893862.793           0.000
  -5111796.4520   20383793.236           0.000
  -2961482.8350   21834925.477           0.000
 -12508435.6160   23999788.348           0.000
  -5206312.4130   20562851.456           0.000
  -2181353.6990   22200563.543           0.000
 05 10 24 18 14 40.0000000  0  8G15G30G 6G19G17G11G13G22
  -2709879.7460   22008304.347           0.000
  -3030229.2600   23667109.186           0.000
  -6824781.3850   22889678.182           0.000
  -5138468.9430   20387003.615           0.000
  -2978435.5570   21839985.749           0.000
 -12580938.1840   23994277.561           0.000
  -5233322.5720   20565998.159           0.000
  -2208308.8320   22203719.691           0.000
 05 10 24 18 14 50.0000000  0  8G15G30G 6G19G17G11G13G22
  -2753771.7040   22008238.235           0.000
  -3048851.3470   23671850.390           0.000
  -6890291.3430   22885499.322           0.000
  -5165087.8360   20390224.611           0.000
  -2995352.8290   21845053.203           0.000
 -12653448.0040   23988765.657           0.000
  -5260276.5560   20569155.622           0.000
  -2235261.9400   22206877.583           0.000
 05 10 24 18 15  0.0000000  0  8G15G30G 6G19G17G11G13G22
  -2797610.7550   22008183.206           0.000
  -3067447.1910   23676599.100           0.000
  -6955775.8440   22881324.533           0.000
  -5191652.5510   20393456.689           0.000
  -3012234.0770   21850127.876           0.000
 -12725964.2990   23983252.243           0.000
  -5287173.7190   20572323.881           0.000
  -2262212.1910   22210034.108           0.000
 05 10 24 18 15 10.0000000  0  8G15G30G 6G19G17G11G13G22
  -2841396.5710   22008137.443           0.000
  -3086016.4740   23681351.781           0.000
  -7021234.4650   22877153.716           0.000
  -5218162.8450   20396698.177           0.000
  -3029078.8990   21855208.523           0.000
 -12798486.5660   23977737.792           0.000
  -5314013.7950   20575503.410           0.000
  -2289159.2970   22213192.603           0.000
 05 10 24 18 15 20.0000000  0  8G15G30G 6G19G17G11G13G22
  -2885129.1610   22008101.816           0.000
  -3104559.2280   23686108.875           0.000
  -7086667.0200   22872989.172           0.000
  -5244618.7920   20399949.372           0.000
  -3045887.5780   21860295.445           0.000
 -12871014.7080   23972222.318           0.000
  -5340796.8710   20578693.505           0.000
  -2316103.1910   22216351.360           0.000
 05 10 24 18 15 30.0000000  0  8G15G30G 6G19G17G11G13G22
  -2928807.9700   22008076.175           0.000
  -3123074.9080   23690872.950           0.000
  -7152072.9030   22868830.177           0.000
  -5271019.7860   20403213.271           0.000
  -3062659.5640   21865390.491           0.000
 -12943548.0570   23966705.524           0.000
  -5367522.3910   20581894.300           0.000
  -2343043.2780   22219512.805           0.000
 05 10 24 18 15 40.0000000  0  8G15G30G 6G19G17G11G13G22
  -2972432.6420   22008060.852           0.000
  -3141563.0050   23695637.899           0.000
  -7217451.4330   22864674.346           0.000
  -5297365.5400   20406485.484           0.000
  -3079394.4810   21870491.706           0.000
 -13016086.0210   23961187.458           0.000
  -5394189.9350   20585104.269           0.000
  -2369979.1730   22222672.549           0.000
 05 10 24 18 15 50.0000000  0  8G15G30G 6G19G17G11G13G22
  -3016003.3890   22008053.200           0.000
  -3160023.8800   23700404.795           0.000
  -7282802.8710   22860520.320           0.000
  -5323656.5080   20409763.938           0.000
  -3096092.7630   21875596.442           0.000
 -13088628.8610   23955667.190           0.000
  -5420799.8800   20588322.481           0.000
  -2396911.2670   22225831.092           0.000
 05 10 24 18 16  0.0000000  0  8G15G30G 6G19G17G11G13G22
  -3059520.7650   22008057.538           0.000
  -3178458.1570   23705182.107           0.000
  -7348127.5970   22856376.280           0.000
  -5349893.3110   20413057.531           0.000
  -3112754.9620   21880712.024           0.000
 -13161176.9630   23950148.323           0.000
  -5447352.8130   20591555.688           0.000
  -2423840.1120   22228992.896           0.000
 05 10 24 18 16 10.0000000  0  8G15G30G 6G19G17G11G13G22
  -3102984.3420   22008070.587           0.000
  -3196865.1680   23709966.127           0.000
  -7413424.9130   22852236.229           0.000
  -5376075.3890   20416359.548           0.000
  -3129380.6530   21885833.741           0.000
 -13233729.6180   23944627.292           0.000
  -5473848.3270   20594798.179           0.000
  -2450765.0480   22232153.968           0.000
 05 10 24 18 16 20.0000000  0  8G15G30G 6G19G17G11G13G22
  -3146393.4730   22008096.558           0.000
  -3215244.3930   23714754.054           0.000
  -7478694.0380   22848102.662           0.000
  -5402202.2460   20419674.630           0.000
  -3145969.2920   21890964.230           0.000
 -13306286.0850   23939105.876           0.000
  -5500285.7660   20598054.308           0.000
  -2477685.4430   22235317.230           0.000
 05 10 24 18 16 30.0000000  0  8G15G30G 6G19G17G11G13G22
  -3189749.1510   22008132.019           0.000
  -3233596.7320   23719544.317           0.000
  -7543935.8450   22843971.285           0.000
  -5428274.8780   20422997.627           0.000
  -3162521.9510   21896099.344           0.000
 -13378847.2500   23933582.501           0.000
  -5526666.2400   20601318.780           0.000
  -2504602.2990   22238479.392           0.000
 05 10 24 18 16 40.0000000  0  8G15G30G 6G19G17G11G13G22
  -3233050.6250   22008177.207           0.000
  -3251921.4500   23724339.154           0.000
  -7609149.4610   22839844.485           0.000
  -5454292.6230   20426329.779           0.000
  -3179038.0790   21901240.321           0.000
 -13451412.2280   23928057.549           0.000
  -5552989.0730   20604592.837           0.000
  -2531514.9340   22241641.121           0.000
 05 10 24 18 16 50.0000000  0  8G15G30G 6G19G17G11G13G22
  -3276298.5050   22008232.936           0.000
  -3270219.1700   23729143.532           0.000
  -7674335.2840   22835724.219           0.000
  -5480256.0480   20429673.331           0.000
  -3195518.1890   21906388.262           0.000
 -13523981.4270   23922530.833           0.000
  -5579254.9130   20607878.866           0.000
  -2558423.8100   22244803.948           0.000
 05 10 24 18 17  0.0000000  0  8G15G30G 6G19G17G11G13G22
  -3319493.1120   22008296.725           0.000
  -3288490.2920   23733952.965           0.000
  -7739493.7020   22831609.295           0.000
  -5506165.7120   20433026.947           0.000
  -3211962.7710   21911543.262           0.000
 -13596555.2340   23917005.023           0.000
  -5605464.1400   20611175.961           0.000
  -2585329.3540   22247968.396           0.000
 05 10 24 18 17 10.0000000  0  8G15G30G 6G19G17G11G13G22
  -3362634.1210   22008371.173           0.000
  -3306734.3910   23738766.188           0.000
  -7804624.0510   22827499.020           0.000
  -5532021.2310   20436390.363           0.000
  -3228371.4600   21916704.771           0.000
 -13669133.0210   23911478.137           0.000
  -5631616.4580   20614483.571           0.000
  -2612231.1530   22251133.916           0.000
 05 10 24 18 17 20.0000000  0  8G15G30G 6G19G17G11G13G22
  -3405721.6450   22008455.618           0.000
  -3324951.5740   23743583.541           0.000
  -7869726.3020   22823393.877           0.000
  -5557822.8130   20439763.776           0.000
  -3244744.4650   21921872.842           0.000
 -13741714.7720   23905949.659           0.000
  -5657712.0190   20617801.321           0.000
  -2639129.2100   22254299.417           0.000
 05 10 24 18 17 30.0000000  0  8G15G30G 6G19G17G11G13G22
  -3448755.4530   22008550.682           0.000
  -3343141.6980   23748408.222           0.000
  -7934800.1780   22819295.345           0.000
  -5583570.4200   20443149.954           0.000
  -3261081.7900   21927048.528           0.000
 -13814300.2500   23900421.353           0.000
  -5683750.6770   20621130.691           0.000
  -2666023.4390   22257467.379           0.000
 05 10 24 18 17 40.0000000  0  8G15G30G 6G19G17G11G13G22
  -3491735.7010   22008655.882           0.000
  -3361304.7780   23753238.318           0.000
  -7999845.6070   22815201.943           0.000
  -5609264.1090   20446545.410           0.000
  -3277383.5390   21932230.344           0.000
 -13886889.3670   23894893.025           0.000
  -5709732.5280   20624471.200           0.000
  -2692913.9050   22260635.033           0.000
 05 10 24 18 17 50.0000000  0  9G15G30G 6G24G19G17G11G13G22
  -3534662.4400   22008770.424           0.000
  -3379440.9760   23758070.886           0.000
  -8064862.4770   22811113.302           0.000
         0.0000   23365005.104           0.000
  -5634904.0620   20449948.919           0.000
  -3293649.7780   21937417.208           0.000
 -13959482.0620   23889362.733           0.000
  -5735657.6990   20627821.050           0.000
  -2719800.7500   22263802.011           0.000
 05 10 24 18 18  0.0000000  0  9G15G30G 6G24G19G17G11G13G22
  -3577535.2800   22008895.629           0.000
  -3397550.0730   23762909.969           0.000
  -8129850.5580   22807031.319           0.000
    981888.8280   23359295.593           0.000
  -5660490.1080   20453364.953           0.000
  -3309880.4370   21942613.877           0.000
 -14032078.0130   23883833.375           0.000
  -5761526.1020   20631183.424           0.000
  -2746683.6440   22266970.210           0.000
 05 10 24 18 18 10.0000000  0 10G15G30G 6G24G19G17G11G13G12G22
  -3620354.3720   22009026.993           0.000
  -3415631.9400   23767749.772           0.000
  -8194809.5430   22802950.342           0.000
    908373.7960   23353582.224           0.000
  -5686022.2220   20456787.001           0.000
  -3326075.5320   21947812.698           0.000
 -14104677.0160   23878298.871           0.000
  -5787337.7490   20634551.956           0.000
         0.0000   24030787.210           0.000
  -2773562.5550   22270135.981           0.000
 05 10 24 18 18 20.0000000  0 10G15G30G 6G24G19G17G11G13G12G22
  -3663119.6500   22009172.707           0.000
  -3433686.4200   23772597.488           0.000
  -8259739.1730   22798878.709           0.000
    834863.5510   23347877.053           0.000
  -5711500.3630   20460223.258           0.000
  -3342234.9480   21953021.863           0.000
 -14177278.7290   23872767.127           0.000
  -5813092.5370   20637936.127           0.000
  -1109346.3140   24028234.211           0.000
  -2800437.2870   22273305.943           0.000
 05 10 24 18 18 30.0000000  0 10G15G30G 6G24G19G17G11G13G12G22
  -3705832.4700   22009328.358           0.000
  -3451715.1360   23777451.276           0.000
  -8324640.7930   22794812.003           0.000
    761356.7840   23342173.948           0.000
  -5736926.0550   20463668.306           0.000
  -3358360.3430   21958237.960           0.000
 -14249884.5440   23867232.156           0.000
  -5838791.9520   20641329.233           0.000
  -1166292.1350   24025680.846           0.000
  -2827309.3570   22276476.970           0.000
 05 10 24 18 18 40.0000000  0 10G15G30G 6G24G19G17G11G13G12G22
  -3748492.2170   22009493.839           0.000
  -3469717.2680   23782309.742           0.000
  -8389513.6090   22790749.690           0.000
    687854.1800   23336472.803           0.000
  -5762298.6840   20467123.327           0.000
  -3374451.0790   21963459.880           0.000
 -14322493.7030   23861697.569           0.000
  -5864435.3470   20644732.311           0.000
  -1223227.6930   24023128.152           0.000
  -2854178.0200   22279647.381           0.000
 05 10 24 18 18 50.0000000  0 10G15G30G 6G24G19G17G11G13G12G22
  -3791098.6510   22009669.695           0.000
  -3487692.6230   23787172.145           0.000
  -8454357.1670   22786692.172           0.000
    614356.2170   23330769.299           0.000
  -5787618.0350   20470588.437           0.000
  -3390506.9240   21968687.310           0.000
 -14395105.8090   23856163.200           0.000
  -5890022.6150   20648146.624           0.000
  -1280152.8210   24020579.968           0.000
  -2881043.0310   22282818.867           0.000
 05 10 24 18 19  0.0000000  0 10G15G30G 6G24G19G17G11G13G12G22
  -3833652.9690   22009855.783           0.000
  -3505642.3020   23792040.486           0.000
  -8519172.5000   22782642.023           0.000
    540861.7440   23325066.009           0.000
  -5812885.4530   20474063.779           0.000
  -3406529.0910   21973922.253           0.000
 -14467721.8410   23850628.472           0.000
  -5915554.9430   20651571.025           0.000
  -1337068.5980   24018031.855           0.000
  -2907905.4550   22285991.283           0.000
 05 10 24 18 19 10.0000000  0 10G15G30G 6G24G19G17G11G13G12G22
  -3876154.8840   22010053.484           0.000
  -3523566.1400   23796914.860           0.000
  -8583959.2540   22778598.765           0.000
         0.0000   23319362.456           0.000
  -5838100.6990   20477550.447           0.000
  -3422517.4190   21979164.230           0.000
 -14540341.4770   23845093.052           0.000
  -5941032.1630   20655007.468           0.000
  -1393974.8490   24015487.199           0.000
  -2934765.1470   22289165.439           0.000
 05 10 24 18 19 20.0000000  0 10G15G30G 6G24G19G17G11G13G12G22
  -3918603.5700   22010260.121           0.000
  -3541463.3050   23801792.876           0.000
  -8648716.5150   22774559.293           0.000
    393885.2150   23313662.258           0.000
  -5863263.0020   20481045.193           0.000
  -3438471.2220   21984410.708           0.000
 -14612963.8570   23839558.984           0.000
  -5966453.5270   20658453.849           0.000
  -1450870.6790   24012942.893           0.000
  -2961621.3180   22292337.656           0.000
 05 10 24 18 19 30.0000000  0 10G15G30G 6G24G19G17G11G13G12G22
  -3961000.6450   22010475.135           0.000
  -3559335.4920   23806672.974           0.000
  -8713445.7290   22770525.908           0.000
    320402.5860   23307961.567           0.000
  -5888374.0500   20484549.748           0.000
  -3454392.2650   21989664.705           0.000
 -14685590.3640   23834022.419           0.000
  -5991820.6780   20661909.038           0.000
  -1507757.9220   24010402.530           0.000
  -2988475.5390   22295509.808           0.000
 05 10 24 18 19 40.0000000  0 10G15G30G 6G24G19G17G11G13G12G22
  -4003345.0960   22010698.929           0.000
  -3577181.5590   23811558.846           0.000
  -8778145.7920   22766497.297           0.000
    246924.3190   23302263.502           0.000
  -5913432.8800   20488063.941           0.000
  -3470279.5070   21994923.188           0.000
 -14758219.8390   23828484.617           0.000
  -6017132.6290   20665375.438           0.000
  -1564635.5270   24007863.076           0.000
  -3015326.7880   22298682.297           0.000
 05 10 24 18 19 50.0000000  0 10G15G30G 6G24G19G17G11G13G12G22
  -4045636.8470   22010933.837           0.000
  -3595001.2840   23816452.254           0.000
  -8842816.2270   22762474.934           0.000
    173450.7290   23296566.391           0.000
  -5938439.3920   20491589.105           0.000
  -3486132.8120   22000189.351           0.000
 -14830851.9530   23822945.337           0.000
  -6042389.2230   20668853.810           0.000
  -1621503.2270   24005325.292           0.000
  -3042174.7740   22301858.460           0.000
 05 10 24 18 20  0.0000000  0 10G15G30G 6G24G19G17G11G13G12G22
  -4087877.1510   22011179.908           0.000
  -3612796.1020   23821352.533           0.000
  -8907458.2870   22758458.583           0.000
     99980.6750   23290868.424           0.000
  -5963394.9410   20495124.573           0.000
  -3501953.5900   22005464.388           0.000
 -14903487.9220   23817406.630           0.000
  -6067591.8790   20672342.344           0.000
  -1678362.2610   24002787.796           0.000
  -3069020.8440   22305034.767           0.000
 05 10 24 18 20 10.0000000  0 10G15G30G 6G24G19G17G11G13G12G22
  -4130065.1130   22011433.061           0.000
  -3630565.0560   23826254.885           0.000
  -8972070.9700   22754445.163           0.000
     26515.0720   23285170.812           0.000
  -5988298.7520   20498667.695           0.000
  -3517741.0340   22010742.499           0.000
 -14976126.7440   23811866.277           0.000
  -6092739.8340   20675839.104           0.000
  -1735211.8720   24000253.518           0.000
  -3095864.0560   22308208.139           0.000
 05 10 24 18 20 20.0000000  0 10G15G30G 6G24G19G17G11G13G12G22
  -4172200.7580   22011696.968           0.000
  -3648308.1460   23831161.409           0.000
  -9036654.1120   22750437.061           0.000
    -46945.9620   23279474.797           0.000
  -6013150.8420   20502220.569           0.000
  -3533495.2570   22016026.071           0.000
 -15048768.2400   23806324.945           0.000
  -6117833.0720   20679345.760           0.000
  -1792052.0140   23997721.122           0.000
  -3122704.3510   22311381.391           0.000
 05 10 24 18 20 30.0000000  0 10G15G30G 6G24G19G17G11G13G12G22
  -4214284.4960   22011972.858           0.000
  -3666025.7150   23836073.621           0.000
  -9101207.9420   22746437.507           0.000
   -120402.7360   23273782.180           0.000
  -6037951.6950   20505786.286           0.000
  -3549216.6110   22021319.908           0.000
 -15121412.6260   23800786.008           0.000
  -6142872.0540   20682865.258           0.000
         0.0000   23995189.405           0.000
  -3149542.1350   22314559.615           0.000
 05 10 24 18 20 40.0000000  0 10G15G30G 6G24G19G17G11G13G12G22
  -4256316.4010   22012258.918           0.000
  -3683717.9970   23840987.846           0.000
  -9165732.4190   22742443.831           0.000
   -193855.1860   23268091.433           0.000
  -6062701.5420   20509361.457           0.000
  -3564905.3800   22026620.052           0.000
 -15194059.9730   23795246.939           0.000
  -6167856.9580   20686395.069           0.000
  -1905705.1990   23992659.989           0.000
  -3176377.5990   22317738.135           0.000
 05 10 24 18 20 50.0000000  0  9G15G30G 6G24G19G17G11G13G22
  -4298296.5860   22012559.351           0.000
  -3701385.0410   23845910.149           0.000
  -9230227.5820   22738460.665           0.000
   -267303.3820   23262402.898           0.000
  -6087400.4970   20512950.429           0.000
  -3580561.7000   22031930.420           0.000
 -15266710.2170   23789711.226           0.000
  -6192787.9480   20689940.112           0.000
  -3203210.8630   22320920.440           0.000
 05 10 24 18 21  0.0000000  0 10G15G30G 6G24G19G17G11G13G12G22
  -4340224.7670   22012868.452           0.000
  -3719026.6090   23850838.686           0.000
  -9294692.9550   22734480.299           0.000
   -340746.8530   23256710.724           0.000
  -6112048.2740   20516546.781           0.000
  -3596185.3590   22037245.163           0.000
 -15339362.9200   23784171.874           0.000
  -6217664.7420   20693493.679           0.000
         0.0000   23987608.664           0.000
  -3230041.5550   22324101.110           0.000
 05 10 24 18 21 10.0000000  0 10G15G30G 6G24G19G17G11G13G12G22
  -4382100.4850   22013188.479           0.000
  -3736642.0670   23855772.712           0.000
  -9359127.8480   22730505.422           0.000
   -414185.0370   23251020.461           0.000
  -6136644.4620   20520152.771           0.000
  -3611775.9790   22042565.251           0.000
 -15412017.4790   23778630.569           0.000
  -6242486.8650   20697057.743           0.000
         0.0000   23985089.461           0.000
  -3256869.1260   22327282.975           0.000
 05 10 24 18 21 20.0000000  0 10G15G30G 6G24G19G17G11G13G12G22
  -4423923.3320   22013514.490           0.000
  -3754231.1030   23860706.712           0.000
  -9423531.7530   22726531.807           0.000
   -487617.4570   23245327.310           0.000
  -6161188.7690   20523766.032           0.000
  -3627333.1760   22047887.745           0.000
 -15484673.3550   23773087.522           0.000
  -6267254.0540   20700628.935           0.000
         0.0000   23982569.803           0.000
  -3283693.2090   22330461.666           0.000
 05 10 24 18 21 30.0000000  0 10G15G30G 6G24G19G17G11G13G12G22
  -4465695.1390   22013848.637           0.000
  -3771795.5450   23865646.559           0.000
  -9487906.4130   22722563.466           0.000
   -561045.8000   23239637.717           0.000
  -6185683.1140   20527388.146           0.000
  -3642858.8590   22053216.087           0.000
 -15557332.2310   23767543.310           0.000
  -6291968.1620   20704209.123           0.000
         0.0000   23980050.697           0.000
  -3310515.5510   22333640.195           0.000
 05 10 24 18 21 40.0000000  0 10G15G30G 6G24G19G17G11G13G12G22
  -4507416.5650   22014192.166           0.000
  -3789336.0130   23870594.643           0.000
  -9552252.2480   22718601.359           0.000
   -634470.6410   23233950.636           0.000
  -6210128.2510   20531019.641           0.000
  -3658353.7420   22058550.090           0.000
 -15629994.5810   23761998.320           0.000
  -6316629.8990   20707798.549           0.000
  -2216441.5380   23977532.960           0.000
  -3337336.8690   22336818.231           0.000
 05 10 24 18 21 50.0000000  0 10G15G30G 6G24G19G17G11G13G12G22
  -4549086.5410   22014545.355           0.000
  -3806851.4170   23875547.951           0.000
  -9616567.9740   22714645.764           0.000
   -707890.6530   23228266.491           0.000
  -6234522.9960   20534661.082           0.000
  -3673816.8200   22063890.605           0.000
 -15702659.1020   23756453.117           0.000
  -6341238.1940   20711398.494           0.000
  -2273201.8960   23975012.434           0.000
  -3364155.9180   22339998.202           0.000
 05 10 24 18 22  0.0000000  0 10G15G30G 6G24G19G17G11G13G12G22
  -4590704.7970   22014909.413           0.000
  -3824341.5800   23880504.687           0.000
  -9680853.3890   22710695.886           0.000
   -781305.6860   23222583.055           0.000
  -6258867.3080   20538312.676           0.000
  -3689247.9660   22069238.267           0.000
 -15775325.6570   23750908.193           0.000
  -6365792.9750   20715009.164           0.000
  -2329953.4210   23972495.908           0.000
  -3390972.4600   22343180.311           0.000
 05 10 24 18 22 10.0000000  0 10G15G30G 6G24G19G17G11G13G12G22
  -4632271.1810   22015283.469           0.000
  -3841806.1910   23885464.839           0.000
  -9745107.9660   22706751.715           0.000
   -854715.1900   23216897.740           0.000
  -6283160.8990   20541974.413           0.000
  -3704646.9120   22074591.350           0.000
 -15847993.6780   23745364.254           0.000
  -6390294.0330   20718629.976           0.000
         0.0000   23969982.083           0.000
  -3417786.3600   22346361.545           0.000
 05 10 24 18 22 20.0000000  0 10G15G30G 6G24G19G17G11G13G12G22
  -4673785.1380   22015671.590           0.000
  -3859244.6420   23890432.045           0.000
  -9809331.0630   22702818.746           0.000
   -928118.6270   23211215.759           0.000
  -6307403.3260   20545648.067           0.000
  -3720013.2120   22079954.205           0.000
 -15920662.5480   23739822.932           0.000
  -6414740.7700   20722264.423           0.000
         0.0000   23967469.302           0.000
  -3444596.9380   22349546.397           0.000
 05 10 24 18 22 30.0000000  0 10G15G30G 6G24G19G17G11G13G12G22
  -4715249.0630   22016064.545           0.000
  -3876659.5820   23895402.797           0.000
  -9873525.1000   22698887.034           0.000
  -1001518.3930   23205531.600           0.000
  -6331597.2680   20549327.987           0.000
  -3735349.4760   22085320.892           0.000
 -15993334.6910   23734278.144           0.000
  -6439135.8180   20725906.709           0.000
  -2122996.4230   23964960.781           0.000
  -3471406.8040   22352728.929           0.000
 05 10 24 18 22 40.0000000  0 10G15G30G 6G24G19G17G11G13G12G22
  -4756663.2630   22016466.525           0.000
  -3894051.1150   23900378.996           0.000
  -9937689.9840   22694962.343           0.000
  -1074914.5130   23199847.881           0.000
  -6355742.8050   20553018.505           0.000
  -3750655.8720   22090692.741           0.000
 -16066010.0530   23728734.655           0.000
  -6463479.3410   20729560.167           0.000
  -2179715.2480   23962452.415           0.000
  -3498215.9970   22355912.187           0.000
 05 10 24 18 22 50.0000000  0 10G15G30G 6G24G19G17G11G13G12G22
  -4798026.5440   22016878.454           0.000
  -3911418.0760   23905359.564           0.000
 -10001824.5030   22691042.164           0.000
  -1148305.7660   23194162.376           0.000
  -6379838.9750   20556717.255           0.000
  -3765931.4420   22096070.245           0.000
 -16138687.3470   23723189.095           0.000
  -6487770.3240   20733222.429           0.000
  -2236426.0570   23959948.273           0.000
  -3525023.3630   22359095.091           0.000
 05 10 24 18 23  0.0000000  0 10G15G30G 6G24G19G17G11G13G12G22
  -4839340.5930   22017305.368           0.000
  -3928762.1220   23910347.390           0.000
 -10065930.1530   22687129.530           0.000
  -1221693.6800   23188481.412           0.000
  -6403887.4180   20560428.559           0.000
  -3781177.8430   22101456.583           0.000
 -16211368.1370   23717646.214           0.000
  -6512010.4950   20736896.815           0.000
  -2293130.5020   23957442.233           0.000
  -3551830.5860   22362280.961           0.000
 05 10 24 18 23 10.0000000  0 10G15G30G 6G24G19G17G11G13G12G22
  -4880605.4750   22017742.748           0.000
  -3946083.2780   23915341.103           0.000
 -10130006.7690   22683224.356           0.000
  -1295078.1120   23182803.472           0.000
  -6427888.2760   20564150.327           0.000
  -3796395.0830   22106850.810           0.000
 -16284052.2640   23712104.212           0.000
  -6536199.8230   20740582.381           0.000
         0.0000   23954936.355           0.000
  -3578637.6140   22365469.569           0.000
 05 10 24 18 23 20.0000000  0 10G15G30G 6G24G19G17G11G13G12G22
  -4921820.0800   22018187.759           0.000
  -3963380.4990   23920337.152           0.000
 -10194053.2090   22679323.092           0.000
  -1368457.9550   23177126.438           0.000
  -6451840.5220   20567879.155           0.000
  -3811582.2430   22112247.373           0.000
 -16356738.5500   23706559.538           0.000
  -6560337.4000   20744276.294           0.000
  -2406519.1060   23952435.103           0.000
  -3605443.3000   22368655.648           0.000
 05 10 24 18 23 30.0000000  0 10G15G30G 6G24G19G17G11G13G12G22
  -4962983.3440   22018640.664           0.000
  -3980652.6530   23925336.088           0.000
 -10258068.1780   22675427.720           0.000
  -1441831.9260   23171451.575           0.000
  -6475743.1340   20571616.592           0.000
  -3826738.3710   22117649.256           0.000
 -16429425.7850   23701013.314           0.000
  -6584422.1770   20747979.246           0.000
  -2463201.0340   23949935.878           0.000
  -3632246.5960   22371840.608           0.000
 05 10 24 18 23 40.0000000  0 10G15G30G 6G24G19G17G11G13G12G22
  -5004097.2180   22019100.858           0.000
  -3997901.8040   23930339.450           0.000
 -10322053.5920   22671537.061           0.000
  -1515202.0220   23165777.132           0.000
  -6499598.1840   20575361.318           0.000
  -3841865.5620   22123055.422           0.000
 -16502115.8200   23695464.077           0.000
  -6608456.2220   20751690.345           0.000
  -2519876.6080   23947438.076           0.000
  -3659049.5120   22375025.701           0.000
 05 10 24 18 23 50.0000000  0 10G15G30G 6G24G19G17G11G13G12G22
  -5045161.0060   22019574.290           0.000
  -4015127.0920   23935349.754           0.000
 -10386008.5290   22667654.632           0.000
  -1588567.3230   23160102.047           0.000
  -6523404.9380   20579118.423           0.000
  -3856963.1220   22128470.247           0.000
 -16574807.7390   23689918.776           0.000
  -6632438.8690   20755414.396           0.000
  -2576544.9680   23944941.635           0.000
  -3685851.2090   22378213.014           0.000
 05 10 24 18 24  0.0000000  0 10G15G30G 6G24G19G17G11G13G12G22
  -5086174.3620   22020055.504           0.000
  -4032328.1770   23940362.976           0.000
 -10449932.4120   22663776.408           0.000
  -1661927.2620   23154429.164           0.000
  -6547163.0430   20582882.882           0.000
  -3872030.6110   22133888.419           0.000
 -16647501.0340   23684372.530           0.000
  -6656369.6920   20759145.658           0.000
  -2633205.3900   23942446.681           0.000
  -3712651.2850   22381397.808           0.000
 05 10 24 18 24 10.0000000  0 10G15G30G 6G24G19G17G11G13G12G22
  -5127138.8070   22020547.866           0.000
  -4049506.5480   23945380.907           0.000
 -10513826.5890   22659905.182           0.000
  -1735283.2270   23148759.845           0.000
  -6570874.1150   20586658.488           0.000
  -3887069.6720   22139313.446           0.000
 -16720197.0030   23678825.697           0.000
  -6680250.3820   20762888.066           0.000
  -2689859.5850   23939952.858           0.000
  -3739451.3490   22384586.165           0.000
 05 10 24 18 24 20.0000000  0 10G15G30G 6G24G19G17G11G13G12G22
  -5168055.0340   22021051.797           0.000
  -4066662.9240   23950405.398           0.000
 -10577691.6830   22656041.662           0.000
  -1808636.0010   23143090.505           0.000
  -6594538.9450   20590444.232           0.000
  -3902081.1170   22144744.461           0.000
 -16792896.2870   23673278.843           0.000
  -6704081.5520   20766641.758           0.000
  -2746508.5360   23937461.732           0.000
  -3766251.9600   22387774.500           0.000
 05 10 24 18 24 30.0000000  0 10G15G30G 6G24G19G17G11G13G12G22
  -5208922.1080   22021564.901           0.000
  -4083796.4380   23955434.911           0.000
 -10641526.7330   22652184.881           0.000
  -1881984.4070   23137422.466           0.000
  -6618156.7100   20594239.435           0.000
  -3917064.0600   22150183.075           0.000
 -16865597.8480   23667732.576           0.000
  -6727862.3740   20770406.196           0.000
  -2803151.1910   23934972.337           0.000
  -3793052.2760   22390964.281           0.000
 05 10 24 18 24 40.0000000  0 10G15G30G 6G24G19G17G11G13G12G22
  -5249738.5050   22022085.411           0.000
  -4100905.6320   23960468.971           0.000
 -10705330.0160   22648331.357           0.000
  -1955326.9580   23131753.965           0.000
  -6641726.0050   20598042.331           0.000
  -3932017.0330   22155625.805           0.000
 -16938300.0700   23662187.277           0.000
  -6751591.5360   20774180.045           0.000
  -2859786.1180   23932483.911           0.000
  -3819850.7330   22394152.598           0.000
 05 10 24 18 24 50.0000000  0 10G15G30G 6G24G19G17G11G13G12G22
  -5290505.4200   22022615.768           0.000
  -4117991.4830   23965507.009           0.000
 -10769102.4740   22644484.103           0.000
  -2028664.5750   23126086.152           0.000
  -6665247.9930   20601855.216           0.000
  -3946941.2520   22161073.372           0.000
 -17011003.9280   23656640.376           0.000
  -6775270.1240   20777963.453           0.000
  -2916414.4300   23929998.605           0.000
  -3846648.3900   22397342.317           0.000
 05 10 24 18 25  0.0000000  0 10G15G30G 6G24G19G17G11G13G12G22
  -5331223.9310   22023159.418           0.000
  -4135055.2030   23970549.039           0.000
 -10832845.0310   22640645.276           0.000
  -2101998.1920   23120422.903           0.000
  -6688723.8100   20605678.819           0.000
  -3961837.8700   22166529.939           0.000
 -17083710.2990   23651096.181           0.000
  -6798899.2500   20781758.294           0.000
  -2973037.0540   23927513.715           0.000
  -3873446.3500   22400533.740           0.000
 05 10 24 18 25 10.0000000  0 10G15G30G 6G24G19G17G11G13G12G22
  -5371893.4860   22023712.667           0.000
  -4152096.1070   23975597.664           0.000
 -10896556.9750   22636813.473           0.000
  -2175327.0450   23114759.238           0.000
  -6712152.9280   20609513.023           0.000
  -3976706.3360   22171992.386           0.000
 -17156418.4600   23645552.998           0.000
  -6822478.3050   20785562.735           0.000
  -3029653.4780   23925030.410           0.000
  -3900244.0110   22403726.606           0.000
 05 10 24 18 25 20.0000000  0 10G15G30G 6G24G19G17G11G13G12G22
  -5412513.1120   22024272.889           0.000
  -4169113.2620   23980649.113           0.000
 -10960237.2070   22632986.211           0.000
  -2248650.2580   23109094.961           0.000
  -6735534.3810   20613353.628           0.000
  -3991545.6500   22177458.229           0.000
 -17229127.3320   23640007.202           0.000
  -6846006.5240   20789375.294           0.000
  -3086262.8480   23922549.929           0.000
  -3927040.3840   22406918.003           0.000
 05 10 24 18 25 30.0000000  0 10G15G30G 6G24G19G17G11G13G12G22
  -5453083.4630   22024843.445           0.000
  -4186107.2310   23985705.172           0.000
 -11023886.2220   22629164.275           0.000
  -2321968.1610   23103432.863           0.000
  -6758868.8310   20617202.992           0.000
  -4006356.7040   22182929.684           0.000
 -17301837.4140   23634459.577           0.000
  -6869484.5500   20793197.614           0.000
  -3142865.5070   23920070.481           0.000
  -3953836.0250   22410110.718           0.000
 05 10 24 18 25 40.0000000  0 10G15G30G 6G24G19G17G11G13G12G22
  -5493605.0990   22025424.085           0.000
  -4203078.6810   23990766.734           0.000
 -11087504.4300   22625348.701           0.000
  -2395281.2990   23097772.262           0.000
  -6782157.0370   20621062.154           0.000
  -4021140.2150   22188406.642           0.000
 -17374549.1120   23628913.450           0.000
  -6892913.0710   20797029.731           0.000
  -3199462.2660   23917592.530           0.000
  -3980631.4890   22413302.356           0.000
 05 10 24 18 25 50.0000000  0 10G15G30G 6G24G19G17G11G13G12G22
  -5534077.4610   22026013.239           0.000
  -4220026.9840   23995832.234           0.000
 -11151091.1180   22621538.924           0.000
  -2468588.9880   23092112.449           0.000
  -6805398.5040   20624929.974           0.000
  -4035895.5270   22193888.253           0.000
 -17447261.7190   23623367.967           0.000
  -6916291.4980   20800870.793           0.000
  -3256052.4550   23915115.511           0.000
  -4007426.1670   22416494.496           0.000
 05 10 24 18 26  0.0000000  0 10G15G30G 6G24G19G17G11G13G12G22
  -5574500.5890   22026612.938           0.000
  -4236952.1520   24000902.124           0.000
 -11214646.1740   22617736.685           0.000
  -2541891.1390   23086456.455           0.000
  -6828593.3070   20628807.765           0.000
  -4050622.7860   22199378.690           0.000
 -17519975.1400   23617823.299           0.000
  -6939619.9600   20804723.829           0.000
  -3312635.9960   23912641.166           0.000
  -4034220.1070   22419687.449           0.000
 05 10 24 18 26 10.0000000  0 10G15G30G 6G24G19G17G11G13G12G22
  -5614874.1170   22027223.158           0.000
  -4253853.8650   24005978.100           0.000
 -11278169.0180   22613942.394           0.000
  -2615187.2890   23080801.682           0.000
  -6851741.0550   20632696.365           0.000
  -4065321.5430   22204875.357           0.000
 -17592688.8300   23612280.567           0.000
  -6962898.0790   20808587.960           0.000
  -3369212.5920   23910166.611           0.000
  -4061012.8340   22422883.770           0.000
 05 10 24 18 26 20.0000000  0 10G15G30G 6G24G19G17G11G13G12G22
  -5655197.9180   22027841.499           0.000
  -4270731.8760   24011059.048           0.000
 -11341659.3530   22610152.215           0.000
  -2688476.9980   23075147.445           0.000
  -6874841.7140   20636592.941           0.000
  -4079991.8490   22210377.424           0.000
 -17665402.4460   23606736.224           0.000
  -6986125.7680   20812461.498           0.000
  -3425782.2240   23907694.309           0.000
  -4087804.1760   22426077.622           0.000
 05 10 24 18 26 30.0000000  0 10G15G30G 6G24G19G17G11G13G12G22
  -5695473.3210   22028470.227           0.000
  -4287587.5940   24016145.233           0.000
 -11405118.4710   22606369.133           0.000
  -2761761.6350   23069496.155           0.000
  -6897896.5160   20640497.759           0.000
  -4094635.0850   22215883.727           0.000
 -17738117.2680   23601191.538           0.000
  -7009304.5080   20816343.135           0.000
  -3482346.2040   23905221.806           0.000
  -4114595.4870   22429272.418           0.000
 05 10 24 18 26 40.0000000  0 10G15G30G 6G24G19G17G11G13G12G22
  -5735700.0100   22029109.178           0.000
  -4304420.6240   24021235.631           0.000
 -11468545.8110   22602593.984           0.000
  -2835040.7450   23063848.219           0.000
  -6920905.2920   20644414.373           0.000
  -4109250.9280   22221397.390           0.000
 -17810832.7970   23595649.204           0.000
  -7032433.9770   20820235.710           0.000
  -3538904.1740   23902752.943           0.000
  -4141386.4180   22432466.275           0.000
 05 10 24 18 26 50.0000000  0 10G15G30G 6G24G19G17G11G13G12G22
  -5775877.6660   22029757.500           0.000
  -4321230.7330   24026329.246           0.000
 -11531940.9150   22598823.914           0.000
  -2908313.8630   23058199.494           0.000
  -6943867.8890   20648338.641           0.000
  -4123839.0850   22226914.701           0.000
 -17883548.5330   23590105.795           0.000
  -7055513.9080   20824136.941           0.000
  -3595455.9710   23900285.009           0.000
  -4168176.5530   22435662.920           0.000
 05 10 24 18 27  0.0000000  0 10G15G30G 6G24G19G17G11G13G12G22
  -5816005.1650   22030417.181           0.000
  -4338016.7390   24031429.356           0.000
 -11595302.5670   22595061.482           0.000
  -2981579.7940   23052552.972           0.000
  -6966783.3000   20652272.982           0.000
  -4138398.7020   22232439.222           0.000
 -17956263.2490   23584563.014           0.000
  -7078543.3280   20828049.817           0.000
  -3652000.3160   23897819.277           0.000
  -4194964.8340   22438860.194           0.000
 05 10 24 18 27 10.0000000  0 10G15G30G 6G24G19G17G11G13G12G22
  -5856082.2880   22031086.693           0.000
  -4354778.4620   24036535.003           0.000
 -11658630.3620   22591306.592           0.000
  -3054838.1120   23046906.835           0.000
  -6989651.3270   20656217.295           0.000
  -4152929.5490   22237970.567           0.000
 -18028976.5650   23579020.762           0.000
  -7101521.9150   20831973.525           0.000
  -3708536.9520   23895355.648           0.000
  -4221750.9720   22442060.000           0.000
 05 10 24 18 27 20.0000000  0 10G15G30G 6G24G19G17G11G13G12G22
  -5896108.6390   22031762.237           0.000
  -4371515.3450   24041643.964           0.000
 -11721923.6480   22587555.873           0.000
  -3128088.2720   23041260.721           0.000
  -7012471.5070   20660168.499           0.000
  -4167431.0840   22243505.513           0.000
 -18101687.7960   23573476.959           0.000
  -7124449.2970   20835904.839           0.000
  -3765065.3390   23892893.758           0.000
  -4248534.4000   22445255.965           0.000
 05 10 24 18 27 30.0000000  0 10G15G30G 6G24G19G17G11G13G12G22
  -5936084.8960   22032448.936           0.000
  -4388228.1630   24046755.925           0.000
 -11785183.0920   22583813.592           0.000
  -3201330.8500   23035616.176           0.000
  -7035244.7570   20664129.571           0.000
  -4181904.1090   22249046.892           0.000
 -18174397.6270   23567936.584           0.000
  -7147326.3400   20839846.451           0.000
  -3821586.3550   23890433.581           0.000
  -4275315.8770   22448454.500           0.000
 05 10 24 18 27 40.0000000  0 10G15G30G 6G24G19G17G11G13G12G22
  -5976011.7130   22033144.859           0.000
  -4404917.6970   24051871.956           0.000
 -11848409.2390   22580075.525           0.000
  -3274566.5130   23029972.983           0.000
  -7057971.7200   20668098.006           0.000
  -4196349.5430   22254592.486           0.000
 -18247106.5980   23562394.128           0.000
  -7170153.7170   20843795.855           0.000
  -3878100.7020   23887974.469           0.000
  -4302096.1670   22451651.383           0.000
 05 10 24 18 27 50.0000000  0 10G15G30G 6G24G19G17G11G13G12G22
  -6015888.9520   22033852.530           0.000
  -4421583.5190   24056997.305           0.000
 -11911601.5940   22576346.918           0.000
  -3347794.7550   23024333.240           0.000
  -7080652.1100   20672078.762           0.000
  -4210766.9320   22260144.964           0.000
 -18319814.2870   23556854.120           0.000
  -7192931.1620   20847757.723           0.000
  -3934607.8580   23885515.660           0.000
  -4328874.8680   22454850.572           0.000
 05 10 24 18 28  0.0000000  0 10G15G30G 6G24G19G17G11G13G12G22
  -6055716.1500   22034569.702           0.000
  -4438225.2210   24062128.004           0.000
 -11974759.5590   22572624.376           0.000
  -3421015.1030   23018696.415           0.000
  -7103285.5710   20676067.730           0.000
  -4225156.2220   22265702.506           0.000
 -18392520.1360   23551314.740           0.000
  -7215658.3500   20851729.234           0.000
         0.0000   23883055.189           0.000
  -4355651.5120   22458053.250           0.000
 05 10 24 18 28 10.0000000  0 10G15G30G 6G24G19G17G11G13G12G22
  -6095491.9900   22035298.303           0.000
  -4454841.3990   24067264.838           0.000
 -12037881.6880   22568910.689           0.000
  -3494226.0630   23013062.720           0.000
  -7125870.8270   20680067.556           0.000
  -4239515.8760   22271267.185           0.000
 -18465222.5370   23545776.774           0.000
  -7238334.0750   20855711.889           0.000
         0.0000   23880593.556           0.000
  -4382424.6800   22461255.195           0.000
 05 10 24 18 28 20.0000000  0 10G15G30G 6G24G19G17G11G13G12G22
  -6135217.4090   22036031.962           0.000
  -4471433.0880   24072399.718           0.000
 -12100968.8060   22565198.624           0.000
  -3567428.4620   23007428.502           0.000
  -7148408.8800   20684071.294           0.000
  -4253847.1180   22276832.485           0.000
 -18537922.4290   23540234.421           0.000
  -7260959.2760   20859698.742           0.000
         0.0000   23878136.551           0.000
  -4409195.2780   22464453.612           0.000
 05 10 24 18 28 30.0000000  0 10G15G30G 6G24G19G17G11G13G12G22
  -6174891.5950   22036781.383           0.000
  -4487999.5360   24077546.068           0.000
 -12164019.9350   22561499.031           0.000
  -3640621.3630   23001800.173           0.000
  -7170899.0520   20688090.652           0.000
  -4268149.1020   22282409.828           0.000
 -18610618.7800   23534699.531           0.000
  -7283533.2310   20863702.932           0.000
         0.0000   23875688.869           0.000
  -4435962.5720   22467658.347           0.000
 05 10 24 18 28 40.0000000  0 10G15G30G 6G24G19G17G11G13G12G22
  -6214514.2130   22037534.423           0.000
  -4504540.3040   24082691.744           0.000
 -12227034.6070   22557800.625           0.000
  -3713804.4150   22996166.592           0.000
  -7193341.1270   20692113.486           0.000
  -4282421.5960   22287986.497           0.000
 -18683311.1200   23529159.246           0.000
  -7306055.6640   20867709.740           0.000
         0.0000   23873238.654           0.000
  -4462726.1170   22470859.691           0.000
 05 10 24 18 28 50.0000000  0 10G15G30G 6G24G19G17G11G13G12G22
  -6254086.1640   22038294.924           0.000
  -4521056.3910   24087843.306           0.000
 -12290013.6240   22554107.246           0.000
  -3786978.3050   22990531.742           0.000
  -7215736.0270   20696143.064           0.000
  -4296665.6260   22293566.906           0.000
 -18756000.2320   23523617.406           0.000
  -7328527.5290   20871724.007           0.000
  -4307526.0750   23870790.175           0.000
  -4489486.9140   22474056.760           0.000
 05 10 24 18 29  0.0000000  0 10G15G30G 6G24G19G17G11G13G12G22
  -6293610.3820   22039064.083           0.000
  -4537550.6560   24092994.083           0.000
 -12352959.6190   22550420.809           0.000
  -3860145.7970   22984898.396           0.000
  -7238086.6100   20700181.445           0.000
  -4310884.0970   22299153.255           0.000
 -18828688.7970   23518077.356           0.000
  -7350951.7750   20875747.363           0.000
  -4363978.3230   23868343.629           0.000
  -4516247.6930   22477255.906           0.000
 05 10 24 18 29 10.0000000  0 10G15G30G 6G24G19G17G11G13G12G22
  -6333086.5850   22039844.039           0.000
  -4554022.6580   24098152.365           0.000
 -12415872.1700   22546741.019           0.000
  -3933306.4420   22979267.976           0.000
  -7260392.6570   20704228.332           0.000
  -4325076.6470   22304744.962           0.000
 -18901376.3960   23512538.801           0.000
  -7373328.1130   20879780.227           0.000
  -4420424.9800   23865896.146           0.000
  -4543008.1520   22480455.690           0.000
 05 10 24 18 29 20.0000000  0 10G15G30G 6G24G19G17G11G13G12G22
  -6372514.6020   22040636.998           0.000
  -4570472.3430   24103318.214           0.000
 -12478751.0280   22543071.943           0.000
  -4006460.0130   22973644.408           0.000
  -7282654.1760   20708288.510           0.000
  -4339243.0940   22310345.381           0.000
 -18974062.7790   23507002.805           0.000
  -7395656.4480   20883828.099           0.000
  -4476866.0600   23863450.793           0.000
  -4569768.0120   22483658.460           0.000
 05 10 24 18 29 30.0000000  0 10G15G30G 6G24G19G17G11G13G12G22
  -6411893.3170   22041438.919           0.000
  -4586898.8000   24108487.586           0.000
 -12541595.0860   22539407.535           0.000
  -4079605.4660   22968022.217           0.000
  -7304870.1860   20712356.360           0.000
  -4353382.7490   22315950.897           0.000
 -19046746.7700   23501465.897           0.000
  -7417935.9610   20887884.359           0.000
  -4533300.4420   23861006.387           0.000
  -4596526.4550   22486862.894           0.000
 05 10 24 18 29 40.0000000  0 10G15G30G 6G24G19G17G11G13G12G22
  -6451222.9940   22042249.478           0.000
  -4603301.8730   24113664.167           0.000
 -12604404.1100   22535749.907           0.000
  -4152742.6070   22962400.651           0.000
  -7327040.7440   20716432.421           0.000
  -4367495.4230   22321561.047           0.000
 -19119428.1900   23495930.044           0.000
  -7440166.5970   20891949.974           0.000
  -4589728.2580   23858561.748           0.000
  -4623283.3190   22490066.094           0.000
 05 10 24 18 29 50.0000000  0 10G15G30G 6G24G19G17G11G13G12G22
  -6490503.3920   22043070.477           0.000
  -4619681.4120   24118843.745           0.000
 -12667177.7080   22532099.712           0.000
  -4225871.0750   22956779.079           0.000
  -7349165.6600   20720517.632           0.000
  -4381581.2220   22327176.340           0.000
 -19192106.6780   23490395.614           0.000
  -7462348.2180   20896024.739           0.000
  -4646149.1860   23856120.680           0.000
  -4650038.3830   22493270.002           0.000
 05 10 24 18 30  0.0000000  0 10G15G30G 6G24G19G17G11G13G12G22
  -6529735.7230   22043898.047           0.000
  -4636038.5930   24124024.601           0.000
 -12729917.0320   22528453.800           0.000
  -4298991.9710   22951155.350           0.000
  -7371246.2560   20724609.129           0.000
  -4395641.4580   22332793.483           0.000
 -19264783.3140   23484858.456           0.000
  -7484482.0820   20900104.932           0.000
         0.0000   23853682.464           0.000
  -4676792.8210   22496471.897           0.000
 05 10 24 18 30 10.0000000  0 10G15G30G 6G24G19G17G11G13G12G22
  -6568920.1100   22044734.233           0.000
  -4652373.5500   24129209.493           0.000
 -12792622.0380   22524814.213           0.000
  -4372105.2330   22945534.227           0.000
  -7393282.6780   20728708.097           0.000
  -4409676.2210   22338415.807           0.000
 -19337458.0930   23479321.328           0.000
  -7506568.3610   20904195.171           0.000
  -4758974.0520   23851245.422           0.000
  -4703546.6530   22499674.250           0.000
 05 10 24 18 30 20.0000000  0 10G15G30G 6G24G19G17G11G13G12G22
  -6608056.5270   22045582.203           0.000
  -4668686.3450   24134400.446           0.000
 -12855292.5940   22521182.547           0.000
  -4445210.8900   22939916.445           0.000
  -7415275.0940   20732818.133           0.000
  -4423685.6660   22344043.763           0.000
 -19410130.8680   23473787.684           0.000
  -7528607.2180   20908296.050           0.000
  -4815377.9660   23848809.289           0.000
  -4730300.0620   22502878.229           0.000
 05 10 24 18 30 30.0000000  0 10G15G30G 6G24G19G17G11G13G12G22
  -6647144.2250   22046439.925           0.000
  -4684976.1500   24139596.572           0.000
 -12917927.7850   22517560.205           0.000
  -4518307.9840   22934301.548           0.000
  -7437222.7230   20736938.208           0.000
  -4437669.0020   22349678.752           0.000
 -19482800.7050   23468255.493           0.000
  -7550597.8590   20912407.969           0.000
  -4871775.7470   23846375.039           0.000
  -4757052.0670   22506083.374           0.000
 05 10 24 18 30 40.0000000  0 10G15G30G 6G24G19G17G11G13G12G22
  -6686183.1810   22047308.364           0.000
  -4701242.8750   24144799.552           0.000
 -12980527.3440   22513945.002           0.000
  -4591396.2900   22928689.210           0.000
  -7459125.5840   20741067.569           0.000
  -4451626.1740   22355319.593           0.000
 -19555467.4430   23462725.148           0.000
  -7572540.3290   20916529.602           0.000
  -4928167.0810   23843940.057           0.000
  -4783802.6470   22509290.078           0.000
 05 10 24 18 30 50.0000000  0 10G15G30G 6G24G19G17G11G13G12G22
  -6725173.4730   22048185.238           0.000
  -4717486.6150   24150005.958           0.000
 -13043091.2060   22510334.942           0.000
  -4664475.7460   22923079.728           0.000
  -7480983.7370   20745203.791           0.000
  -4465557.3630   22360962.859           0.000
 -19628130.9020   23457192.935           0.000
  -7594434.7160   20920658.813           0.000
  -4984552.1640   23841506.500           0.000
  -4810551.7800   22512495.344           0.000
 05 10 24 18 31  0.0000000  0 10G15G30G 6G24G19G17G11G13G12G22
  -6764114.6790   22049071.147           0.000
  -4733707.0890   24155216.391           0.000
 -13105619.0240   22506732.486           0.000
  -4737546.0880   22917471.981           0.000
  -7502797.0350   20749349.190           0.000
  -4479462.1560   22366613.585           0.000
 -19700790.7650   23451662.601           0.000
  -7616280.8170   20924798.202           0.000
  -5040930.7090   23839074.250           0.000
  -4837299.1810   22515702.776           0.000
 05 10 24 18 31 10.0000000  0 10G15G30G 6G24G19G17G11G13G12G22
  -6803006.1700   22049976.781           0.000
  -4749903.4240   24160438.393           0.000
 -13168109.7200   22503146.894           0.000
  -4810606.1850   22911875.948           0.000
  -7524564.6600   20753511.310           0.000
  -4493339.7230   22372277.884           0.000
 -19773445.9350   23446142.979           0.000
  -7638077.8210   20928955.743           0.000
         0.0000   23836649.133           0.000
  -4864043.8860   22518917.198           0.000
 05 10 24 18 31 20.0000000  0 10G15G30G 6G24G19G17G11G13G12G22
  -6841847.6150   22050882.167           0.000
  -4766075.4650   24165656.140           0.000
 -13230562.9700   22499558.192           0.000
  -4883655.7420   22906272.083           0.000
  -7546286.5330   20757672.896           0.000
  -4507190.2860   22377936.069           0.000
 -19846096.1100   23440613.521           0.000
  -7659825.6040   20933111.606           0.000
         0.0000   23834213.752           0.000
  -4890785.7870   22522123.502           0.000
 05 10 24 18 31 30.0000000  0  9G15G30G 6G24G19G17G11G13G22
  -6880640.7250   22051800.075           0.000
  -4782224.7310   24170878.397           0.000
 -13292980.2130   22495979.723           0.000
  -4956696.2870   22900672.583           0.000
  -7567964.2940   20761847.291           0.000
  -4521015.4280   22383604.486           0.000
 -19918742.7070   23435086.999           0.000
  -7681525.7600   20937281.850           0.000
  -4917526.4210   22525335.461           0.000
 05 10 24 18 31 40.0000000  0  9G15G30G 6G24G19G17G11G13G22
  -6919385.2020   22052725.104           0.000
  -4798350.9220   24176107.773           0.000
 -13355360.9460   22492406.943           0.000
  -5029727.3270   22895072.906           0.000
  -7589597.6430   20766029.377           0.000
  -4534814.6770   22389276.732           0.000
 -19991385.2120   23429561.157           0.000
  -7703177.9630   20941459.787           0.000
  -4944265.3100   22528546.811           0.000
 05 10 24 18 31 50.0000000  0  9G15G30G 6G24G19G17G11G13G22
  -6958080.2720   22053657.705           0.000
  -4814453.3790   24181340.573           0.000
 -13417704.3710   22488838.732           0.000
  -5102748.0030   22889473.075           0.000
  -7611185.9720   20770217.177           0.000
  -4548587.7310   22394951.686           0.000
 -20064022.8640   23424035.877           0.000
  -7724781.7130   20945644.439           0.000
  -4971001.8540   22531755.290           0.000
 05 10 24 18 32  0.0000000  0  9G15G30G 6G24G19G17G11G13G22
  -6996726.3540   22054599.500           0.000
         0.0000   24186578.559           0.000
 -13480010.7650   22485280.571           0.000
  -5175758.7050   22883877.286           0.000
  -7632729.8200   20774414.742           0.000
  -4562334.9270   22400633.543           0.000
 -20136655.8950   23418511.634           0.000
  -7746337.5390   20949840.001           0.000
  -4997736.3780   22534965.378           0.000
 05 10 24 18 32 10.0000000  0  9G15G30G 6G24G19G17G11G13G22
  -7035324.2820   22055553.008           0.000
  -4846588.8130   24191818.673           0.000
 -13542280.7020   22481730.405           0.000
  -5248759.9760   22878284.053           0.000
  -7654229.8530   20778622.018           0.000
  -4576057.0220   22406322.965           0.000
 -20209284.9010   23412989.231           0.000
  -7767846.1830   20954045.416           0.000
  -5024469.5510   22538177.592           0.000
 05 10 24 18 32 20.0000000  0  9G15G30G 6G24G19G17G11G13G22
  -7073873.3940   22056515.038           0.000
  -4862621.9870   24197064.302           0.000
 -13604513.3420   22478185.468           0.000
  -5321751.0470   22872691.185           0.000
  -7675685.5170   20782835.382           0.000
  -4589753.3910   22412014.612           0.000
 -20281909.0510   23407466.621           0.000
  -7789307.0380   20958258.924           0.000
  -5051200.4950   22541387.596           0.000
 05 10 24 18 32 30.0000000  0  9G15G30G 6G24G19G17G11G13G22
  -7112373.1960   22057486.213           0.000
  -4878631.2390   24202317.217           0.000
 -13666708.0910   22474646.529           0.000
  -5394731.2820   22867099.592           0.000
  -7697096.3970   20787058.751           0.000
  -4603423.4200   22417709.967           0.000
 -20354527.6940   23401945.001           0.000
  -7810719.6060   20962481.291           0.000
  -5077929.0080   22544597.874           0.000
 05 10 24 18 32 40.0000000  0  9G15G30G 6G24G19G17G11G13G22
  -7150824.0470   22058466.931           0.000
  -4894617.1390   24207573.378           0.000
 -13728865.0880   22471114.843           0.000
  -5467700.8880   22861509.814           0.000
  -7718462.8090   20791290.230           0.000
  -4617067.6920   22423410.571           0.000
 -20427141.0120   23396424.050           0.000
  -7832084.3140   20966713.486           0.000
  -5104655.3470   22547807.677           0.000
 05 10 24 18 32 50.0000000  0  9G15G30G 6G24G19G17G11G13G22
  -7189226.1380   22059457.566           0.000
  -4910579.8550   24212832.875           0.000
 -13790984.4330   22467590.642           0.000
  -5540659.9550   22855924.947           0.000
  -7739785.1460   20795530.483           0.000
  -4630686.4460   22429117.660           0.000
 -20499749.0990   23390904.576           0.000
  -7853401.4860   20970954.741           0.000
  -5131379.6900   22551018.670           0.000
 05 10 24 18 33  0.0000000  0  9G15G30G 6G24G19G17G11G13G22
  -7227578.7880   22060456.097           0.000
  -4926518.4740   24218095.544           0.000
 -13853065.2760   22464072.619           0.000
  -5613607.6570   22850340.963           0.000
  -7761062.7420   20799778.059           0.000
  -4644279.1350   22434827.349           0.000
 -20572351.0910   23385385.698           0.000
  -7874670.3770   20975203.747           0.000
  -5158101.2820   22554231.548           0.000
 05 10 24 18 33 10.0000000  0  9G15G30G 6G24G19G17G11G13G22
  -7265882.6830   22061464.237           0.000
  -4942433.8970   24223363.817           0.000
 -13915108.1370   22460563.633           0.000
  -5686544.5780   22844759.148           0.000
  -7782296.3440   20804034.958           0.000
  -4657846.3890   22440542.927           0.000
 -20644947.4830   23379867.845           0.000
  -7895891.7750   20979462.363           0.000
  -5184820.7120   22557444.735           0.000
 05 10 24 18 33 20.0000000  0  9G15G30G 6G24G19G17G11G13G22
  -7304136.8400   22062482.031           0.000
  -4958324.8930   24228637.165           0.000
 -13977111.7980   22457064.015           0.000
  -5759469.4620   22839180.261           0.000
  -7803484.8950   20808300.509           0.000
  -4671387.2880   22446264.295           0.000
 -20717537.0430   23374351.776           0.000
  -7917064.6790   20983730.919           0.000
  -5211536.8300   22560658.989           0.000
 05 10 24 18 33 30.0000000  0  9G15G30G 6G24G19G17G11G13G22
  -7342342.0460   22063507.895           0.000
  -4974192.4740   24233916.150           0.000
 -14039077.0320   22453570.464           0.000
  -5832383.1740   22833603.148           0.000
  -7824629.4110   20812574.560           0.000
  -4684902.7930   22451988.869           0.000
 -20790120.5370   23368836.193           0.000
  -7938190.0790   20988008.261           0.000
  -5238250.4800   22563873.731           0.000
 05 10 24 18 33 40.0000000  0  9G15G30G 6G24G19G17G11G13G22
  -7380498.5310   22064545.510           0.000
  -4990036.7460   24239199.732           0.000
 -14101003.8350   22450085.230           0.000
  -5905285.6470   22828028.343           0.000
  -7845730.1410   20816858.073           0.000
  -4698392.9060   22457719.327           0.000
 -20862697.9790   23363323.919           0.000
  -7959268.2300   20992296.210           0.000
  -5264961.8510   22567088.776           0.000
 05 10 24 18 33 50.0000000  0  9G15G30G 6G24G19G17G11G13G22
  -7418605.9820   22065584.448           0.000
  -5005857.2910   24244480.344           0.000
 -14162891.6400   22446599.459           0.000
  -5978176.4370   22822447.992           0.000
  -7866786.6880   20821142.049           0.000
  -4711857.5910   22463447.960           0.000
 -20935268.8300   23357804.525           0.000
  -7980298.6910   20996584.908           0.000
  -5291670.3780   22570297.417           0.000
 05 10 24 18 34  0.0000000  0 10G15G30G 6G24G19G17G11G13G12G22
  -7456665.6260   22066644.470           0.000
  -5021655.4650   24249777.890           0.000
 -14224741.6170   22443133.196           0.000
  -6051056.6500   22816882.428           0.000
  -7887800.3780   20825446.823           0.000
  -4725298.1840   22469193.813           0.000
 -21007834.2350   23352299.059           0.000
  -8001282.8620   21000894.404           0.000
         0.0000   23795540.597           0.000
  -5318377.5270   22573518.413           0.000
 05 10 24 18 34 10.0000000  0 10G15G30G 6G24G19G17G11G13G12G22
  -7494675.9260   22067708.882           0.000
  -5037429.5350   24255074.818           0.000
 -14286551.9920   22439669.178           0.000
  -6123924.5830   22811313.528           0.000
  -7908769.6610   20829755.558           0.000
  -4738713.0250   22474938.475           0.000
 -21080392.3930   23346790.973           0.000
  -8022219.0880   21005208.577           0.000
         0.0000   23793135.459           0.000
  -5345081.5430   22576734.641           0.000
 05 10 24 18 34 20.0000000  0  9G15G30G 6G24G19G17G11G13G22
  -7532636.5540   22068782.663           0.000
  -5053179.3400   24260374.389           0.000
 -14348322.3500   22436211.381           0.000
  -6196779.7590   22805745.840           0.000
  -7929694.3340   20834071.087           0.000
  -4752101.8640   22480687.785           0.000
 -21152942.9100   23341282.812           0.000
  -8043107.2490   21009530.115           0.000
  -5371782.0650   22579949.506           0.000
 05 10 24 18 34 30.0000000  0  9G15G30G 6G24G19G17G11G13G22
  -7570548.7630   22069864.607           0.000
  -5068905.9420   24265677.402           0.000
 -14410053.7300   22432761.032           0.000
  -6269623.2750   22800181.737           0.000
  -7950575.6820   20838394.492           0.000
  -4765465.9210   22486442.396           0.000
 -21225486.7740   23335775.516           0.000
  -8063948.6140   21013861.391           0.000
  -5398480.3750   22583166.096           0.000
 05 10 24 18 34 40.0000000  0  9G15G30G 6G24G19G17G11G13G22
  -7608412.5160   22070956.093           0.000
  -5084609.4110   24270986.666           0.000
 -14471745.9850   22429317.362           0.000
  -6342455.0640   22794618.876           0.000
  -7971413.8240   20842725.150           0.000
  -4778805.1230   22492199.966           0.000
 -21298023.8830   23330267.603           0.000
  -8084743.2240   21018201.636           0.000
  -5425176.3200   22586382.354           0.000
 05 10 24 18 34 50.0000000  0  9G15G30G 6G24G19G17G11G13G22
  -7646227.9930   22072058.306           0.000
  -5100289.9040   24276299.072           0.000
 -14533399.0650   22425882.703           0.000
  -6415275.0340   22789058.729           0.000
  -7992208.8120   20847065.390           0.000
  -4792119.7600   22497963.827           0.000
 -21370554.1560   23324763.118           0.000
  -8105491.1800   21022552.178           0.000
  -5451870.0270   22589600.466           0.000
 05 10 24 18 35  0.0000000  0  9G15G30G 6G24G19G17G11G13G22
  -7683994.3430   22073168.736           0.000
  -5115946.5270   24281617.263           0.000
 -14595012.0200   22422455.974           0.000
  -6488082.3080   22783501.362           0.000
  -8012959.9830   20851413.704           0.000
  -4805409.3120   22503732.329           0.000
 -21443076.6650   23319258.409           0.000
  -8126191.8410   21026910.795           0.000
  -5478560.6870   22592819.213           0.000
 05 10 24 18 35 10.0000000  0  9G15G30G 6G24G19G17G11G13G22
  -7721712.2000   22074288.765           0.000
  -5131579.8870   24286939.616           0.000
 -14656585.2560   22419035.840           0.000
  -6560877.2450   22777946.296           0.000
  -8033667.8370   20855769.757           0.000
  -4818674.0580   22509504.276           0.000
 -21515591.7590   23313755.142           0.000
  -8146845.7670   21031277.294           0.000
  -5505248.7570   22596036.254           0.000
 05 10 24 18 35 20.0000000  0  9G15G30G 6G24G19G17G11G13G22
  -7759381.7750   22075415.010           0.000
  -5147190.1770   24292264.035           0.000
 -14718118.8470   22415620.347           0.000
  -6633659.9900   22772391.436           0.000
  -8054332.7330   20860132.884           0.000
  -4831914.4850   22515280.150           0.000
 -21588099.5470   23308252.654           0.000
  -8167453.0600   21035649.436           0.000
  -5531934.4180   22599254.933           0.000
 05 10 24 18 35 30.0000000  0  9G15G30G 6G24G19G17G11G13G22
  -7797002.9270   22076550.347           0.000
  -5162777.2130   24297593.396           0.000
 -14779612.5590   22412212.086           0.000
  -6706430.2830   22766839.086           0.000
  -8074954.6570   20864503.530           0.000
  -4845130.5320   22521059.965           0.000
 -21660599.7570   23302751.101           0.000
  -8188014.0150   21040030.097           0.000
  -5558617.5510   22602472.400           0.000
 05 10 24 18 35 40.0000000  0  9G15G30G 6G24G19G17G11G13G22
  -7834575.4840   22077694.110           0.000
  -5178340.7490   24302927.749           0.000
 -14841065.9580   22408812.395           0.000
  -6779187.6880   22761289.724           0.000
  -8095533.4240   20868882.315           0.000
  -4858321.8030   22526844.199           0.000
 -21733091.9200   23297252.251           0.000
  -8208528.2740   21044421.475           0.000
  -5585297.7340   22605689.708           0.000
 05 10 24 18 35 50.0000000  0  9G15G30G 6G24G19G17G11G13G22
  -7872097.9940   22078850.595           0.000
  -5193879.5160   24308266.381           0.000
 -14902477.5600   22405422.992           0.000
  -6851930.8200   22755744.499           0.000
  -8116067.7040   20873270.674           0.000
  -4871487.0450   22532635.574           0.000
 -21805574.6210   23291755.105           0.000
  -8228994.5720   21048824.858           0.000
  -5611973.6250   22608910.437           0.000
 05 10 24 18 36  0.0000000  0  9G15G30G 6G24G19G17G11G13G22
  -7909571.7540   22080015.523           0.000
  -5209394.6140   24313609.880           0.000
 -14963848.3890   22402040.030           0.000
  -6924660.6640   22750200.420           0.000
  -8136558.7730   20877666.475           0.000
  -4884627.8300   22538429.956           0.000
 -21878048.8280   23286258.532           0.000
  -8249414.1490   21053235.112           0.000
  -5638646.4250   22612128.592           0.000
 05 10 24 18 36 10.0000000  0  9G15G30G 6G24G19G17G11G13G22
  -7946996.9460   22081190.716           0.000
  -5224886.2640   24318957.062           0.000
 -15025178.4420   22398666.045           0.000
  -6997377.2090   22744659.164           0.000
  -8157006.7180   20882071.682           0.000
  -4897743.9280   22544229.451           0.000
 -21950514.5160   23280765.928           0.000
  -8269787.1260   21057654.914           0.000
  -5665316.2390   22615350.285           0.000
 05 10 24 18 36 20.0000000  0  9G15G30G 6G24G19G17G11G13G22
  -7984373.4090   22082373.533           0.000
  -5240354.2130   24324309.863           0.000
 -15086467.4000   22395298.968           0.000
  -7070080.2420   22739119.523           0.000
  -8177411.4470   20886485.372           0.000
  -4910835.5660   22550033.421           0.000
 -22022971.3890   23275274.222           0.000
  -8290113.4880   21062082.484           0.000
  -5691982.9370   22618571.304           0.000
 05 10 24 18 36 30.0000000  0  9G15G30G 6G24G19G17G11G13G22
  -8021700.2380   22083566.069           0.000
  -5255797.6160   24329665.658           0.000
 -15147714.2420   22391939.463           0.000
  -7142768.6920   22733582.302           0.000
  -8197772.1940   20890905.345           0.000
  -4923901.9410   22555842.531           0.000
 -22095418.4210   23269783.220           0.000
  -8310392.3430   21066518.627           0.000
  -5718645.5200   22621792.453           0.000
 05 10 24 18 36 40.0000000  0  9G15G30G 6G24G19G17G11G13G22
  -8058977.6400   22084765.673           0.000
  -5271216.6540   24335025.230           0.000
 -15208918.9310   22388586.311           0.000
  -7215442.5710   22728045.710           0.000
  -8218089.3210   20895331.243           0.000
  -4936943.0870   22561654.417           0.000
 -22167855.5810   23264291.273           0.000
  -8330623.8730   21070961.123           0.000
  -5745304.0450   22625014.089           0.000
 05 10 24 18 36 50.0000000  0  9G15G30G 6G24G19G17G11G13G22
  -8096205.7950   22085974.726           0.000
  -5286611.3830   24340390.532           0.000
 -15270081.5420   22385240.320           0.000
  -7288101.9650   22722510.842           0.000
  -8238362.8960   20899765.588           0.000
  -4949959.2610   22567470.458           0.000
 -22240282.9120   23258800.191           0.000
  -8350808.4270   21075412.353           0.000
  -5771958.6200   22628233.727           0.000
 05 10 24 18 37  0.0000000  0  9G15G30G 6G24G19G17G11G13G22
  -8133384.8100   22087194.061           0.000
  -5301982.0170   24345760.964           0.000
 -15331202.0550   22381904.037           0.000
  -7360746.8360   22716980.817           0.000
  -8258593.2190   20904211.360           0.000
  -4962950.6380   22573292.774           0.000
 -22312700.3700   23253313.952           0.000
  -8370946.1990   21079875.153           0.000
  -5798609.3670   22631457.494           0.000
 05 10 24 18 37 10.0000000  0  9G15G30G 6G24G19G17G11G13G22
  -8170513.8490   22088422.778           0.000
  -5317327.6310   24351134.337           0.000
 -15392279.3990   22378576.421           0.000
  -7433376.1830   22711455.022           0.000
  -8278779.3340   20908665.225           0.000
  -4975916.1230   22579120.751           0.000
 -22385106.8730   23247830.369           0.000
  -8391036.3180   21084347.048           0.000
  -5825255.2090   22634682.486           0.000
 05 10 24 18 37 20.0000000  0 10G15G30G 6G24G19G17G11G13G12G22
  -8207592.5200   22089647.803           0.000
  -5332647.8780   24356500.586           0.000
 -15453313.1450   22375241.822           0.000
  -7505989.5480   22705918.525           0.000
  -8298921.0130   20913113.826           0.000
  -4988855.7590   22584940.744           0.000
 -22457502.0100   23242335.798           0.000
  -8411078.5070   21088814.822           0.000
         0.0000   23747618.845           0.000
  -5851896.0220   22637893.341           0.000
 05 10 24 18 37 30.0000000  0 10G15G30G 6G24G19G17G11G13G12G22
  -8244621.8560   22090905.084           0.000
  -5347943.7220   24361891.220           0.000
 -15514304.0360   22371936.617           0.000
  -7578587.6490   22700405.841           0.000
  -8319019.1630   20917591.247           0.000
  -5001770.5290   22590786.124           0.000
 -22529886.4990   23236864.038           0.000
  -8431073.7110   21093311.847           0.000
         0.0000   23745245.598           0.000
  -5878532.5520   22641127.150           0.000
 05 10 24 18 37 40.0000000  0  9G15G30G 6G24G19G17G11G13G22
  -8281602.7120   22092160.089           0.000
  -5363216.0150   24367276.145           0.000
 -15575252.7780   22368629.136           0.000
  -7651171.3120   22694885.014           0.000
  -8339074.8440   20922066.106           0.000
  -5014661.3810   22596625.795           0.000
 -22602261.0830   23231383.134           0.000
  -8451022.8210   21097807.312           0.000
  -5905165.7070   22644350.242           0.000
 05 10 24 18 37 50.0000000  0  9G15G30G 6G24G19G17G11G13G22
  -8318535.0970   22093426.390           0.000
  -5378464.8090   24372666.498           0.000
 -15636159.2760   22365334.239           0.000
  -7723740.3630   22689370.046           0.000
  -8359088.0720   20926552.548           0.000
  -5027528.3200   22602472.182           0.000
 -22674625.5430   23225907.230           0.000
  -8470926.0310   21102315.074           0.000
  -5931795.4510   22647576.759           0.000
 05 10 24 18 38  0.0000000  0  9G15G30G 6G24G19G17G11G13G22
  -8355418.7910   22094701.239           0.000
  -5393689.7380   24378062.681           0.000
 -15697023.1630   22362047.747           0.000
  -7796294.5270   22683857.759           0.000
  -8379058.7070   20931047.681           0.000
  -5040371.1350   22608322.968           0.000
 -22746979.5960   23220432.147           0.000
  -8490783.0980   21106831.242           0.000
  -5958421.4780   22650804.384           0.000
 05 10 24 18 38 10.0000000  0  9G15G30G 6G24G19G17G11G13G22
  -8392253.0310   22095984.502           0.000
  -5408890.0440   24383462.841           0.000
 -15757843.4200   22358767.379           0.000
  -7868832.7550   22678347.303           0.000
  -8398985.9180   20935548.222           0.000
  -5053189.0560   22614174.726           0.000
 -22819322.1920   23214958.180           0.000
  -8510593.2890   21111354.821           0.000
  -5985042.8550   22654031.264           0.000
 05 10 24 18 38 20.0000000  0  9G15G30G 6G24G19G17G11G13G22
  -8429037.9190   22097276.294           0.000
  -5424065.8230   24388865.377           0.000
 -15818620.0520   22355493.823           0.000
  -7941355.1070   22672838.652           0.000
  -8418869.9940   20940056.291           0.000
  -5065982.2680   22620031.436           0.000
 -22891653.3450   23209486.160           0.000
  -8530356.8030   21115885.928           0.000
  -6011659.8520   22657257.945           0.000
 05 10 24 18 38 30.0000000  0  9G15G30G 6G24G19G17G11G13G22
  -8465774.5660   22098577.303           0.000
  -5439218.2780   24394271.980           0.000
 -15879353.9780   22352228.054           0.000
  -8013862.4720   22667333.064           0.000
  -8438711.8270   20944572.147           0.000
  -5078751.7930   22625893.358           0.000
 -22963973.9000   23204015.916           0.000
  -8550074.7570   21120425.250           0.000
  -6038273.2860   22660485.830           0.000
 05 10 24 18 38 40.0000000  0  9G15G30G 6G24G19G17G11G13G22
  -8502462.1130   22099886.653           0.000
  -5454346.3890   24399683.490           0.000
 -15940044.1780   22348969.337           0.000
  -8086353.8120   22661829.236           0.000
  -8458510.9320   20949094.912           0.000
  -5091496.7900   22631758.469           0.000
 -23036282.8550   23198547.145           0.000
  -8569746.3820   21124971.769           0.000
  -6064882.2090   22663710.609           0.000
 05 10 24 18 38 50.0000000  0  9G15G30G 6G24G19G17G11G13G22
  -8539101.4910   22101202.879           0.000
  -5469451.0810   24405099.585           0.000
 -16000691.4100   22345717.497           0.000
  -8158829.9400   22656325.987           0.000
  -8478268.1130   20953623.838           0.000
  -5104218.5780   22637626.592           0.000
 -23108581.0120   23193078.381           0.000
  -8589372.6570   21129526.308           0.000
  -6091487.6460   22666935.394           0.000
 05 10 24 18 39  0.0000000  0  9G15G30G 6G24G19G17G11G13G22
  -8575692.2330   22102526.893           0.000
  -5484531.8400   24410520.178           0.000
 -16061294.9590   22342472.729           0.000
  -8231290.1610   22650824.087           0.000
  -8497982.9100   20958159.407           0.000
  -5116916.4580   22643498.210           0.000
 -23180867.6270   23187609.106           0.000
  -8608952.8150   21134087.061           0.000
  -6118089.0560   22670161.529           0.000
 05 10 24 18 39 10.0000000  0  9G15G30G 6G24G19G17G11G13G22
  -8612234.3420   22103859.972           0.000
  -5499588.6500   24415944.112           0.000
 -16121854.7350   22339236.310           0.000
  -8303734.4100   22645325.242           0.000
  -8517655.4030   20962702.753           0.000
  -5129590.4510   22649373.313           0.000
 -23253142.5540   23182143.316           0.000
  -8628487.2770   21138656.308           0.000
  -6144686.3010   22673388.573           0.000
 05 10 24 18 39 20.0000000  0  9G15G30G 6G24G19G17G11G13G22
  -8648728.3680   22105204.373           0.000
  -5514622.0830   24421372.499           0.000
 -16182371.1600   22336009.211           0.000
  -8376163.1210   22639830.422           0.000
  -8537286.2680   20967255.561           0.000
  -5142241.2290   22655253.871           0.000
 -23325406.2170   23176680.834           0.000
  -8647976.6290   21143236.303           0.000
  -6171279.9320   22676617.924           0.000
 05 10 24 18 39 30.0000000  0  9G15G30G 6G24G19G17G11G13G22
  -8685173.7020   22106559.766           0.000
  -5529631.5490   24426805.297           0.000
 -16242843.4390   22332791.958           0.000
  -8448575.4770   22634340.583           0.000
  -8556874.8640   20971818.503           0.000
  -5154868.1540   22661140.412           0.000
 -23397657.7820   23171220.330           0.000
  -8667420.1390   21147826.718           0.000
  -6197869.1450   22679847.821           0.000
 05 10 24 18 39 40.0000000  0  9G15G30G 6G24G19G17G11G13G22
  -8721569.0890   22107923.842           0.000
  -5544615.6890   24432243.629           0.000
 -16303270.1730   22329583.102           0.000
  -8520970.1130   22628852.989           0.000
  -8576420.0570   20976388.840           0.000
  -5167469.7640   22667031.344           0.000
 -23469895.8720   23165763.071           0.000
  -8686816.6950   21152425.387           0.000
  -6224452.7180   22683076.385           0.000
 05 10 24 18 39 50.0000000  0  9G15G30G 6G24G19G17G11G13G22
  -8757916.1910   22109294.797           0.000
  -5559576.2050   24437683.546           0.000
 -16363652.7870   22326379.409           0.000
  -8593348.4870   22623366.693           0.000
  -8595923.4860   20980964.338           0.000
  -5180048.2390   22672925.149           0.000
 -23542121.9330   23160306.395           0.000
  -8706167.9770   21157030.792           0.000
  -6251032.3740   22686305.388           0.000
 05 10 24 18 40  0.0000000  0  9G15G30G 6G24G19G17G11G13G22
  -8794215.6210   22110675.343           0.000
  -5574513.6770   24443128.617           0.000
 -16423991.8340   22323185.449           0.000
  -8665711.1260   22617884.836           0.000
  -8615385.7490   20985548.426           0.000
  -5192604.2050   22678823.679           0.000
 -23614336.4530   23154851.439           0.000
  -8725474.7090   21161644.786           0.000
  -6277608.5140   22689535.826           0.000
 05 10 24 18 40 10.0000000  0  9G15G30G 6G24G19G17G11G13G22
  -8830467.2010   22112063.479           0.000
  -5589427.8150   24448575.842           0.000
 -16484286.8610   22319997.076           0.000
  -8738057.5670   22612403.988           0.000
  -8634806.8160   20990138.387           0.000
  -5205137.3040   22684725.078           0.000
 -23686538.9300   23149397.778           0.000
  -8744736.6260   21166265.369           0.000
  -6304180.9000   22692766.558           0.000
 05 10 24 18 40 20.0000000  0  9G15G30G 6G24G19G17G11G13G22
  -8866669.6570   22113461.458           0.000
  -5604317.4450   24454029.189           0.000
 -16544536.5000   22316818.260           0.000
  -8810386.5150   22606927.687           0.000
  -8654185.4080   20994738.333           0.000
  -5217646.3410   22690631.024           0.000
 -23758728.0690   23143947.234           0.000
  -8763952.6020   21170895.650           0.000
  -6330748.1670   22695996.256           0.000
 05 10 24 18 40 30.0000000  0  9G15G30G 6G24G19G17G11G13G22
  -8902825.2100   22114867.149           0.000
  -5619184.7210   24459485.956           0.000
 -16604742.7550   22313646.583           0.000
  -8882699.9830   22601452.947           0.000
  -8673523.7120   20999344.133           0.000
  -5230133.5760   22696541.249           0.000
 -23830905.8490   23138497.106           0.000
  -8783124.8060   21175532.930           0.000
  -6357312.5700   22699227.085           0.000
 05 10 24 18 40 40.0000000  0  9G15G30G 6G24G19G17G11G13G22
  -8938932.9150   22116281.279           0.000
  -5634028.5350   24464946.153           0.000
 -16664904.4540   22310482.774           0.000
  -8954996.7590   22595979.777           0.000
  -8692820.8050   21003956.940           0.000
  -5242598.0580   22702455.334           0.000
 -23903071.0750   23133049.692           0.000
  -8802252.3660   21180178.362           0.000
  -6383872.9600   22702459.770           0.000
 05 10 24 18 40 50.0000000  0  9G15G30G 6G24G19G17G11G13G22
  -8974992.4260   22117696.263           0.000
  -5648848.6490   24470404.772           0.000
 -16725021.1200   22307319.388           0.000
  -9027276.4020   22590502.738           0.000
  -8712076.3530   21008570.314           0.000
  -5255039.3870   22708365.980           0.000
 -23975223.2190   23127597.694           0.000
  -8821334.9960   21184825.363           0.000
  -6410428.9130   22705684.437           0.000
 05 10 24 18 41  0.0000000  0 10G15G30G 6G24G19G17G11G13G12G22
  -9011004.8460   22119130.168           0.000
  -5663646.1570   24475874.584           0.000
 -16785093.8920   22304175.497           0.000
  -9099540.0130   22585038.611           0.000
  -8731291.7690   21013200.749           0.000
  -5267458.8330   22714290.252           0.000
 -24047363.4120   23122156.462           0.000
  -8840373.8940   21189488.996           0.000
         0.0000   23695423.625           0.000
  -6436981.7430   22708919.297           0.000
 05 10 24 18 41 10.0000000  0 10G15G30G 6G24G19G17G11G13G12G22
  -9046970.2360   22120571.329           0.000
  -5678421.0870   24481348.934           0.000
 -16845122.4740   22301038.861           0.000
  -9171787.4120   22579576.731           0.000
  -8750466.8940   21017837.439           0.000
  -5279856.5160   22720217.631           0.000
 -24119491.3850   23116715.617           0.000
  -8859369.0410   21194159.169           0.000
  -4258760.5640   23693062.118           0.000
  -6463531.1900   22712153.400           0.000
 05 10 24 18 41 20.0000000  0 10G15G30G 6G24G19G17G11G13G12G22
  -9082886.9030   22122018.177           0.000
         0.0000   24486819.956           0.000
 -16905104.9970   22297906.195           0.000
  -9244016.6760   22574113.956           0.000
  -8769600.1560   21022478.242           0.000
  -5292230.6950   22726146.118           0.000
 -24191605.2120   23111275.021           0.000
  -8878318.9060   21198834.027           0.000
  -4314699.1340   23690699.144           0.000
  -6490075.5610   22715383.316           0.000
 05 10 24 18 41 30.0000000  0  9G15G 6G24G19G17G11G13G12G22
  -9118757.2930   22123477.576           0.000
 -16965043.8990   22294784.793           0.000
  -9316230.3030   22568657.151           0.000
  -8788694.0290   21027129.879           0.000
  -5304583.9810   22732080.002           0.000
 -24263707.3470   23105837.676           0.000
  -8897226.0860   21203520.436           0.000
  -4370632.3340   23688340.994           0.000
  -6516617.3190   22718616.912           0.000
 05 10 24 18 41 40.0000000  0  9G15G 6G24G19G17G11G13G12G22
  -9154580.6560   22124945.673           0.000
 -17024938.2300   22291670.657           0.000
  -9388427.2360   22563201.745           0.000
  -8807747.7550   21031787.066           0.000
  -5316915.5870   22738016.574           0.000
 -24335796.7980   23100403.019           0.000
  -8916089.7690   21208214.826           0.000
  -4426559.4940   23685983.099           0.000
  -6543155.6760   22721849.905           0.000
 05 10 24 18 41 50.0000000  0  9G15G 6G24G19G17G11G13G12G22
  -9190356.4540   22126422.391           0.000
 -17084787.2100   22288566.573           0.000
  -9460606.8230   22557750.238           0.000
  -8826761.0920   21036453.874           0.000
  -5329224.8300   22743957.330           0.000
 -24407872.8040   23094972.546           0.000
  -8934909.3700   21212918.123           0.000
  -4482479.9150   23683625.668           0.000
  -6569689.9970   22725085.079           0.000
 05 10 24 18 42  0.0000000  0  9G15G 6G24G19G17G11G13G12G22
  -9226086.8000   22127907.645           0.000
 -17144592.7650   22285471.454           0.000
  -9532770.9190   22552302.402           0.000
  -8845736.0130   21041128.075           0.000
  -5341513.9200   22749902.616           0.000
 -24479937.2160   23089544.743           0.000
  -8953687.0240   21217629.814           0.000
  -4538395.5580   23681269.047           0.000
  -6596222.1420   22728320.634           0.000
 05 10 24 18 42 10.0000000  0  9G15G 6G24G19G17G11G13G12G22
  -9261770.1960   22129401.215           0.000
 -17204353.3170   22282384.080           0.000
  -9604918.0160   22546857.159           0.000
  -8864671.2340   21045808.303           0.000
  -5353781.6530   22755852.212           0.000
 -24551988.5220   23084116.815           0.000
  -8972421.4270   21222348.677           0.000
  -4594305.0300   23678913.589           0.000
  -6622750.7320   22731556.635           0.000
 05 10 24 18 42 20.0000000  0  9G15G 6G24G19G17G11G13G12G22
  -9297406.1900   22130905.647           0.000
 -17264068.1220   22279307.138           0.000
  -9677047.3690   22541418.055           0.000
  -8883566.1560   21050498.247           0.000
  -5366027.4120   22761808.091           0.000
 -24624025.9180   23078693.880           0.000
  -8991112.0430   21227078.830           0.000
  -4650207.6980   23676559.547           0.000
  -6649275.1230   22734793.480           0.000
 05 10 24 18 42 30.0000000  0  9G15G 6G24G19G17G11G13G12G22
  -9332996.3110   22132416.485           0.000
 -17323738.5740   22276235.314           0.000
  -9749160.3480   22535978.776           0.000
  -8902422.3180   21055193.595           0.000
  -5378252.8060   22767764.508           0.000
 -24696050.8040   23073272.487           0.000
  -9009760.4990   21231813.815           0.000
  -4706105.0450   23674205.472           0.000
  -6675796.7200   22738030.722           0.000
 05 10 24 18 42 40.0000000  0  9G15G 6G24G19G17G11G13G12G22
  -9368540.1040   22133934.486           0.000
 -17383364.1080   22273171.369           0.000
  -9821256.4330   22530542.939           0.000
  -8921239.3710   21059895.678           0.000
  -5390457.4000   22773724.941           0.000
 -24768062.5700   23067852.676           0.000
  -9028366.3510   21236556.106           0.000
  -4761996.6840   23671851.978           0.000
  -6702315.2280   22741267.114           0.000
 05 10 24 18 42 50.0000000  0  9G15G 6G24G19G17G11G13G12G22
  -9404036.2280   22135460.806           0.000
 -17442943.2170   22270114.883           0.000
  -9893334.0510   22525108.695           0.000
  -8940015.9420   21064604.648           0.000
  -5402639.5630   22779688.112           0.000
 -24840059.6700   23062434.888           0.000
  -9046928.2100   21241304.999           0.000
  -4817881.2830   23669499.791           0.000
  -6728829.0650   22744502.953           0.000
 05 10 24 18 43  0.0000000  0  9G15G 6G24G19G17G11G13G12G22
  -9439486.0500   22136998.903           0.000
 -17502477.2190   22267069.317           0.000
  -9965394.6090   22519679.503           0.000
  -8958753.6460   21069322.963           0.000
  -5414801.1920   22785657.479           0.000
 -24912043.5090   23057020.721           0.000
  -9065447.8000   21246063.666           0.000
  -4873760.3560   23667146.074           0.000
         0.0000   22747737.548           0.000
 05 10 24 18 43 10.0000000  0  9G15G 6G24G19G17G11G13G12G22
  -9474889.3090   22138546.597           0.000
 -17561965.4160   22264032.346           0.000
 -10037437.4100   22514252.468           0.000
  -8977452.0020   21074047.870           0.000
  -5426941.8240   22791630.292           0.000
 -24984013.3290   23051607.852           0.000
  -9083924.6280   21250830.213           0.000
  -4929633.4140   23664796.660           0.000
  -6274732.4720   22750975.873           0.000
 05 10 24 18 43 20.0000000  0  9G15G 6G24G19G17G11G13G12G22
  -9510245.0480   22140097.019           0.000
 -17621406.8270   22261000.249           0.000
 -10109461.4330   22508825.298           0.000
  -8996110.0980   21078775.792           0.000
  -5439060.5530   22797603.971           0.000
 -25055968.0190   23046193.847           0.000
  -9102357.7930   21255601.920           0.000
  -4985499.2850   23662446.396           0.000
         0.0000   22754211.346           0.000
 05 10 24 18 43 30.0000000  0  8G15G 6G24G19G17G11G13G12
  -9545554.9680   22141660.942           0.000
 -17680802.9780   22257982.226           0.000
 -10181468.2310   22503407.623           0.000
  -9014729.8110   21083517.643           0.000
  -5451159.1570   22803587.574           0.000
 -25127909.1660   23040787.476           0.000
  -9120749.0810   21260387.558           0.000
  -5041359.7100   23660101.191           0.000
 05 10 24 18 43 40.0000000  0  9G15G 6G24G19G17G11G13G12G22
  -9580817.5110   22143230.353           0.000
 -17740152.0920   22254968.116           0.000
 -10253456.0620   22497988.854           0.000
  -9033309.5510   21088261.835           0.000
  -5463236.0690   22809569.797           0.000
 -25199835.0270   23035379.010           0.000
  -9139096.9480   21265176.108           0.000
  -5097213.1850   23657751.887           0.000
  -6300604.9200   22760697.181           0.000
 05 10 24 18 43 50.0000000  0  9G15G 6G24G19G17G11G13G12G22
  -9616032.7370   22144809.650           0.000
 -17799454.1180   22251963.177           0.000
 -10325424.8320   22492573.532           0.000
  -9051849.3730   21093014.338           0.000
  -5475291.3030   22815555.038           0.000
 -25271745.4460   23029974.133           0.000
  -9157401.4430   21269972.398           0.000
  -5153059.7560   23655404.741           0.000
         0.0000   22763940.350           0.000
 05 10 24 18 44  0.0000000  0  9G15G 6G24G19G17G11G13G12G22
  -9651201.7870   22146403.516           0.000
 -17858710.0040   22248972.664           0.000
 -10397375.5350   22487167.484           0.000
  -9070350.5640   21097779.121           0.000
  -5487326.0780   22821550.697           0.000
 -25343641.4130   23024578.960           0.000
  -9175663.8060   21274783.113           0.000
  -5208900.5370   23653065.153           0.000
         0.0000   22767187.071           0.000
 05 10 24 18 44 10.0000000  0  8G15G 6G24G19G17G11G13G12
  -9686324.0940   22147993.109           0.000
 -17917919.0630   22245978.593           0.000
 -10469307.4490   22481752.298           0.000
  -9088812.5380   21102538.486           0.000
  -5499339.8520   22827537.075           0.000
 -25415522.2400   23019172.216           0.000
  -9193883.5260   21279588.983           0.000
  -5264734.8320   23650711.705           0.000
 05 10 24 18 44 20.0000000  0  9G15G30G 6G24G19G17G11G13G12
  -9721399.6910   22149597.728           0.000
  -5235046.2590   24586120.326           0.000
 -17977081.0960   22242999.549           0.000
 -10541220.3860   22476346.128           0.000
  -9107235.3370   21107311.732           0.000
  -5511332.4670   22833533.614           0.000
 -25487387.6700   23013774.918           0.000
  -9212060.6560   21284408.877           0.000
  -5320562.6110   23648360.691           0.000
 05 10 24 18 44 30.0000000  0  9G15G30G 6G24G19G17G11G13G12
  -9756429.3180   22151212.874           0.000
  -5249369.1850   24591674.507           0.000
 -18036196.7640   22240031.604           0.000
 -10613115.0670   22470946.909           0.000
  -9125619.7670   21112095.077           0.000
  -5523304.9120   22839537.819           0.000
 -25559238.3500   23008385.000           0.000
  -9230196.0380   21289239.299           0.000
  -5376384.7510   23646018.773           0.000
 05 10 24 18 44 40.0000000  0  9G15G30G 6G24G19G17G11G13G12
  -9791413.8200   22152833.373           0.000
  -5263670.8970   24597231.178           0.000
 -18095266.6520   22237069.298           0.000
 -10684992.0830   22465547.174           0.000
  -9143966.6550   21116881.771           0.000
  -5535258.2350   22845540.365           0.000
 -25631074.8920   23002993.708           0.000
  -9248290.5500   21294073.929           0.000
  -5432201.9400   23643676.770           0.000
 05 10 24 18 44 50.0000000  0  9G15G30G 6G24G19G17G11G13G12
  -9826352.8450   22154463.959           0.000
  -5277951.1370   24602792.786           0.000
 -18154290.3410   22234117.222           0.000
 -10756850.9450   22460152.234           0.000
  -9162275.8290   21121675.977           0.000
  -5547192.0250   22851547.132           0.000
 -25702896.7450   22997605.349           0.000
  -9266343.8020   21298917.930           0.000
  -5488013.8820   23641335.411           0.000
 05 10 24 18 45  0.0000000  0  9G15G30G 6G24G19G17G11G13G12
  -9861246.0330   22156101.182           0.000
  -5292209.3200   24608357.453           0.000
 -18213267.2120   22231171.640           0.000
 -10828691.1150   22454760.209           0.000
  -9180546.8620   21126476.819           0.000
  -5559105.8950   22857557.673           0.000
 -25774703.4200   22992219.048           0.000
  -9284355.5530   21303768.425           0.000
  -5543820.0940   23638994.249           0.000
 05 10 24 18 45 10.0000000  0  9G15G30G 6G24G19G17G11G13G12
  -9896093.4750   22157746.737           0.000
  -5306445.6590   24613926.303           0.000
 -18272197.2720   22228234.677           0.000
 -10900512.5480   22449370.936           0.000
  -9198779.8850   21131285.135           0.000
  -5570999.9780   22863571.968           0.000
 -25846494.7740   22986835.213           0.000
  -9302325.9820   21308627.253           0.000
  -5599620.6530   23636654.695           0.000
 05 10 24 18 45 20.0000000  0 10G15G30G 6G24G19G17G11G13G12G22
  -9930894.8870   22159403.157           0.000
  -5320659.7150   24619499.292           0.000
 -18331079.9930   22225308.864           0.000
 -10972314.7720   22443985.946           0.000
  -9216974.6480   21136102.741           0.000
  -5582873.9860   22869590.545           0.000
 -25918270.3190   22981457.234           0.000
  -9320254.8010   21313494.799           0.000
  -5655414.9820   23634317.991           0.000
         0.0000   22793107.340           0.000
 05 10 24 18 45 30.0000000  0 10G15G30G 6G24G19G17G11G13G12G22
  -9965650.5770   22161068.273           0.000
  -5334851.8930   24625076.111           0.000
 -18389915.5530   22222392.176           0.000
 -11044097.9420   22438604.929           0.000
  -9235131.5340   21140926.182           0.000
  -5594728.1620   22875613.668           0.000
 -25990030.2510   22976081.798           0.000
  -9338142.2700   21318370.324           0.000
  -5711203.7110   23631982.256           0.000
  -6301651.0650   22796351.761           0.000
 05 10 24 18 45 40.0000000  0 10G15G30G 6G24G19G17G11G13G12G22
 -10000359.8350   22162740.365           0.000
  -5349021.4470   24630654.898           0.000
 -18448703.1010   22219481.320           0.000
 -11115861.2010   22433224.735           0.000
  -9253249.8600   21145753.021           0.000
  -5606561.9860   22881636.613           0.000
 -26061773.6610   22970705.468           0.000
  -9355987.8230   21323249.965           0.000
  -5766986.1960   23629643.482           0.000
  -6328098.5520   22799599.152           0.000
 05 10 24 18 45 50.0000000  0 10G15G30G 6G24G19G17G11G13G12G22
 -10035023.3850   22164421.224           0.000
  -5363169.0500   24636240.736           0.000
 -18507443.1700   22216579.946           0.000
 -11187605.0980   22427849.016           0.000
  -9271330.3530   21150589.629           0.000
  -5618376.1020   22887665.463           0.000
 -26133501.0440   22965332.181           0.000
  -9373792.1800   21328138.945           0.000
  -5822762.7990   23627305.032           0.000
  -6354542.1660   22802843.434           0.000
 05 10 24 18 46  0.0000000  0 10G15G30G 6G24G19G17G11G13G12G22
 -10069641.8360   22166109.844           0.000
  -5377295.1000   24641830.472           0.000
 -18566136.1760   22213687.050           0.000
 -11259329.9970   22422476.766           0.000
  -9289373.6410   21155430.994           0.000
  -5630171.1170   22893696.637           0.000
 -26205212.7670   22959961.219           0.000
  -9391555.8450   21333033.969           0.000
  -5878534.2000   23624966.044           0.000
         0.0000   22806087.893           0.000
 05 10 24 18 46 10.0000000  0 10G15G30G 6G24G19G17G11G13G12G22
 -10104215.5370   22167806.764           0.000
  -5391400.1380   24647421.782           0.000
 -18624782.2920   22210801.880           0.000
 -11331036.1360   22417106.662           0.000
  -9307380.1790   21160279.800           0.000
  -5641947.4120   22899731.103           0.000
 -26276909.0170   22954592.260           0.000
  -9409279.2570   21337936.435           0.000
  -5934300.7250   23622628.917           0.000
         0.0000   22809337.217           0.000
 05 10 24 18 46 20.0000000  0 10G15G30G 6G24G19G17G11G13G12G22
 -10138744.0000   22169512.591           0.000
  -5405483.5800   24653017.705           0.000
 -18683380.8780   22207928.050           0.000
 -11402722.8940   22411740.886           0.000
  -9325349.4970   21165137.227           0.000
  -5653704.5410   22905771.041           0.000
 -26348589.2140   22949227.914           0.000
  -9426962.1300   21342848.236           0.000
  -5990061.9060   23620295.545           0.000
         0.0000   22812583.142           0.000
 05 10 24 18 46 30.0000000  0 10G15G30G 6G24G19G17G11G13G12G22
 -10173227.5720   22171226.974           0.000
  -5419545.9800   24658616.032           0.000
 -18741932.2960   22205063.205           0.000
 -11474390.6130   22406378.801           0.000
  -9343282.1400   21170001.921           0.000
  -5665443.0290   22911814.956           0.000
 -26420253.5790   22943867.546           0.000
  -9444604.9600   21347768.450           0.000
  -6045818.0470   23617963.145           0.000
  -6296059.6620   22815829.324           0.000
 05 10 24 18 46 40.0000000  0 10G15G30G 6G24G19G17G11G13G12G22
 -10207665.1030   22172947.755           0.000
         0.0000   24664217.037           0.000
 -18800435.0410   22202205.761           0.000
 -11546037.7640   22401019.537           0.000
  -9361176.7280   21174872.156           0.000
  -5677161.5800   22917860.261           0.000
 -26491900.6120   22938509.427           0.000
  -9462206.4110   21352693.775           0.000
  -6101567.9600   23615631.992           0.000
  -6322484.8930   22819077.469           0.000
 05 10 24 18 46 50.0000000  0 10G15G30G 6G24G19G17G11G13G12G22
 -10242057.3680   22174680.871           0.000
         0.0000   24669823.651           0.000
 -18858889.7380   22199359.791           0.000
 -11617665.0200   22395668.028           0.000
  -9379034.1360   21179752.149           0.000
  -5688861.0490   22923912.320           0.000
 -26563530.9740   22933156.774           0.000
  -9479767.3840   21357630.003           0.000
  -6157312.4010   23613301.583           0.000
  -6348906.1830   22822328.503           0.000
 05 10 24 18 47  0.0000000  0 10G15G30G 6G24G19G17G11G13G12G22
 -10276404.1520   22176420.748           0.000
         0.0000   24675434.451           0.000
 -18917296.0050   22196520.441           0.000
 -11689271.9250   22390317.844           0.000
  -9396854.1210   21184637.330           0.000
  -5700541.1250   22929964.845           0.000
 -26635144.1200   22927804.729           0.000
  -9497287.5940   21362570.131           0.000
  -6213050.9110   23610970.639           0.000
  -6375323.1120   22825577.571           0.000
 05 10 24 18 47 10.0000000  0 10G15G30G 6G24G19G17G11G13G12G22
 -10310705.8640   22178167.274           0.000
         0.0000   24681049.896           0.000
 -18975653.9610   22193690.029           0.000
 -11760858.7170   22384969.729           0.000
  -9414637.1140   21189527.299           0.000
  -5712202.2830   22936019.296           0.000
 -26706740.3370   22922454.611           0.000
  -9514767.5040   21367516.622           0.000
  -6268783.9500   23608639.045           0.000
  -6401735.9610   22828826.276           0.000
 05 10 24 18 47 20.0000000  0 10G15G30G 6G24G19G17G11G13G12G22
 -10344962.8530   22179920.977           0.000
  -5271010.3800   24686668.941           0.000
 -19033964.0060   22190867.080           0.000
 -11832425.7360   22379622.639           0.000
  -9432383.7190   21194421.727           0.000
  -5723845.0110   22942076.060           0.000
 -26778319.9560   22917106.806           0.000
  -9532207.6320   21372470.290           0.000
  -6324511.9020   23606307.760           0.000
  -6428145.2850   22832072.285           0.000
 05 10 24 18 47 30.0000000  0 10G15G30G 6G24G19G17G11G13G12G22
 -10379175.6220   22181680.509           0.000
  -5284943.0360   24692292.241           0.000
 -19092226.3750   22188049.673           0.000
 -11903973.1600   22374276.941           0.000
  -9450094.3580   21199321.410           0.000
  -5735469.8150   22948133.787           0.000
 -26849883.1220   22911758.675           0.000
  -9549608.3580   21377429.643           0.000
  -6380235.2140   23603974.433           0.000
  -6454551.2760   22835318.827           0.000
 05 10 24 18 47 40.0000000  0 10G15G30G 6G24G19G17G11G13G12G22
 -10413343.1270   22183451.055           0.000
         0.0000   24697917.684           0.000
 -19150439.7430   22185244.712           0.000
 -11975499.7740   22368938.394           0.000
  -9467767.9140   21204231.107           0.000
  -5747075.5050   22954197.233           0.000
 -26921428.5880   22906417.410           0.000
  -9566968.7120   21382399.581           0.000
  -6435952.7190   23601646.111           0.000
  -6480952.8480   22838565.939           0.000
 05 10 24 18 47 50.0000000  0 10G15G30G 6G24G19G17G11G13G12G22
 -10447466.3830   22185232.331           0.000
         0.0000   24703547.131           0.000
 -19208605.1160   22182450.767           0.000
 -12047006.5210   22363605.999           0.000
  -9485405.6150   21209148.815           0.000
  -5758663.3160   22960267.261           0.000
 -26992957.2530   22901081.151           0.000
  -9584289.8520   21387379.391           0.000
  -6491665.4070   23599317.358           0.000
  -6507351.0610   22841812.763           0.000
 05 10 24 18 48  0.0000000  0 10G15G30G 6G24G19G17G11G13G12G22
 -10481546.1920   22187020.731           0.000
  -5224831.8620   24709181.841           0.000
 -19266723.0780   22179664.089           0.000
 -12118494.0160   22358276.434           0.000
  -9503008.2090   21214072.931           0.000
  -5770234.0110   22966340.119           0.000
 -27064469.6930   22895745.290           0.000
  -9601572.5640   21392363.319           0.000
  -6547374.1260   23596988.145           0.000
  -6533746.4600   22845064.134           0.000
 05 10 24 18 48 10.0000000  0  9G15G 6G24G19G17G11G13G12G22
 -10515582.6940   22188819.551           0.000
 -19324793.6450   22176890.550           0.000
 -12189962.1630   22352953.999           0.000
  -9520575.8060   21219007.182           0.000
  -5781787.6700   22972418.819           0.000
 -27135965.8220   22890415.843           0.000
  -9618816.9890   21397357.669           0.000
  -6603078.9650   23594660.480           0.000
  -6560139.2040   22848318.915           0.000
 05 10 24 18 48 20.0000000  0  9G15G 6G24G19G17G11G13G12G22
 -10549574.8370   22190625.359           0.000
 -19382815.5610   22174126.002           0.000
 -12261409.8030   22347634.545           0.000
  -9538107.3630   21223946.417           0.000
  -5793323.3740   22978499.927           0.000
 -27207444.4190   22885089.377           0.000
  -9636022.0310   21402359.578           0.000
  -6658778.8150   23592334.509           0.000
  -6586528.1400   22851572.384           0.000
 05 10 24 18 48 30.0000000  0  9G15G 6G24G19G17G11G13G12G22
 -10583523.9040   22192436.406           0.000
 -19440789.9230   22171364.689           0.000
 -12332838.0490   22342312.459           0.000
  -9555604.3290   21228888.028           0.000
  -5804842.3890   22984579.119           0.000
 -27278906.6070   22879761.282           0.000
  -9653189.1650   21407363.864           0.000
  -6714474.8730   23590009.483           0.000
  -6612914.4410   22854822.077           0.000
 05 10 24 18 48 40.0000000  0  9G15G 6G24G19G17G11G13G12G22
 -10617428.8210   22194257.355           0.000
 -19498715.5170   22168613.422           0.000
 -12404245.6850   22336995.411           0.000
  -9573065.6030   21233837.253           0.000
  -5816343.6840   22990662.348           0.000
 -27350351.1870   22874438.653           0.000
  -9670317.3550   21412377.623           0.000
  -6770166.0340   23587684.774           0.000
  -6639297.0020   22858072.514           0.000
 05 10 24 18 48 50.0000000  0  9G15G 6G24G19G17G11G13G12G22
 -10651288.5820   22196086.670           0.000
 -19556591.1950   22165872.095           0.000
 -12475631.5290   22331683.294           0.000
  -9590490.3010   21238794.272           0.000
  -5827826.1960   22996749.077           0.000
 -27421776.9150   22869119.096           0.000
  -9687405.6170   21417397.888           0.000
  -6825851.2510   23585360.846           0.000
  -6665674.7340   22861325.880           0.000
 05 10 24 18 49  0.0000000  0  9G15G 6G24G19G17G11G13G12G22
 -10685105.2830   22197924.771           0.000
 -19614418.9390   22163141.415           0.000
 -12546997.5130   22326376.100           0.000
  -9607880.5210   21243758.216           0.000
  -5839292.1210   23002838.725           0.000
 -27493185.7190   22863803.316           0.000
  -9704456.0820   21422426.510           0.000
  -6881532.5300   23583037.834           0.000
  -6692049.7290   22864579.018           0.000
 05 10 24 18 49 10.0000000  0  9G15G 6G24G19G17G11G13G12G22
 -10718878.8990   22199770.502           0.000
 -19672198.4400   22160419.222           0.000
 -12618343.4310   22321072.243           0.000
  -9625236.1420   21248727.214           0.000
  -5850741.4520   23008932.712           0.000
 -27564577.3250   22858490.015           0.000
  -9721468.7040   21427461.330           0.000
  -6937209.8820   23580715.297           0.000
  -6718421.7860   22867832.200           0.000
 05 10 24 18 49 20.0000000  0  9G15G 6G24G19G17G11G13G12G22
 -10752608.3900   22201621.977           0.000
 -19729928.5670   22157703.060           0.000
 -12689668.0970   22315769.408           0.000
  -9642556.3100   21253700.239           0.000
  -5862173.2400   23015027.149           0.000
 -27635950.5420   22853176.877           0.000
  -9738442.5370   21432501.036           0.000
  -6992882.2240   23578392.208           0.000
  -6744789.8580   22871085.404           0.000
 05 10 24 18 49 30.0000000  0  9G15G 6G24G19G17G11G13G12G22
 -10786294.6580   22203478.490           0.000
 -19787610.0200   22154992.794           0.000
 -12760972.2270   22310466.889           0.000
  -9659841.8760   21258678.016           0.000
  -5873588.3110   23021122.187           0.000
 -27707306.0850   22847865.344           0.000
  -9755378.5620   21437544.636           0.000
  -7048550.3360   23576064.856           0.000
  -6771154.6880   22874336.920           0.000
 05 10 24 18 49 40.0000000  0 10G15G30G 6G24G19G17G11G13G12G22
 -10819937.5780   22205347.103           0.000
         0.0000   24765730.641           0.000
 -19845242.4760   22152296.345           0.000
 -12832255.4600   22305171.748           0.000
  -9677092.7370   21263666.462           0.000
  -5884986.5580   23027223.316           0.000
 -27778643.5220   22842560.758           0.000
  -9772276.5880   21442599.477           0.000
  -7104214.1600   23573741.591           0.000
  -6797516.0510   22877593.095           0.000
 05 10 24 18 49 50.0000000  0 10G15G30G 6G24G19G17G11G13G12G22
 -10853536.9280   22207225.322           0.000
         0.0000   24771405.376           0.000
 -19902825.5900   22149609.217           0.000
 -12903517.5320   22299882.064           0.000
  -9694308.7790   21268661.796           0.000
  -5896367.7540   23033329.330           0.000
 -27849962.5820   22837260.628           0.000
  -9789136.5300   21447662.207           0.000
  -7159873.4410   23571420.206           0.000
  -6823873.6800   22880849.433           0.000
 05 10 24 18 50  0.0000000  0 10G15G30G 6G24G19G17G11G13G12G22
 -10887092.1700   22209110.152           0.000
         0.0000   24777083.572           0.000
 -19960358.7980   22146930.272           0.000
 -12974757.7390   22294595.842           0.000
  -9711489.5280   21273662.309           0.000
  -5907731.5200   23039436.372           0.000
 -27921262.5720   22831962.243           0.000
  -9805957.8910   21452731.404           0.000
  -7215527.6760   23569099.564           0.000
  -6850227.0420   22884104.797           0.000
 05 10 24 18 50 10.0000000  0 10G15G30G 6G24G19G17G11G13G12G22
 -10920603.9700   22211003.424           0.000
  -5229833.8930   24782765.489           0.000
 -20017842.3970   22144260.772           0.000
 -13045976.4970   22289313.340           0.000
  -9728635.6230   21278669.547           0.000
  -5919078.4410   23045546.277           0.000
 -27992543.8690   22826666.148           0.000
  -9822741.3100   21457807.040           0.000
  -7271177.3600   23566779.494           0.000
  -6876576.7610   22887361.019           0.000
 05 10 24 18 50 20.0000000  0 10G15G30G 6G24G19G17G11G13G12G22
 -10954073.1570   22212905.356           0.000
         0.0000   24788451.201           0.000
 -20075277.0580   22141602.222           0.000
 -13117174.5080   22284035.635           0.000
  -9745747.8640   21283684.302           0.000
  -5930409.3480   23051661.408           0.000
 -28063807.1130   22821376.710           0.000
  -9839487.7300   21462891.623           0.000
  -7326823.3140   23564460.930           0.000
  -6902923.3470   22890617.174           0.000
 05 10 24 18 50 30.0000000  0 10G15G30G 6G24G19G17G11G13G12G22
 -10987499.0320   22214815.761           0.000
         0.0000   24794136.657           0.000
 -20132662.0320   22138953.432           0.000
 -13188350.8740   22278762.110           0.000
  -9762825.6460   21288705.954           0.000
  -5941723.6040   23057779.860           0.000
 -28135051.4660   22816090.878           0.000
  -9856196.5300   21467983.819           0.000
  -7382464.8820   23562145.974           0.000
  -6929266.1950   22893877.794           0.000
 05 10 24 18 50 40.0000000  0 10G15G30G 6G24G19G17G11G13G12G22
 -11020881.3600   22216735.641           0.000
         0.0000   24799828.010           0.000
 -20189996.8240   22136315.691           0.000
 -13259505.1650   22273493.338           0.000
  -9779868.6850   21293736.223           0.000
  -5953020.9220   23063902.636           0.000
 -28206276.4010   22810809.657           0.000
  -9872867.3220   21473083.774           0.000
  -7438101.6010   23559832.622           0.000
  -6955604.8700   22897137.300           0.000
 05 10 24 18 50 50.0000000  0 10G15G30G 6G24G19G17G11G13G12G22
 -11054220.4210   22218659.634           0.000
  -5284046.0640   24805524.622           0.000
 -20247281.5530   22133682.493           0.000
 -13330637.4620   22268225.674           0.000
  -9796877.3760   21298768.172           0.000
  -5964301.6220   23070024.803           0.000
 -28277482.0170   22805527.971           0.000
  -9889500.5490   21478186.554           0.000
  -7493733.6900   23557514.083           0.000
  -6981939.5880   22900395.768           0.000
 05 10 24 18 51  0.0000000  0 10G15G30G 6G24G19G17G11G13G12G22
 -11087517.4600   22220590.563           0.000
  -5297549.3220   24811224.879           0.000
 -20304517.3720   22131057.375           0.000
 -13401748.9190   22262961.512           0.000
  -9813852.9220   21303805.055           0.000
  -5975566.9660   23076149.470           0.000
 -28348669.4240   22800248.498           0.000
  -9906097.4940   21483295.699           0.000
  -7549362.4620   23555197.185           0.000
         0.0000   22903648.152           0.000
 05 10 24 18 51 10.0000000  0 10G15G30G 6G24G19G17G11G13G12G22
 -11120771.3990   22222530.506           0.000
  -5311032.2890   24816927.567           0.000
 -20361702.8060   22128444.276           0.000
 -13472838.2240   22257702.643           0.000
  -9830794.2510   21308849.234           0.000
  -5986815.8620   23082277.713           0.000
 -28419837.2870   22794974.318           0.000
  -9922657.0010   21488413.427           0.000
  -7604986.6470   23552881.288           0.000
         0.0000   22906904.683           0.000
 05 10 24 18 51 20.0000000  0 10G15G30G 6G24G19G17G11G13G12G22
 -11153981.9740   22224480.533           0.000
  -5324494.7250   24822634.472           0.000
 -20418837.6050   22125843.264           0.000
 -13543904.9400   22252449.423           0.000
  -9847701.0700   21313901.780           0.000
  -5998048.0580   23088410.174           0.000
 -28490985.1990   22789706.503           0.000
  -9939178.9050   21493539.379           0.000
  -7660605.9620   23550566.460           0.000
  -7378034.6760   22910166.577           0.000
 05 10 24 18 51 30.0000000  0 10G15G30G 6G24G19G17G11G13G12G22
 -11187150.5590   22226436.397           0.000
         0.0000   24828342.206           0.000
 -20475923.0370   22123247.947           0.000
 -13614950.2800   22247197.890           0.000
  -9864574.9100   21318958.017           0.000
  -6009264.9570   23094544.323           0.000
 -28562114.2970   22784440.374           0.000
  -9955664.6050   21498670.167           0.000
  -7716221.8480   23548250.745           0.000
         0.0000   22913426.438           0.000
 05 10 24 18 51 40.0000000  0  9G15G30G 6G24G19G17G11G13G12
 -11220276.8120   22228402.328           0.000
         0.0000   24834057.861           0.000
 -20532958.3180   22120663.984           0.000
 -13685973.6360   22241951.702           0.000
  -9881415.2580   21324023.176           0.000
  -6020465.8380   23100682.957           0.000
 -28633223.9500   22779177.731           0.000
  -9972113.6690   21503809.018           0.000
  -7771833.7210   23545937.226           0.000
 05 10 24 18 51 50.0000000  0  9G15G30G 6G24G19G17G11G13G12
 -11253360.3680   22230375.643           0.000
         0.0000   24839776.750           0.000
 -20589943.2010   22118087.548           0.000
 -13756974.6570   22236710.036           0.000
  -9898222.1440   21329094.001           0.000
  -6031650.8890   23106821.105           0.000
 -28704313.8710   22773918.607           0.000
  -9988526.0080   21508954.680           0.000
  -7827441.4820   23543623.935           0.000
 05 10 24 18 52  0.0000000  0  9G15G30G 6G24G19G17G11G13G12
 -11286401.6690   22232359.052           0.000
         0.0000   24845503.301           0.000
 -20646877.8590   22115523.639           0.000
 -13827953.4820   22231473.885           0.000
  -9914995.8880   21334172.632           0.000
  -6042820.6450   23112964.340           0.000
 -28775384.0550   22768665.715           0.000
 -10004901.9550   21514108.291           0.000
  -7883045.1460   23541311.153           0.000
 05 10 24 18 52 10.0000000  0  8G15G 6G24G19G17G11G13G12
 -11319400.6860   22234348.277           0.000
 -20703762.1470   22112967.407           0.000
 -13898910.0080   22226239.115           0.000
  -9931736.2540   21339254.646           0.000
  -6053974.9270   23119109.527           0.000
 -28846434.4060   22763413.488           0.000
 -10021241.5830   21519266.573           0.000
  -7938644.9130   23538998.606           0.000
 05 10 24 18 52 20.0000000  0  8G15G 6G24G19G17G11G13G12
 -11352357.3220   22236344.537           0.000
 -20760595.7620   22110420.355           0.000
 -13969843.9290   22221009.090           0.000
  -9948443.5310   21344342.979           0.000
  -6065113.6450   23125256.740           0.000
 -28917464.6310   22758165.146           0.000
 -10037544.8230   21524432.749           0.000
  -7994240.6530   23536687.226           0.000
 05 10 24 18 52 30.0000000  0  8G15G 6G24G19G17G11G13G12
 -11385270.9850   22238349.136           0.000
 -20817378.0200   22107882.787           0.000
 -14040754.4650   22215784.113           0.000
  -9965117.0760   21349438.650           0.000
  -6076236.2510   23131406.999           0.000
 -28988473.9620   22752919.564           0.000
 -10053811.1400   21529606.261           0.000
  -8049831.6860   23534379.035           0.000
 05 10 24 18 52 40.0000000  0  8G15G 6G24G19G17G11G13G12
 -11418142.4570   22240359.925           0.000
 -20874109.3920   22105354.128           0.000
 -14111642.2620   22210561.318           0.000
  -9981757.6410   21354539.795           0.000
  -6087343.2640   23137560.298           0.000
 -29059462.8860   22747678.025           0.000
 -10070041.2900   21534784.533           0.000
  -8105418.8030   23532068.734           0.000
 05 10 24 18 52 50.0000000  0  8G15G 6G24G19G17G11G13G12
 -11450971.8950   22242379.666           0.000
 -20930790.0490   22102835.136           0.000
 -14182507.2760   22205342.325           0.000
  -9998365.4170   21359645.599           0.000
  -6098435.2500   23143717.399           0.000
 -29130431.4410   22742438.426           0.000
 -10086235.5610   21539969.038           0.000
  -8161002.0920   23529756.653           0.000
 05 10 24 18 53  0.0000000  0  8G15G 6G24G19G17G11G13G12
 -11483759.3080   22244407.367           0.000
 -20987419.8400   22100326.108           0.000
 -14253349.3740   22200127.858           0.000
 -10014940.4260   21364756.932           0.000
  -6109512.1010   23149875.878           0.000
 -29201379.5050   22737203.497           0.000
 -10102393.9580   21545161.646           0.000
  -8216581.5120   23527445.950           0.000
 05 10 24 18 53 10.0000000  0  8G15G 6G24G19G17G11G13G12
 -11516503.8370   22246441.073           0.000
 -21043997.5440   22097823.800           0.000
 -14324167.4790   22194914.960           0.000
 -10031481.7540   21369872.552           0.000
  -6120572.7190   23156035.497           0.000
 -29272305.9170   22731969.994           0.000
 -10118515.6560   21550357.684           0.000
  -8272156.1950   23525135.386           0.000
 05 10 24 18 53 20.0000000  0  8G15G 6G24G19G17G11G13G12
 -11549206.9670   22248483.360           0.000
 -21100524.4880   22095331.360           0.000
 -14394962.8670   22189707.494           0.000
 -10047990.7910   21374995.178           0.000
  -6131618.9650   23162197.972           0.000
 -29343211.9560   22726741.065           0.000
 -10134602.1420   21555560.728           0.000
  -8327727.3520   23522826.104           0.000
 05 10 24 18 53 30.0000000  0  8G15G 6G24G19G17G11G13G12
 -11581868.3840   22250532.789           0.000
 -21157000.4120   22092849.497           0.000
 -14465735.1120   22184505.597           0.000
 -10064467.5310   21380124.660           0.000
  -6142650.4630   23168364.012           0.000
 -29414097.1600   22721516.559           0.000
 -10150653.1990   21560770.628           0.000
  -8383294.7620   23520517.668           0.000
 05 10 24 18 53 40.0000000  0  8G15G 6G24G19G17G11G13G12
 -11614488.2140   22252591.161           0.000
 -21213425.0130   22090379.153           0.000
 -14536484.1090   22179308.779           0.000
 -10080912.0370   21385261.083           0.000
  -6153667.1700   23174533.129           0.000
 -29484961.3600   22716297.848           0.000
 -10166668.8950   21565988.470           0.000
  -8438858.5060   23518209.876           0.000
 05 10 24 18 53 50.0000000  0  8G15G 6G24G19G17G11G13G12
 -11647067.0720   22254655.635           0.000
 -21269798.8260   22087917.058           0.000
 -14607210.3870   22174114.201           0.000
 -10097325.0660   21390402.606           0.000
  -6164669.8280   23180704.342           0.000
 -29555805.1110   22711082.091           0.000
 -10182649.9970   21571212.128           0.000
  -8494419.1280   23515902.320           0.000
 05 10 24 18 54  0.0000000  0  8G15G 6G24G19G17G11G13G12
 -11679605.5200   22256727.760           0.000
 -21326122.3650   22085463.042           0.000
 -14677914.3400   22168922.979           0.000
 -10113707.1900   21395550.205           0.000
  -6175659.1140   23186878.053           0.000
 -29626628.8240   22705869.263           0.000
 -10198597.1340   21576441.862           0.000
  -8549977.3620   23513594.258           0.000
 05 10 24 18 54 10.0000000  0  8G15G 6G24G19G17G11G13G12
 -11712103.3770   22258809.178           0.000
 -21382395.1860   22083019.464           0.000
 -14748595.5500   22163738.047           0.000
 -10130058.1780   21400703.092           0.000
  -6186634.6860   23193054.476           0.000
 -29697431.9660   22700661.007           0.000
 -10214509.9990   21581678.314           0.000
  -8605532.6700   23511286.904           0.000
 05 10 24 18 54 20.0000000  0  8G15G 6G24G19G17G11G13G12
 -11744560.5130   22260898.258           0.000
 -21438616.9940   22080586.267           0.000
 -14819253.6560   22158557.627           0.000
 -10146377.8620   21405863.210           0.000
  -6197596.5300   23199233.123           0.000
 -29768214.2350   22695456.548           0.000
 -10230388.5280   21586922.284           0.000
  -8661084.9570   23508981.917           0.000
 05 10 24 18 54 30.0000000  0  8G15G 6G24G19G17G11G13G12
 -11776977.1720   22262994.137           0.000
 -21494787.8790   22078161.586           0.000
 -14889888.8130   22153381.146           0.000
 -10162666.4890   21411028.697           0.000
  -6208544.8390   23205415.994           0.000
 -29838975.7300   22690255.598           0.000
 -10246232.9400   21592172.482           0.000
  -8716634.4790   23506674.429           0.000
 05 10 24 18 54 40.0000000  0  8G15G 6G24G19G17G11G13G12
 -11809353.0080   22265095.510           0.000
 -21550907.2860   22075744.402           0.000
 -14960500.4380   22148207.296           0.000
 -10178923.7820   21416197.818           0.000
  -6219479.2740   23211600.065           0.000
 -29909715.8560   22685056.707           0.000
 -10262043.0670   21597426.885           0.000
  -8772180.6980   23504367.282           0.000
 05 10 24 18 54 50.0000000  0  8G15G 6G24G19G17G11G13G12
 -11841687.6470   22267207.055           0.000
 -21606974.7170   22073339.394           0.000
 -15031088.0990   22143039.183           0.000
 -10195149.5160   21421374.964           0.000
  -6230399.5490   23217788.013           0.000
 -29980434.1460   22679864.268           0.000
 -10277818.5980   21602689.171           0.000
  -8827723.3040   23502059.576           0.000
 05 10 24 18 55  0.0000000  0  8G15G 6G24G19G17G11G13G12
 -11873982.3430   22269322.981           0.000
 -21662991.3070   22070940.627           0.000
 -15101652.8030   22137872.159           0.000
 -10211344.8440   21426553.916           0.000
  -6241306.8880   23223974.046           0.000
 -30051131.5750   22674670.916           0.000
 -10293560.8070   21607954.837           0.000
  -8883263.4720   23499749.240           0.000
 05 10 24 18 55 10.0000000  0  9G15G30G 6G24G19G17G11G13G12
 -11906235.7110   22271448.835           0.000
  -5233842.8190   24954858.086           0.000
 -21718955.5940   22068555.651           0.000
 -15172192.9950   22132712.917           0.000
 -10227508.3670   21431741.937           0.000
  -6252199.7810   23230165.284           0.000
 -30121806.6050   22669485.774           0.000
 -10309268.3340   21613231.145           0.000
  -8938799.8170   23497444.396           0.000
 05 10 24 18 55 20.0000000  0  9G15G30G 6G24G19G17G11G13G12
 -11938448.3090   22273583.274           0.000
  -5246845.4660   24960649.383           0.000
 -21774867.7150   22066182.122           0.000
 -15242709.0130   22127560.687           0.000
 -10243640.5990   21436938.687           0.000
  -6263078.9240   23236360.672           0.000
 -30192459.4780   22664307.215           0.000
 -10324941.6190   21618515.467           0.000
  -8994332.6900   23495141.125           0.000
 05 10 24 18 55 30.0000000  0  9G15G30G 6G24G19G17G11G13G12
 -11970621.2010   22275725.367           0.000
         0.0000   24966442.323           0.000
 -21830728.7140   22063819.109           0.000
 -15313201.7840   22122413.391           0.000
 -10259742.9130   21442141.802           0.000
  -6273945.4630   23242560.566           0.000
 -30263091.1870   22659134.162           0.000
 -10340581.9210   21623806.012           0.000
  -9049863.3510   23492840.357           0.000
 05 10 24 18 55 40.0000000  0  9G15G30G 6G24G19G17G11G13G12
 -12002753.6420   22277875.578           0.000
         0.0000   24972235.797           0.000
 -21886537.5880   22061464.787           0.000
 -15383670.2750   22117268.776           0.000
 -10275814.4790   21447348.886           0.000
  -6284798.5940   23248760.994           0.000
 -30333700.6760   22653962.789           0.000
 -10356188.3910   21629099.952           0.000
  -9105390.7540   23490539.265           0.000
 05 10 24 18 55 50.0000000  0  8G15G 6G24G19G17G11G13G12
 -12034845.1910   22280033.499           0.000
 -21942293.7770   22059118.746           0.000
 -15454113.9450   22112127.864           0.000
 -10291854.8480   21452559.529           0.000
  -6295637.9030   23254961.261           0.000
 -30404287.3790   22648793.258           0.000
 -10371760.7210   21634400.601           0.000
  -9160914.6010   23488239.156           0.000
 05 10 24 18 56  0.0000000  0  9G15G30G 6G24G19G17G11G13G12
 -12066897.3980   22282194.684           0.000
         0.0000   24983838.711           0.000
 -21997998.7890   22056777.687           0.000
 -15524534.3400   22106987.068           0.000
 -10307865.6460   21457772.007           0.000
  -6306465.0380   23261161.931           0.000
 -30474852.7090   22643624.989           0.000
 -10387300.6370   21639703.083           0.000
  -9216436.4260   23485935.301           0.000
 05 10 24 18 56 10.0000000  0  8G15G 6G24G19G17G11G13G12
 -12098910.3540   22284366.378           0.000
 -22053652.3470   22054448.281           0.000
 -15594931.0730   22101853.204           0.000
 -10323846.8550   21462992.417           0.000
  -6317279.8540   23267365.956           0.000
 -30545396.3930   22638462.507           0.000
 -10402807.9230   21645014.786           0.000
  -9271956.0300   23483633.226           0.000
 05 10 24 18 56 20.0000000  0  8G15G 6G24G19G17G11G13G12
 -12130884.1550   22286543.412           0.000
 -22109254.4450   22052130.654           0.000
 -15665304.1910   22096725.252           0.000
 -10339798.6320   21468219.741           0.000
  -6328082.5700   23273573.316           0.000
 -30615918.3830   22633305.078           0.000
 -10418282.8230   21650333.403           0.000
  -9327473.6010   23481333.915           0.000
 05 10 24 18 56 30.0000000  0  8G15G 6G24G19G17G11G13G12
 -12162818.1130   22288728.158           0.000
 -22164804.3940   22049823.603           0.000
 -15735652.9530   22091601.722           0.000
 -10355720.4610   21473453.348           0.000
  -6338872.6320   23279782.953           0.000
 -30686417.9400   22628151.927           0.000
 -10433724.8280   21655656.155           0.000
  -9382988.4540   23479034.590           0.000
 05 10 24 18 56 40.0000000  0  8G15G 6G24G19G17G11G13G12
 -12194712.1450   22290922.787           0.000
 -22220301.8250   22047527.291           0.000
 -15805976.9950   22086483.781           0.000
 -10371612.2040   21478693.831           0.000
  -6349649.8320   23285995.459           0.000
 -30756894.6730   22623005.797           0.000
 -10449133.8320   21660988.361           0.000
  -9438500.5030   23476734.273           0.000
 05 10 24 18 56 50.0000000  0  8G15G 6G24G19G17G11G13G12
 -12226567.4370   22293124.213           0.000
 -22275747.7770   22045239.208           0.000
 -15876277.3390   22081368.487           0.000
 -10387475.0770   21483937.820           0.000
  -6360415.4140   23292209.755           0.000
 -30827349.5700   22617861.742           0.000
 -10464511.0520   21666324.501           0.000
  -9494010.7910   23474434.456           0.000
 05 10 24 18 57  0.0000000  0  8G15G 6G24G19G17G11G13G12
 -12258382.6070   22295331.727           0.000
 -22331140.6040   22042958.214           0.000
 -15946552.3620   22076255.132           0.000
 -10403307.6380   21489185.465           0.000
  -6371167.8360   23298424.415           0.000
 -30897781.0190   22612719.340           0.000
 -10479855.1270   21671666.014           0.000
  -9549517.6760   23472133.000           0.000
 05 10 24 18 57 10.0000000  0  8G15G 6G24G19G17G11G13G12
 -12290158.1720   22297547.447           0.000
 -22386480.6390   22040688.290           0.000
 -16016802.3230   22071146.836           0.000
 -10419110.3260   21494439.457           0.000
  -6381907.7370   23304642.131           0.000
 -30968189.2400   22607582.139           0.000
 -10495166.5360   21677014.017           0.000
  -9605021.7260   23469832.311           0.000
 05 10 24 18 57 20.0000000  0  8G15G 6G24G19G17G11G13G12
 -12321893.8240   22299770.616           0.000
 -22441767.5410   22038429.247           0.000
 -16087026.8770   22066045.129           0.000
 -10434883.0370   21499698.893           0.000
  -6392634.9130   23310862.286           0.000
 -31038573.8910   22602450.526           0.000
 -10510445.0800   21682367.894           0.000
  -9660522.8370   23467532.773           0.000
 05 10 24 18 57 30.0000000  0  8G15G 6G24G19G17G11G13G12
 -12353591.0470   22301995.460           0.000
 -22497002.6160   22036174.455           0.000
 -16157227.3290   22060943.237           0.000
 -10450627.2670   21504959.575           0.000
  -6403350.7690   23317079.681           0.000
 -31108936.2230   22597317.440           0.000
 -10525692.2360   21687721.729           0.000
  -9716022.1460   23465226.897           0.000
 05 10 24 18 57 40.0000000  0  9G15G 6G24G19G17G11G13G12G22
 -12385248.9430   22304249.953           0.000
 -22552184.7900   22033951.316           0.000
 -16227402.6100   22055868.849           0.000
 -10466342.0890   21510247.760           0.000
  -6414054.4170   23323322.003           0.000
 -31179275.1570   22592210.427           0.000
 -10540907.2100   21693105.356           0.000
  -9771518.8980   23462942.372           0.000
  -7325630.2160   23034376.199           0.000
 05 10 24 18 57 50.0000000  0  9G15G 6G24G19G17G11G13G12G22
 -12416866.2910   22306491.891           0.000
 -22607312.5840   22031719.485           0.000
 -16297551.2070   22050779.472           0.000
 -10482026.2850   21515522.961           0.000
  -6424744.6230   23329546.618           0.000
 -31249589.1880   22587089.284           0.000
 -10556088.7370   21698475.856           0.000
  -9827011.6570   23460641.427           0.000
  -7351816.8380   23037659.417           0.000
 05 10 24 18 58  0.0000000  0  8G15G 6G24G19G17G11G13G12
 -12448444.9520   22308738.075           0.000
 -22662387.8150   22029495.191           0.000
 -16367674.9410   22045690.907           0.000
 -10497681.7850   21520800.976           0.000
  -6435423.1990   23335771.616           0.000
 -31319880.0550   22581969.667           0.000
 -10571238.8350   21703850.172           0.000
  -9882502.2790   23458338.576           0.000
 05 10 24 18 58 10.0000000  0  9G15G 6G24G19G17G11G13G12G22
 -12479985.1400   22310997.299           0.000
 -22717410.5570   22027286.656           0.000
 -16437773.7920   22040612.378           0.000
 -10513308.9260   21526090.172           0.000
  -6446090.5950   23342003.645           0.000
 -31390147.7790   22576859.658           0.000
 -10586357.7110   21709235.097           0.000
  -9937990.9990   23456041.324           0.000
         0.0000   23044213.329           0.000
 05 10 24 18 58 20.0000000  0  9G15G 6G24G19G17G11G13G12G22
 -12511487.1970   22313267.948           0.000
 -22772380.9040   22025091.549           0.000
 -16507847.9220   22035542.697           0.000
 -10528907.9120   21531386.786           0.000
  -6456747.0690   23348241.088           0.000
 -31460392.4590   22571756.780           0.000
 -10601445.7590   21714628.584           0.000
  -9993478.0550   23453746.768           0.000
  -7346161.3270   23047499.072           0.000
 05 10 24 18 58 30.0000000  0  9G15G 6G24G19G17G11G13G12G22
 -12542950.5130   22315540.939           0.000
 -22827298.1350   22022900.501           0.000
 -16577896.5850   22030471.924           0.000
 -10544478.2480   21536683.166           0.000
  -6467391.9450   23354474.577           0.000
 -31530613.3140   22566653.382           0.000
 -10616502.3530   21720022.266           0.000
 -10048962.8290   23451447.543           0.000
  -7372335.4810   23050781.576           0.000
 05 10 24 18 58 40.0000000  0  9G15G 6G24G19G17G11G13G12G22
 -12574374.9900   22317825.307           0.000
 -22882161.9290   22020723.121           0.000
 -16647919.4850   22025409.810           0.000
 -10560019.7720   21541989.206           0.000
  -6478025.0540   23360713.863           0.000
 -31600810.0550   22561558.214           0.000
 -10631527.3920   21725425.752           0.000
 -10104445.1560   23449151.682           0.000
  -7398505.9350   23054062.007           0.000
 05 10 24 18 58 50.0000000  0  9G15G 6G24G19G17G11G13G12G22
 -12605761.1850   22320115.919           0.000
 -22936972.7130   22018556.276           0.000
 -16717916.8970   22020351.507           0.000
 -10575533.1410   21547298.914           0.000
  -6488647.1040   23366954.813           0.000
 -31670982.9680   22556467.715           0.000
 -10646521.4900   21730834.337           0.000
 -10159925.4870   23446856.341           0.000
  -7424673.0280   23057342.958           0.000
 05 10 24 18 59  0.0000000  0  9G15G 6G24G19G17G11G13G12G22
 -12637108.7870   22322409.008           0.000
 -22991730.0810   22016395.199           0.000
 -16787888.4820   22015294.679           0.000
 -10591018.1000   21552610.384           0.000
  -6499257.8810   23373195.665           0.000
 -31741131.7030   22551376.974           0.000
 -10661484.4050   21736246.114           0.000
 -10215403.6280   23444558.325           0.000
  -7450836.5420   23060624.382           0.000
 05 10 24 18 59 10.0000000  0  9G15G 6G24G19G17G11G13G12G22
 -12668417.8710   22324711.379           0.000
 -23046433.8500   22014245.695           0.000
 -16857834.0630   22010245.703           0.000
 -10606474.6550   21557928.274           0.000
  -6509857.3230   23379439.217           0.000
 -31811255.9710   22546293.799           0.000
 -10676416.1710   21741665.743           0.000
 -10270879.4130   23442263.153           0.000
  -7476996.3850   23063904.644           0.000
 05 10 24 18 59 20.0000000  0  9G15G 6G24G19G17G11G13G12G22
 -12699688.0080   22327022.195           0.000
 -23101083.3430   22012107.783           0.000
 -16927752.9470   22005203.311           0.000
 -10621902.2610   21563253.465           0.000
  -6520444.8870   23385685.490           0.000
 -31881355.0730   22541215.634           0.000
 -10691316.2880   21747092.385           0.000
 -10326352.3410   23439967.983           0.000
  -7503152.0330   23067189.487           0.000
 05 10 24 18 59 30.0000000  0  9G15G 6G24G19G17G11G13G12G22
 -12730919.7930   22329340.305           0.000
 -23155679.0810   22009979.025           0.000
 -16997645.5820   22000165.066           0.000
 -10637301.7710   21568584.089           0.000
  -6531021.2510   23391934.908           0.000
 -31951429.5150   22536141.902           0.000
 -10706185.5240   21752523.460           0.000
 -10381822.9060   23437672.810           0.000
  -7529303.9260   23070473.611           0.000
 05 10 24 18 59 40.0000000  0  9G15G 6G24G19G17G11G13G12G22
 -12762111.5340   22331666.011           0.000
 -23210219.1950   22007861.727           0.000
 -17067510.0920   21995131.984           0.000
 -10652671.4640   21573920.020           0.000
  -6541584.7030   23398186.341           0.000
 -32021477.3730   22531073.619           0.000
 -10721022.2380   21757960.700           0.000
 -10437289.4570   23435377.934           0.000
  -7555450.2930   23073757.460           0.000
 05 10 24 18 59 50.0000000  0  9G15G 6G24G19G17G11G13G12G22
 -12793263.4730   22333999.052           0.000
 -23264703.7790   22005755.484           0.000
 -17137346.5720   21990102.372           0.000
 -10668011.5830   21579262.141           0.000
  -6552135.5100   23404438.812           0.000
 -32091498.6920   22526010.525           0.000
 -10735826.6270   21763404.845           0.000
 -10492752.1000   23433085.099           0.000
  -7581591.3750   23077042.777           0.000
 05 10 24 19  0  0.0000000  0  9G15G 6G24G19G17G11G13G12G22
 -12824377.0410   22336340.877           0.000
 -23319134.1750   22003660.458           0.000
 -17207156.3070   21985079.828           0.000
 -10683323.6420   21584611.758           0.000
  -6562675.2670   23410692.770           0.000
 -32161494.7640   22520952.494           0.000
 -10750600.2480   21768855.915           0.000
 -10548212.2910   23430794.037           0.000
  -7607728.4690   23080329.725           0.000
 05 10 24 19  0 10.0000000  0  9G15G 6G24G19G17G11G13G12G22
 -12855452.7420   22338687.834           0.000
 -23373510.6210   22001573.855           0.000
 -17276939.5670   21980061.701           0.000
 -10698608.0450   21589963.645           0.000
  -6573204.3090   23416948.140           0.000
 -32231465.8070   22515897.735           0.000
 -10765343.5780   21774311.258           0.000
 -10603670.5360   23428502.240           0.000
  -7633861.9920   23083618.083           0.000
 05 10 24 19  0 20.0000000  0  9G15G 6G24G19G17G11G13G12G22
 -12886490.4070   22341043.265           0.000
 -23427832.8480   21999498.587           0.000
 -17346696.0460   21975050.045           0.000
 -10713864.7130   21595322.289           0.000
  -6583722.7100   23423207.118           0.000
 -32301411.5190   22510850.735           0.000
 -10780056.5610   21779773.930           0.000
 -10659126.4650   23426210.904           0.000
  -7659991.6130   23086904.184           0.000
 05 10 24 19  0 30.0000000  0  9G15G 6G24G19G17G11G13G12G22
 -12917489.6720   22343401.444           0.000
 -23482100.3710   21997428.501           0.000
 -17416425.2800   21970038.990           0.000
 -10729093.3730   21600681.679           0.000
  -6594229.7140   23429465.125           0.000
 -32371331.4010   22505803.335           0.000
 -10794738.9150   21785237.204           0.000
 -10714579.9100   23423914.160           0.000
         0.0000   23090195.466           0.000
 05 10 24 19  0 40.0000000  0  9G15G 6G24G19G17G11G13G12G22
 -12948450.5370   22345764.993           0.000
 -23536313.0620   21995368.220           0.000
 -17486127.0610   21965030.872           0.000
 -10744294.0670   21606045.149           0.000
  -6604725.7940   23435723.493           0.000
 -32441225.2620   22500759.015           0.000
 -10809390.6540   21790706.133           0.000
 -10770030.8100   23421618.779           0.000
         0.0000   23093487.967           0.000
 05 10 24 19  0 50.0000000  0  7G15G 6G24G19G11G13G12
 -12979373.3330   22348136.832           0.000
 -23590470.9380   21993317.803           0.000
 -17555801.3930   21960027.754           0.000
 -10759467.0030   21611414.049           0.000
 -32511093.0720   22495719.694           0.000
 -10824012.0040   21796180.205           0.000
 -10825479.1680   23419324.391           0.000
 05 10 24 19  1  0.0000000  0  8G15G 6G24G19G17G11G13G12
 -13010259.1750   22350514.423           0.000
 -23644574.9170   21991278.290           0.000
 -17625449.2430   21955029.815           0.000
 -10774613.2520   21616788.128           0.000
         0.0000   23448242.957           0.000
 -32580935.7020   22490685.123           0.000
 -10838604.0840   21801659.600           0.000
 -10880926.0970   23417029.029           0.000
 05 10 24 19  1 10.0000000  0  8G15G 6G24G19G17G11G13G12
 -13041108.8930   22352903.440           0.000
 -23698625.7350   21989253.923           0.000
 -17695071.2530   21950042.443           0.000
 -10789733.7210   21622169.913           0.000
         0.0000   23454514.345           0.000
 -32650753.8450   22485659.833           0.000
 -10853167.7870   21807147.988           0.000
 -10936372.4150   23414738.225           0.000
 05 10 24 19  1 20.0000000  0  8G15G 6G24G19G17G11G13G12
 -13071921.4000   22355297.604           0.000
 -23752622.1610   21987235.704           0.000
 -17764666.1740   21945056.355           0.000
 -10804827.3750   21627553.553           0.000
         0.0000   23460779.574           0.000
 -32720546.2580   22480636.397           0.000
 -10867702.0950   21812638.804           0.000
 -10991816.9510   23412445.269           0.000
 05 10 24 19  1 30.0000000  0  8G15G 6G24G19G17G11G13G12
 -13102696.5080   22357702.822           0.000
 -23806563.7770   21985230.972           0.000
 -17834233.5970   21940078.602           0.000
 -10819894.0460   21632946.673           0.000
         0.0000   23467053.712           0.000
 -32790312.4930   22475620.868           0.000
 -10882206.7990   21818139.387           0.000
 -11047259.5070   23410157.502           0.000
 05 10 24 19  1 40.0000000  0  7G15G 6G24G19G11G13G12
 -13133433.9880   22360111.836           0.000
 -23860450.2410   21983233.470           0.000
 -17903773.1280   21935102.785           0.000
 -10834933.5090   21638340.871           0.000
 -32860052.1100   22470605.844           0.000
 -10896681.7790   21823642.620           0.000
 -11102699.7480   23407865.945           0.000
 05 10 24 19  1 50.0000000  0  8G15G 6G24G19G17G11G13G12
 -13164133.7550   22362528.320           0.000
 -23914281.2990   21981248.446           0.000
 -17973284.5610   21930133.579           0.000
 -10849945.6810   21643743.540           0.000
         0.0000   23479599.448           0.000
 -32929764.8790   22465598.146           0.000
 -10911127.0000   21829152.465           0.000
 -11158137.5460   23405574.562           0.000
 05 10 24 19  2  0.0000000  0  8G15G 6G24G19G17G11G13G12
 -13194797.0210   22364953.982           0.000
 -23968057.9820   21979273.746           0.000
 -18042768.8330   21925170.834           0.000
 -10864931.7140   21649153.385           0.000
         0.0000   23485876.000           0.000
 -32999451.7270   22460596.337           0.000
 -10925543.6240   21834668.341           0.000
 -11213574.0100   23403284.201           0.000
 05 10 24 19  2 10.0000000  0  8G15G 6G24G19G17G11G13G12
 -13225423.9000   22367377.113           0.000
 -24021780.3570   21977300.521           0.000
 -18112225.9760   21920204.268           0.000
 -10879891.9240   21654557.693           0.000
         0.0000   23492143.725           0.000
 -33069112.7000   22455590.707           0.000
 -10939931.8830   21840179.968           0.000
 -11269009.2510   23400985.156           0.000
 05 10 24 19  2 20.0000000  0  8G15G 6G24G19G17G11G13G12
 -13256014.5870   22369814.243           0.000
 -24075448.3730   21975345.015           0.000
 -18181655.9820   21915250.128           0.000
 -10894826.4970   21659974.568           0.000
  -6269477.8970   23498423.302           0.000
 -33138747.7280   22450598.361           0.000
 -10954292.0010   21845705.450           0.000
 -11324443.4740   23398693.813           0.000
 05 10 24 19  2 30.0000000  0  8G15G 6G24G19G17G11G13G12
 -13286567.2410   22372259.621           0.000
 -24129060.0690   21973403.194           0.000
 -18251056.8430   21910302.948           0.000
 -10909733.5490   21665397.117           0.000
         0.0000   23504704.545           0.000
 -33208354.8200   22445612.547           0.000
 -10968622.1390   21851237.751           0.000
 -11379874.7170   23396403.421           0.000
 05 10 24 19  2 40.0000000  0  7G15G 6G24G19G11G13G12
 -13317082.4400   22374711.857           0.000
 -24182615.7820   21971470.951           0.000
 -18320428.8770   21905360.050           0.000
 -10924613.6670   21670823.805           0.000
 -33277934.2380   22440630.728           0.000
 -10982922.8060   21856775.478           0.000
 -11435303.4480   23394113.304           0.000
 05 10 24 19  2 50.0000000  0  7G15G 6G24G19G11G13G12
 -13347560.9570   22377173.012           0.000
 -24236116.1790   21969551.203           0.000
 -18389772.6900   21900425.070           0.000
 -10939467.7000   21676258.696           0.000
 -33347486.5980   22435655.539           0.000
 -10997194.9470   21862321.265           0.000
 -11490730.4590   23391825.381           0.000
 05 10 24 19  3  0.0000000  0  7G15G 6G24G19G11G13G12
 -13378003.5500   22379635.594           0.000
 -24289561.8890   21967637.033           0.000
 -18459088.9310   21895490.658           0.000
 -10954296.4040   21681691.723           0.000
 -33417012.4740   22430680.060           0.000
 -11011439.2280   21867867.478           0.000
 -11546156.3770   23389534.879           0.000
 05 10 24 19  3 10.0000000  0  7G15G 6G24G19G11G13G12
 -13408410.0180   22382107.013           0.000
 -24342952.4330   21965734.705           0.000
 -18528377.0340   21890562.508           0.000
 -10969099.5460   21687132.014           0.000
 -33486511.3200   22425711.844           0.000
 -11025655.4540   21873420.239           0.000
 -11601580.9320   23387244.771           0.000
 05 10 24 19  3 20.0000000  0  7G15G 6G24G19G11G13G12
 -13438779.3720   22384582.352           0.000
 -24396286.7720   21963839.586           0.000
 -18597636.0130   21885636.560           0.000
 -10983876.2200   21692574.363           0.000
 -33555982.1410   22420746.116           0.000
 -11039842.8490   21878974.772           0.000
 -11657003.2790   23384952.716           0.000
 05 10 24 19  3 30.0000000  0  7G15G 6G24G19G11G13G12
 -13469110.7580   22387069.164           0.000
 -24449563.8760   21961959.662           0.000
 -18666864.7620   21880721.227           0.000
 -10998625.5890   21698024.609           0.000
 -33625423.8310   22415790.145           0.000
 -11054000.5120   21884539.921           0.000
 -11712422.3310   23382664.694           0.000
 05 10 24 19  3 40.0000000  0  7G15G 6G24G19G11G13G12
 -13499404.4610   22389559.108           0.000
 -24502783.8520   21960086.877           0.000
 -18736063.4170   21875808.311           0.000
 -11013347.9200   21703477.844           0.000
 -33694836.4330   22410836.304           0.000
 -11068128.7860   21890106.198           0.000
 -11767838.2880   23380374.653           0.000
 05 10 24 19  3 50.0000000  0  7G15G 6G24G19G11G13G12
 -13529660.6550   22392057.519           0.000
 -24555946.7250   21958226.136           0.000
 -18805231.8910   21870902.573           0.000
 -11028043.4210   21708936.684           0.000
 -33764219.9330   22405889.213           0.000
 -11082227.8090   21895678.510           0.000
 -11823251.3740   23378086.353           0.000
 05 10 24 19  4  0.0000000  0  7G15G 6G24G19G11G13G12
 -13559879.7090   22394562.514           0.000
 -24609052.6620   21956375.556           0.000
 -18874370.4140   21866001.989           0.000
 -11042712.4100   21714400.390           0.000
 -33833574.4600   22400945.988           0.000
 -11096297.9720   21901255.546           0.000
 -11878661.7930   23375797.339           0.000
 05 10 24 19  4 10.0000000  0  8G15G 6G24G19G17G11G13G12
 -13590062.6140   22397060.941           0.000
 -24662102.4820   21954523.416           0.000
 -18943479.7640   21861093.119           0.000
 -11057355.9600   21719857.100           0.000
         0.0000   23567602.086           0.000
 -33902900.7950   22395996.480           0.000
 -11110340.2480   21906825.298           0.000
 -11934070.5100   23373497.321           0.000
 05 10 24 19  4 20.0000000  0  9G15G 6G24G19G17G11G13G12G22
 -13620208.5040   22399576.602           0.000
 -24715095.1610   21952690.799           0.000
 -19012558.8390   21856199.480           0.000
 -11071973.1740   21725328.610           0.000
  -6281735.0110   23573899.094           0.000
 -33972197.8630   22391062.346           0.000
 -11124353.8580   21912411.425           0.000
 -11989476.5320   23371206.095           0.000
  -7334192.8510   23165967.062           0.000
 05 10 24 19  4 30.0000000  0  9G15G 6G24G19G17G11G13G12G22
 -13650317.5070   22402101.349           0.000
 -24768030.8100   21950871.705           0.000
 -19081607.7320   21851314.069           0.000
 -11086564.2400   21730807.490           0.000
  -6292005.0830   23580200.180           0.000
 -34041465.6980   22386135.724           0.000
 -11138339.0550   21918004.349           0.000
 -12044880.1110   23368917.802           0.000
  -7360216.1280   23169266.366           0.000
 05 10 24 19  4 40.0000000  0  9G15G 6G24G19G17G11G13G12G22
 -13680390.4890   22404632.886           0.000
 -24820909.9730   21949062.691           0.000
 -19150627.0210   21846433.015           0.000
 -11101129.9880   21736290.298           0.000
  -6302266.2520   23586501.903           0.000
 -34110704.8720   22381213.889           0.000
 -11152296.6360   21923602.203           0.000
 -12100281.8390   23366628.429           0.000
  -7386234.8930   23172568.166           0.000
 05 10 24 19  4 50.0000000  0  9G15G 6G24G19G17G11G13G12G22
 -13710427.0540   22407168.077           0.000
 -24873732.2140   21947263.056           0.000
 -19219616.2130   21841556.617           0.000
 -11115670.1800   21741775.758           0.000
  -6312518.1920   23592805.419           0.000
 -34179914.8260   22376295.565           0.000
 -11166226.2770   21929202.136           0.000
 -12155681.3830   23364336.414           0.000
  -7412248.7530   23175871.046           0.000
 05 10 24 19  5  0.0000000  0  9G15G 6G24G19G17G11G13G12G22
 -13740428.3570   22409714.617           0.000
 -24926498.4690   21945478.490           0.000
 -19288576.2200   21836690.853           0.000
 -11130185.8170   21747269.706           0.000
  -6322761.9440   23599111.843           0.000
 -34249096.5180   22371387.160           0.000
 -11180129.1640   21934812.275           0.000
 -12211079.8210   23362049.739           0.000
  -7438258.7120   23179172.396           0.000
 05 10 24 19  5 10.0000000  0  9G15G 6G24G19G17G11G13G12G22
 -13770393.9240   22412268.913           0.000
 -24979208.0090   21943705.686           0.000
 -19357506.3340   21831831.556           0.000
 -11144676.4390   21752769.692           0.000
         0.0000   23605420.728           0.000
 -34318249.1440   22366485.221           0.000
 -11194004.8240   21940428.308           0.000
 -12266476.5000   23359764.237           0.000
  -7464264.1240   23182478.210           0.000
 05 10 24 19  5 20.0000000  0  9G15G 6G24G19G17G11G13G12G22
 -13800324.0230   22414826.482           0.000
 -25031861.0070   21941939.160           0.000
 -19426406.5760   21826972.957           0.000
 -11159142.3450   21758269.517           0.000
         0.0000   23611725.302           0.000
 -34387372.8290   22361584.267           0.000
 -11207853.5200   21946046.471           0.000
 -12321871.6050   23357474.853           0.000
  -7490265.1870   23185785.152           0.000
 05 10 24 19  5 30.0000000  0  9G15G 6G24G19G17G11G13G12G22
 -13830220.0970   22417390.173           0.000
 -25084458.7030   21940183.335           0.000
 -19495278.2930   21822119.335           0.000
 -11173584.8830   21763773.747           0.000
  -6353444.2640   23618033.708           0.000
 -34456468.7740   22356688.147           0.000
 -11221676.7040   21951669.324           0.000
 -12377266.6400   23355185.724           0.000
  -7516263.2000   23189088.771           0.000
 05 10 24 19  5 40.0000000  0  9G15G 6G24G19G17G11G13G12G22
 -13860080.9400   22419959.880           0.000
 -25136999.8170   21938437.819           0.000
 -19564120.0690   21817271.300           0.000
 -11188003.0560   21769281.990           0.000
  -6363656.2530   23624342.551           0.000
 -34525535.6350   22351797.185           0.000
 -11235473.2140   21957295.904           0.000
 -12432660.3990   23352896.173           0.000
  -7542256.7990   23192396.117           0.000
 05 10 24 19  5 50.0000000  0  9G15G 6G24G19G17G11G13G12G22
 -13889906.6950   22422536.371           0.000
 -25189484.3190   21936702.521           0.000
 -19632931.8770   21812428.618           0.000
 -11202396.8280   21774795.013           0.000
  -6373860.3470   23630652.596           0.000
 -34594573.3150   22346911.431           0.000
 -11249243.2820   21962928.408           0.000
 -12488052.8840   23350606.537           0.000
  -7568246.2650   23195703.521           0.000
 05 10 24 19  6  0.0000000  0  9G15G 6G24G19G17G11G13G12G22
 -13919698.4330   22425120.065           0.000
 -25241913.2090   21934977.431           0.000
 -19701714.7090   21807592.423           0.000
 -11216767.6130   21780312.950           0.000
  -6384057.7240   23636963.977           0.000
 -34663582.8470   22342031.594           0.000
 -11262988.1370   21968566.543           0.000
 -12543444.9820   23348315.947           0.000
         0.0000   23199011.976           0.000
 05 10 24 19  6 10.0000000  0  9G15G 6G24G19G17G11G13G12G22
 -13949456.0110   22427710.239           0.000
 -25294285.9960   21933262.399           0.000
 -19770468.0650   21802761.279           0.000
 -11231115.1050   21785833.218           0.000
  -6394248.0040   23643275.687           0.000
 -34732563.6150   22337157.378           0.000
 -11276707.3930   21974207.867           0.000
 -12598836.5580   23346029.264           0.000
         0.0000   23202318.326           0.000
 05 10 24 19  6 20.0000000  0  9G15G 6G24G19G17G11G13G12G22
 -13979179.6280   22430305.159           0.000
 -25346602.8920   21931556.834           0.000
 -19839192.0820   21797934.450           0.000
 -11245439.5390   21791357.516           0.000
  -6404431.4660   23649587.133           0.000
 -34801515.7990   22332286.763           0.000
 -11290401.3660   21979852.647           0.000
 -12654227.8850   23343741.887           0.000
  -7348968.7460   23205626.702           0.000
 05 10 24 19  6 30.0000000  0  9G15G 6G24G19G17G11G13G12G22
 -14008869.5920   22432908.891           0.000
 -25398863.9250   21929865.519           0.000
 -19907886.8100   21793115.861           0.000
 -11259741.2540   21796889.767           0.000
  -6414608.3710   23655903.385           0.000
 -34870439.4210   22327424.817           0.000
 -11304070.4270   21985505.096           0.000
 -12709619.1310   23341455.023           0.000
  -7374944.8530   23208934.589           0.000
 05 10 24 19  6 40.0000000  0  9G15G 6G24G19G17G11G13G12G22
 -14038525.9390   22435518.893           0.000
 -25451068.9810   21928185.053           0.000
 -19976552.0600   21788303.398           0.000
 -11274020.2500   21802426.142           0.000
  -6424778.8110   23662220.469           0.000
 -34939334.2960   22322568.712           0.000
 -11317714.6070   21991163.099           0.000
 -12765010.2710   23339169.421           0.000
  -7400917.7450   23212245.169           0.000
 05 10 24 19  6 50.0000000  0  9G15G 6G24G19G17G11G13G12G22
 -14068147.9960   22438134.069           0.000
 -25503217.2510   21926514.912           0.000
 -20045186.9570   21783494.536           0.000
 -11288275.8510   21807967.118           0.000
  -6434942.0190   23668539.580           0.000
 -35008199.4970   22317716.779           0.000
 -11331333.2300   21996825.274           0.000
 -12820400.4230   23336881.982           0.000
  -7426886.4440   23215554.913           0.000
 05 10 24 19  7  0.0000000  0  9G15G 6G24G19G17G11G13G12G22
 -14097737.0620   22440755.021           0.000
 -25555309.8330   21924853.123           0.000
 -20113792.6580   21778690.305           0.000
 -11302509.3220   21813509.148           0.000
  -6445099.2690   23674859.172           0.000
 -35077036.1970   22312867.617           0.000
 -11344927.7070   22002489.219           0.000
 -12875790.8370   23334592.305           0.000
         0.0000   23218864.424           0.000
 05 10 24 19  7 10.0000000  0  9G15G 6G24G19G17G11G13G12G22
 -14127292.2010   22443381.401           0.000
 -25607345.6950   21923201.198           0.000
 -20182368.0350   21773891.073           0.000
 -11316719.7950   21819055.177           0.000
  -6455249.7680   23681178.325           0.000
 -35145843.2010   22308024.313           0.000
 -11358497.1290   22008157.304           0.000
 -12931180.7150   23332303.335           0.000
  -7478814.2800   23222176.930           0.000
 05 10 24 19  7 20.0000000  0  9G15G 6G24G19G17G11G13G12G22
 -14156814.1080   22446014.232           0.000
 -25659325.4070   21921561.017           0.000
 -20250913.6480   21769097.576           0.000
 -11330907.9870   21824606.796           0.000
  -6465394.1930   23687498.778           0.000
 -35214621.1170   22303186.601           0.000
 -11372042.2320   22013830.981           0.000
 -12986570.7230   23330015.234           0.000
         0.0000   23225488.731           0.000
 05 10 24 19  7 30.0000000  0  8G15G 6G24G19G17G11G13G12
 -14186303.3360   22448654.567           0.000
 -25711249.4910   21919932.635           0.000
 -20319430.0100   21764310.439           0.000
 -11345074.4640   21830161.199           0.000
  -6475533.2470   23693820.868           0.000
 -35283370.3670   22298356.107           0.000
 -11385563.7200   22019508.872           0.000
 -13041961.4210   23327727.341           0.000
 05 10 24 19  7 40.0000000  0  8G15G 6G24G19G17G11G13G12
 -14215760.5350   22451303.939           0.000
 -25763118.1820   21918318.582           0.000
 -20387917.3010   21759534.771           0.000
 -11359219.8550   21835725.782           0.000
  -6485667.2950   23700146.557           0.000
 -35352091.1460   22293535.222           0.000
 -11399062.0020   22025196.801           0.000
 -13097353.0470   23325443.761           0.000
 05 10 24 19  7 50.0000000  0  8G15G 6G24G19G17G11G13G12
 -14245185.3270   22453957.617           0.000
 -25814930.9330   21916711.984           0.000
 -20456375.0010   21754761.263           0.000
 -11373343.8020   21841291.380           0.000
  -6495795.9100   23706471.259           0.000
 -35420782.9080   22288716.639           0.000
 -11412536.7740   22030886.603           0.000
 -13152745.2060   23323156.761           0.000
 05 10 24 19  8  0.0000000  0  8G15G 6G24G19G17G11G13G12
 -14274578.1860   22456615.940           0.000
 -25866688.1610   21915114.754           0.000
 -20524803.4450   21749991.398           0.000
 -11387446.7660   21846860.193           0.000
  -6505919.6020   23712797.028           0.000
 -35489445.9730   22283901.987           0.000
 -11425988.5580   22036578.761           0.000
 -13208138.4010   23320868.969           0.000
 05 10 24 19  8 10.0000000  0  8G15G 6G24G19G17G11G13G12
 -14303938.2910   22459283.559           0.000
 -25918388.8450   21913531.685           0.000
 -20593201.5650   21745231.402           0.000
 -11401527.9510   21852436.156           0.000
  -6516037.3950   23719125.368           0.000
 -35558079.2690   22279097.203           0.000
 -11439416.5370   22042278.927           0.000
 -13263531.7120   23318583.605           0.000
 05 10 24 19  8 20.0000000  0  8G15G 6G24G19G17G11G13G12
 -14333265.4090   22461956.490           0.000
 -25970032.8110   21911957.218           0.000
 -20661569.1470   21740474.571           0.000
 -11415587.2840   21858013.996           0.000
  -6526149.3820   23725454.011           0.000
 -35626682.5270   22274295.441           0.000
 -11452820.6710   22047980.256           0.000
 -13318924.9890   23316296.397           0.000
