     2.11           OBSERVATION DATA    G                   RINEX VERSION / TYPE
SpecSurv v4.22                          26-May-25 10:42     PGM / RUN BY / DATE 
gfzrnx-2.1.12       FILE PROCESSING     20250620 205822 UTC COMMENT             
00451420                                                    MARKER NAME         
                                                            MARKER NUMBER       
                                                            OBSERVER / AGENCY   
07430045                                169-614678-005      REC # / TYPE / VERS 
                    <None>          NONE                    ANT # / TYPE        
        0.0000        0.0000        0.0000                  ANTENNA: DELTA H/E/N
  3982633.8118 -4353689.6150 -2415263.6243                  APPROX POSITION XYZ 
     2    C1    L1                                          # / TYPES OF OBSERV 
     1     1                                                WAVELENGTH FACT L1/2
     1     0     7   G 5   G 6   G13   G14   G15   G17   G19WAVELENGTH FACT L1/2
     1     0     3   G22   G24   G30                        WAVELENGTH FACT L1/2
GFZRNX.NUM_EPOCHS: 129                                      COMMENT
    10                                                      # OF SATELLITES     
   G05   116   104                                          PRN / # OF OBS      
   G06   129   129                                          PRN / # OF OBS      
   G13   129   129                                          PRN / # OF OBS      
   G14   129   129                                          PRN / # OF OBS      
   G15   129   129                                          PRN / # OF OBS      
   G17   129   129                                          PRN / # OF OBS      
   G19   129   129                                          PRN / # OF OBS      
   G22   129   129                                          PRN / # OF OBS      
   G24   112   111                                          PRN / # OF OBS      
   G30   129   129                                          PRN / # OF OBS      
    10.000                                                  INTERVAL            
  2025     5    22    18    24    0.0000000     GPS         TIME OF FIRST OBS   
  2025     5    22    18    45   20.0000000     GPS         TIME OF LAST OBS    
                                                            END OF HEADER      
 25 05 22 18 24 00.0000000  0  9G05G06G13G14G15G17G19G22G30         
  24648143.052     1018461.7720 
  24675170.684      985547.3110 
  20246633.816      997988.3200 
  22014122.836     1021662.8620 
  22851185.539      987789.9320 
  20569155.138     1009657.5480 
  20047153.518      997763.5910 
  21079546.424     1015114.6950 
  22241593.632     1015971.0120 
 25 05 22 18 24 10.0000000  0  9G05G06G13G14G15G17G19G22G30         
  24651363.147      980995.7210 
  24670656.231      907430.2050 
  20245054.322      935301.3620 
  22018095.738      988148.2550 
  22847208.969      912495.4830 
  20570318.573      961379.8120 
  20045522.797      934803.9230 
  21081983.663      973531.4460 
  22244233.203      975451.6220 
 25 05 22 18 24 20.0000000  0  9G05G06G13G14G15G17G19G22G30         
  24654601.157      943466.2590 
  24666156.116      829231.9360 
  20243504.476      872612.7010 
  22022084.980      954570.4850 
  22843256.895      837180.5110 
  20571510.226      913102.4070 
  20043920.436      871847.1220 
  21084441.535      931901.5330 
  22246894.123      934894.1620 
 25 05 22 18 24 30.0000000  0  9G05G06G13G14G15G17G19G22G30         
  24657843.728      905875.2740 
  24661654.838      750954.7830 
  20241971.355      809924.6640 
  22026077.926      920931.7110 
  22839317.826      761847.3700 
  20572719.604      864827.5000 
  20042336.374      808895.4520 
  21086907.404      890227.0560 
  22249564.327      894300.8750 
 25 05 22 18 24 40.0000000  0  9G05G06G13G14G15G17G19G22G30         
  24661086.376      868225.3310 
  24657151.634      672601.1020 
  20240449.900      747239.5110 
  22030070.948      887234.1760 
  22835386.847      686498.3160 
  20573941.364      816557.2790 
  20040766.411      745951.1270 
  21089376.497      848510.2630 
  22252240.331      853674.0720 
 25 05 22 18 24 50.0000000  0  9G05G06G13G14G15G17G19G22G30         
  24664326.563      830517.6390 
  24652645.827      594172.3590 
  20238939.436      684558.6100 
  22034065.229      853479.2040 
  22831465.140      611134.7250 
  20575175.117      768293.1550 
  20039208.869      683015.5680 
  21091848.567      806752.4060 
  22254920.743      813015.1410 
 25 05 22 18 25 00.0000000  0  9G05G06G13G14G15G17G19G22G30         
  24667568.800      792751.8910 
  24648134.913      515668.6310 
  20237440.750      621882.0350 
  22038059.700      819666.6900 
  22827550.634      535756.6620 
  20576420.791      720035.0320 
  20037664.251      620088.7460 
  21094323.830      764953.4320 
  22257607.210      772324.0240 
 25 05 22 18 25 10.0000000  0  9G05G06G13G14G15G17G19G22G30         
  24670811.189      754929.8710 
  24643623.152      437091.8530 
  20235954.810      559211.7670 
  22042053.465      785798.4910 
  22823643.865      460366.1750 
  20577678.639      671784.7810 
  20036131.664      557172.6840 
  21096801.966      723115.2050 
  22260298.695      731602.6790 
 25 05 22 18 25 20.0000000  0  9G05G06G13G14G15G17G19G22G30         
  24674053.663      717052.8330 
  24639106.179      358443.4610 
  20234478.828      496549.2110 
  22046047.314      751875.8210 
  22819743.619      384964.4810 
  20578946.873      623543.6600 
  20034609.176      494268.8000 
  21099281.902      681238.9260 
  22262993.127      690852.4260 
 25 05 22 18 25 30.0000000  0  9G05G06G13G14G15G17G19G22G30         
  24677297.616      679120.7440 
  24634585.679      279723.4950 
  20233016.345      433894.3930 
  22050042.357      717898.7080 
  22815853.724      309551.6840 
  20580229.465      575311.6800 
  20033101.905      431376.9470 
  21101766.610      639324.6440 
  22265693.044      650073.2580 
 25 05 22 18 25 40.0000000  0  9G05G06G13G14G15G17G19G22G30         
  24680541.370      641134.6630 
  24630062.833      200933.3480 
  20231566.255      371248.4020 
  22054037.630      683868.2850 
  22811972.360      234129.0300 
  20581524.308      527090.0610 
  20031607.027      368498.3740 
  21104253.837      597373.4340 
  22268398.630      609266.4050 
 25 05 22 18 25 50.0000000  0  9G05G06G13G14G15G17G19G22G30         
  24683784.074      603096.9300 
  24625536.647      122075.2530 
  20230127.134      308613.5980 
  22058033.140      649786.7500 
  22808098.100      158698.8450 
  20582830.405      478880.9190 
  20030123.977      305635.3940 
  21106744.593      555387.4360 
  22271109.032      568434.1550 
 25 05 22 18 26 00.0000000  0  9G05G06G13G14G15G17G19G22G30         
  24687027.458      565006.2220 
  24621009.567       43148.4050 
  20228701.572      245989.0970 
  22062029.045      615653.0960 
  22804232.821       83260.3210 
  20584149.203      430683.2270 
  20028655.344      242787.1320 
  21109238.748      513365.6370 
  22273824.407      527575.5720 
 25 05 22 18 26 10.0000000  0  9G05G06G13G14G15G17G19G22G30         
  24690272.427      526863.6330 
  24616476.632      -35846.0400 
  20227287.181      183376.0720 
  22066024.102      581468.3990 
  22800376.567        7814.5090 
  20585479.602      382498.1170 
  20027199.171      179954.6400 
  21111735.918      471309.1990 
  22276544.085      486691.7570 
 25 05 22 18 26 20.0000000  0  9G05G06G13G14G15G17G19G22G30         
  24693514.147      488670.4840 
  24611942.450     -114906.7320 
  20225886.427      120775.7870 
  22070020.917      547233.8950 
  22796531.802      -67637.2240 
  20586824.066      334326.8690 
  20025757.492      117139.2970 
  21114238.997      429219.1990 
  22279271.246      445784.0160 
 25 05 22 18 26 30.0000000  0  9G05G06G13G14G15G17G19G22G30         
  24696756.934      450425.7820 
  24607406.188     -194034.1630 
  20224498.044       58187.7060 
  22074018.658      512948.8860 
  22792694.402     -143095.3420 
  20588182.333      286168.7670 
  20024329.616       54340.4270 
  21116745.577      387095.0630 
  22282003.482      404851.7360 
 25 05 22 18 26 40.0000000  0  9G05G06G13G14G15G17G19G22G30         
  24700000.723      412130.8280 
  24602868.066     -273226.7640 
  20223121.824       -4386.7190 
  22078015.540      478614.7840 
  22788863.583     -218558.3540 
  20589552.190      238025.2490 
  20022914.046       -8440.4840 
  21119254.160      344938.0540 
  22284741.155      363896.3870 
 25 05 22 18 26 50.0000000  0 10G05G06G13G14G15G17G19G22G24G30      
  24703245.336      373786.7410 
  24598324.901     -352483.3850 
  20221756.588      -66946.3180 
  22082011.242      444232.6780 
  22785042.031     -294025.1310 
  20590932.745      189897.4200 
  20021510.175      -71202.2580 
  21121765.426      302749.3460 
  25520443.588                  
  22287483.372      322919.0940 
 25 05 22 18 27 00.0000000  0 10G05G06G13G14G15G17G19G22G24G30      
  24706487.865      335392.6330 
  24593779.080     -431804.7030 
  20220403.434     -129491.8020 
  22086008.868      409801.7140 
  22781228.840     -369496.3850 
  20592325.525      141784.4740 
  20020118.672     -133945.7000 
  21124279.045      260528.0900 
  25515329.693      963137.0810 
  22290230.517      281919.0880 
 25 05 22 18 27 10.0000000  0 10G05G06G13G14G15G17G19G22G24G30      
  24709730.890      296949.7900 
  24589231.179     -511189.1750 
  20219062.938     -192021.6920 
  22090006.702      375323.3380 
  22777424.874     -444970.5700 
  20593731.822       93687.8200 
  20018741.688     -196669.2560 
  21126798.454      218275.6770 
  25510213.717      880749.0320 
  22292983.452      240897.8820 
 25 05 22 18 27 20.0000000  0 10G05G06G13G14G15G17G19G22G24G30      
  24712972.627      258459.6520 
  24584678.843     -590635.5060 
  20217732.030     -254534.7010 
  22094002.534      340798.7230 
  22773629.923     -520446.4610 
  20595148.850       45608.5790 
  20017375.865     -259371.6470 
  21129319.151      175993.2490 
  25505090.014      798297.5190 
  22295739.535      199856.7050 
 25 05 22 18 27 30.0000000  0 10G05G06G13G14G15G17G19G22G24G30      
  24716214.284      219922.0910 
  24580126.855     -670143.3930 
  20216415.350     -317030.6060 
  22098000.861      306228.0020 
  22769843.191     -595923.7890 
  20596578.820       -2452.9470 
  20016024.271     -322052.7950 
  21131841.771      133680.9570 
  25499962.653      715782.7500 
  22298501.262      158795.7320 
 25 05 22 18 27 40.0000000  0 10G05G06G13G14G15G17G19G22G24G30      
  24719459.064      181337.1880 
  24575572.553     -749712.4540 
  20215113.671     -379509.1270 
  22102001.596      271611.3620 
  22766065.592     -671402.2330 
  20598023.647      -50496.7030 
  20014688.393     -384712.2950 
  21134371.092       91338.9550 
  25494829.688      633205.0880 
  22301271.406      117715.2740 
 25 05 22 18 27 50.0000000  0 10G05G06G13G14G15G17G19G22G24G30      
  24722702.480      142705.8910 
  24571015.599     -829341.5090 
  20213824.364     -441969.1040 
  22105999.392      236949.9090 
  22762298.076     -746880.5590 
  20599481.133      -98521.6810 
  20013365.460     -447349.0800 
  21136903.913       48968.3260 
  25489697.361      550565.6270 
  22304047.197       76616.4340 
 25 05 22 18 28 00.0000000  0 10G05G06G13G14G15G17G19G22G24G30      
  24725943.083      104028.7000 
  24566453.828     -909029.9700 
  20212545.981     -504409.9680 
  22109997.523      202244.0980 
  22758538.622     -822358.2540 
  20600948.827     -146527.2790 
  20012053.879     -509962.6300 
  21139438.357        6569.5110 
  25484564.081      467864.9100 
  22306826.758       35499.7540 
 25 05 22 18 28 10.0000000  0 10G05G06G13G14G15G17G19G22G24G30      
  24729185.842       65305.2010 
  24561888.205     -988778.3010 
  20211277.624     -566832.1990 
  22113996.094      167493.3660 
  22754786.619     -897835.8460 
  20602426.834     -194514.0650 
  20010753.041     -572553.4670 
  21141974.386      -35858.0830 
  25479426.376      385102.4700 
  22309609.048       -5635.2860 
 25 05 22 18 28 20.0000000  0 10G05G06G13G14G15G17G19G22G24G30      
  24732428.246       26535.8260 
  24557320.651    -1068585.5980 
  20210021.647     -629235.0780 
  22117993.594      132698.4060 
  22751043.275     -973312.5200 
  20603917.792     -242481.3860 
  20009465.583     -635120.8170 
  21144514.924      -78313.7520 
  25474284.595      302279.0020 
  22312396.133      -46787.9180 
 25 05 22 18 28 30.0000000  0 10G05G06G13G14G15G17G19G22G24G30      
  24735669.076      -12279.0910 
  24552751.381    -1148451.3200 
  20208778.835     -691618.0230 
  22121992.239       97859.6560 
  22747310.233    -1048787.6320 
  20605422.058     -290428.7520 
  20008193.151     -697664.0480 
  21147058.609     -120797.1310 
  25469141.526      219395.0880 
  22315190.229      -87957.6270 
 25 05 22 18 28 40.0000000  0 10G05G06G13G14G15G17G19G22G24G30      
  24738908.398      -51139.1180 
  24548180.173    -1228375.0600 
  20207548.251     -753980.6600 
  22125992.237       62977.3850 
  22743585.558    -1124260.8090 
  20606937.552     -338355.8310 
  20006932.947     -760182.8290 
  21149604.794     -163307.9350 
  25463992.227      136451.0640 
  22317989.401     -129144.0760 
 25 05 22 18 28 50.0000000  0 10G05G06G13G14G15G17G19G22G24G30      
  24742149.642      -90044.4900 
  24543606.453    -1308356.6950 
  20206331.038     -816323.0450 
  22129992.442       28051.5830 
  22739870.961    -1199732.0650 
  20608467.274     -386262.7020 
  20005687.116     -822677.2340 
  21152156.908     -205846.0820 
  25458840.558       53446.8830 
  22320794.644     -170347.2490 
 25 05 22 18 29 00.0000000  0 10G05G06G13G14G15G17G19G22G24G30      
  24745393.264                  
  24539028.956    -1388395.9920 
  20205126.361     -878644.8920 
  22133991.589       -6917.6620 
  22736164.322    -1275201.0990 
  20610009.819     -434149.2660 
  20004454.250     -885147.1070 
  21154711.972     -248411.5570 
  25453686.687      -29617.2130 
  22323605.270     -211566.9960 
 25 05 22 18 29 10.0000000  0 10G05G06G13G14G15G17G19G22G24G30      
  24748634.485      -21397.0450 
  24534448.343    -1468492.6460 
  20203933.306     -940945.9950 
  22137990.195      -41930.1790 
  22732465.012    -1350667.6980 
  20611564.129     -482015.3690 
  20003233.721     -947592.2190 
  21157270.214     -291004.2510 
  25448530.558     -112740.9930 
  22326421.221     -252803.0430 
 25 05 22 18 29 20.0000000  0 10G05G06G13G14G15G17G19G22G24G30      
  24751876.162      -60436.3080 
  24529863.894    -1548645.0060 
  20202750.438    -1003224.6580 
  22141988.542      -76984.4070 
  22728773.457    -1426130.2420 
  20613128.483     -529859.4410 
  20002025.097    -1010010.9070 
  21159829.200     -333622.5740 
  25443372.311     -195922.8330 
  22329239.919     -294053.8620 
 25 05 22 18 29 30.0000000  0 10G05G06G13G14G15G17G19G22G24G30      
  24755117.142      -99520.3910 
  24525278.461    -1628853.8860 
  20201580.466    -1065481.7480 
  22145987.337     -112081.3080 
  22725092.222    -1501589.5700 
  20614705.876     -577682.4450 
  20000829.511    -1072404.0370 
  21162391.495     -376267.5220 
  25438209.788     -279163.6270 
  22332063.643     -335320.2840 
 25 05 22 18 29 40.0000000  0 10G05G06G13G14G15G17G19G22G24G30      
  24758355.452     -138649.6400 
  24520691.503    -1709119.4640 
  20200423.135    -1127717.6550 
  22149984.749     -147221.2860 
  22721418.333    -1577045.9190 
  20616294.193     -625484.6780 
  19999646.567    -1134771.9760 
  21164957.130     -418939.5200 
  25433044.596     -362463.6810 
  22334893.139     -376602.6390 
 25 05 22 18 29 50.0000000  0 10G05G06G13G14G15G17G19G22G24G30      
  24761595.004     -177821.9480 
  24516101.065    -1789439.3700 
  20199278.780    -1189929.9940 
  22153983.547     -182402.0050 
  22717752.841    -1652496.8850 
  20617896.058     -673263.8970 
  19998477.314    -1197112.3060 
  21167525.724     -461636.2470 
  25427876.639     -445820.6420 
  22337728.743     -417898.5740 
 25 05 22 18 30 00.0000000  0 10G05G06G13G14G15G17G19G22G24G30      
  24764834.165     -217039.4240 
  24511507.947    -1869815.5620 
  20198145.482    -1252120.8560 
  22157983.099     -217625.6440 
  22714095.974    -1727944.5430 
  20619508.694     -721022.2710 
  19997319.833    -1259427.1190 
  21170096.503     -504359.8330 
  25422703.855     -529236.5980 
  22340568.821     -459210.1880 
 25 05 22 18 30 10.0000000  0 10G05G06G13G14G15G17G19G22G24G30      
  24768073.630     -256301.5450 
  24506911.412    -1950247.3920 
  20197026.224    -1314289.5300 
  22161983.241     -252891.6250 
  22710449.712    -1803388.2040 
  20621134.368     -768759.2400 
  19996175.820    -1321715.8410 
  21172672.451     -547109.7210 
  25417527.655     -612710.9310 
  22343416.214     -500536.8620 
 25 05 22 18 30 20.0000000  0 10G05G06G13G14G15G17G19G22G24G30      
  24771314.582     -295606.4510 
  24502313.646    -2030732.8070 
  20195919.900    -1376434.0450 
  22165982.866     -288198.0550 
  22706813.810    -1878825.9040 
  20622773.835     -816472.8860 
  19995047.317    -1383976.4780 
  21175252.175     -589884.0810 
  25412348.220     -696241.6490 
  22346270.102     -541876.6070 
 25 05 22 18 30 30.0000000  0 10G05G06G13G14G15G17G19G22G24G30      
  24774554.916     -334954.6920 
  24497712.828    -2111272.3660 
  20194825.550    -1438555.0840 
  22169982.160     -323545.5990 
  22703187.591    -1954258.2240 
  20624426.135     -864163.8730 
  19993932.076    -1446209.6890 
  21177834.286     -632683.6440 
  25407167.594     -779829.3620 
  22349128.667     -583230.0920 
 25 05 22 18 30 40.0000000  0 10G05G06G13G14G15G17G19G22G24G30      
  24777793.296     -374345.8100 
  24493109.198    -2191865.2960 
  20193742.125    -1500651.8020 
  22173980.500     -358933.6330 
  22699567.861    -2029684.3180 
  20626087.784     -911831.5860 
  19992827.902    -1508414.7840 
  21180417.734     -675507.8110 
  25401984.156     -863473.3520 
  22351989.570     -624596.6020 
 25 05 22 18 30 50.0000000  0 10G05G06G13G14G15G17G19G22G24G30      
  24781027.341     -413778.3590 
  24488504.382    -2272510.0890 
  20192671.392    -1562722.8770 
  22177981.232     -394360.8100 
  22695958.392    -2105102.8770 
  20627761.984     -959474.5300 
  19991737.995    -1570590.2900 
  21183005.003     -718355.1270 
  25396798.099     -947172.2060 
  22354856.870     -665974.7080 
 25 05 22 18 31 00.0000000  0 10G05G06G13G14G15G17G19G22G24G30      
  24784263.529     -453252.7760 
  24483897.129    -2353206.6840 
  20191613.964    -1624768.2050 
  22181982.103     -429827.1600 
  22692358.506    -2180513.8590 
  20629449.488    -1007092.9090 
  19990661.392    -1632736.2210 
  21185596.419     -761225.7020 
  25391608.606    -1030925.9360 
  22357729.462     -707364.4240 
 25 05 22 18 31 10.0000000  0 10G05G06G13G14G15G17G19G22G24G30      
  24787501.067     -492769.2960 
  24479286.362    -2433955.0610 
  20190567.044    -1686787.9280 
  22185981.892     -465332.8590 
  22688764.694    -2255917.1970 
  20631147.501    -1054686.9380 
  19989594.869    -1694852.7170 
  21188189.042     -804119.6300 
  25386413.594    -1114734.5680 
  22360605.979     -748765.8210 
 25 05 22 18 31 20.0000000  0 10G05G06G13G14G15G17G19G22G24G30      
  24790734.623     -532326.5340 
  24474674.188    -2514754.0230 
  20189532.741    -1748781.0100 
  22189982.564     -500876.8240 
  22685180.063    -2331311.7690 
  20632858.273    -1102255.4860 
  19988543.824    -1756938.5870 
  21190785.124     -847035.9370 
  25381217.748    -1198597.0180 
  22363488.388     -790177.8130 
 25 05 22 18 31 30.0000000  0 10G05G06G13G14G15G17G19G22G24G30      
  24793970.127     -571925.9590 
  24470060.241    -2595604.5710 
  20188510.687    -1810748.3520 
  22193981.177     -536460.1770 
  22681605.536    -2406698.5800 
  20634582.154    -1149799.6610 
  19987505.887    -1818994.8480 
  21193385.586     -889975.7990 
  25376018.270    -1282514.3030 
  22366376.894     -831601.4070 
 25 05 22 18 31 40.0000000  0 10G05G06G13G14G15G17G19G22G24G30      
  24797206.507     -611566.6430 
  24465441.876    -2676505.7220 
  20187500.242    -1872689.0060 
  22197977.089     -572082.0750 
  22678038.324    -2482076.7700 
  20636316.784    -1197318.6780 
  19986479.416    -1881020.7620 
  21195986.781     -932938.3840 
  25370814.229    -1366485.5860 
  22369268.851     -873035.7800 
 25 05 22 18 31 50.0000000  0 10G05G06G13G14G15G17G19G22G24G30      
  24800442.814     -651247.9440 
  24460821.148    -2757456.7540 
  20186503.174    -1934602.2410 
  22201976.075     -607741.8640 
  22674480.769    -2557445.5200 
  20638064.791    -1244811.8350 
  19985467.609    -1943015.5650 
  21198592.767     -975923.0510 
  25365609.400    -1450510.0440 
  22372167.175     -914480.1610 
 25 05 22 18 32 00.0000000  0 10G05G06G13G14G15G17G19G22G24G30      
  24803676.593     -690970.8910 
  24456199.611    -2838458.0840 
  20185519.319    -1996488.6280 
  22205976.255     -643440.1870 
  22670932.421    -2632805.4590 
  20639824.581    -1292279.7630 
  19984469.589    -2004979.8340 
  21201200.949    -1018930.4230 
  25360401.758    -1534588.3110 
  22375071.128     -955935.1790 
 25 05 22 18 32 10.0000000  0 10G05G06G13G14G15G17G19G22G24G30      
  24806907.459     -730734.0610 
  24451575.588    -2919508.1740 
  20184548.148    -2058346.7430 
  22209975.525     -679175.6590 
  22667392.892    -2708155.0110 
  20641596.481    -1339721.1080 
  19983484.966    -2066912.0650 
  21203812.656    -1061959.1030 
  25355193.635    -1618718.9320 
  22377980.466     -997399.3810 
 25 05 22 18 32 20.0000000  0 10G05G06G13G14G15G17G19G22G24G30      
  24810139.818     -770537.3680 
  24446948.624    -3000606.7550 
  20183587.627    -2120176.4000 
  22213973.139     -714948.1110 
  22663859.579    -2783494.0050 
  20643379.176    -1387135.6840 
  19982510.709    -2128811.9970 
  21206425.570    -1105008.9590 
  25349981.281    -1702901.6150 
  22380892.871    -1038872.4720 
 25 05 22 18 32 30.0000000  0 10G05G06G13G14G15G17G19G22G24G30      
  24813371.197     -810381.1210 
  24442317.387    -3081754.1980 
  20182640.292    -2181977.8850 
  22217972.206     -750757.9940 
  22660336.018    -2858822.7470 
  20645174.484    -1434523.7660 
  19981549.494    -2190680.1120 
  21209041.940    -1148080.4630 
  25344766.945    -1787136.7900 
  22383811.594    -1080354.9290 
 25 05 22 18 32 40.0000000  0 10G05G06G13G14G15G17G19G22G24G30      
  24816601.375     -850264.7800 
  24437684.807    -3162949.6150 
  20181704.778    -2243750.4880 
  22221971.217     -786604.6530 
  22656823.561    -2934140.5040 
  20646982.043    -1481885.0140 
  19980602.247    -2252515.7450 
  21211661.544    -1191173.0090 
  25339548.690    -1871423.7190 
  22386736.557    -1121845.9950 
 25 05 22 18 32 50.0000000  0 10G05G06G13G14G15G17G19G22G24G30      
  24819832.729     -890187.9370 
  24433051.973    -3244192.5230 
  20180782.174    -2305493.7610 
  22225970.116     -822487.6300 
  22653319.722    -3009446.6870 
  20648802.081    -1529218.9560 
  19979669.053    -2314318.3910 
  21214284.185    -1234286.0620 
  25334324.885    -1955761.9100 
  22389667.132    -1163345.2220 
 25 05 22 18 33 00.0000000  0 10G05G06G13G14G15G17G19G22G24G30      
  24823063.769     -930151.5980 
  24428417.822    -3325483.5500 
  20179872.420    -2367208.4090 
  22229968.844     -858407.7400 
  22649825.871    -3084742.0370 
  20650633.968    -1576526.3230 
  19978748.854    -2376088.7530 
  21216909.660    -1277420.5830 
  25329098.477    -2040152.1060 
  22392602.544    -1204853.3680 
 25 05 22 18 33 10.0000000  0 10G05G06G13G14G15G17G19G22G24G30      
  24826291.057     -970155.6760 
  24423780.778    -3406822.3950 
  20178975.656    -2428894.2130 
  22233967.684     -894364.8740 
  22646342.148    -3160026.3120 
  20652478.273    -1623807.0110 
  19977841.501    -2437826.6460 
  21219538.968    -1320576.3580 
  25323871.036    -2124594.1030 
  22395541.359    -1246370.1860 
 25 05 22 18 33 20.0000000  0 10G05G06G13G14G15G17G19G22G24G30      
  24829515.145    -1010199.7390 
  24419142.537    -3488208.5400 
  20178091.718    -2490550.7140 
  22237966.472     -930358.5280 
  22642868.389    -3235298.9450 
  20654335.833    -1671060.5370 
  19976947.546    -2499531.5650 
  21222170.941    -1363752.9410 
  25318642.970    -2209087.3250 
  22398487.562    -1287895.1690 
 25 05 22 18 33 30.0000000  0 10G05G06G13G14G15G17G19G22G24G30      
  24832739.718    -1050283.9060 
  24414500.918    -3569641.9120 
  20177219.712    -2552177.8890 
  22241965.315     -966388.8570 
  22639401.984    -3310560.0360 
  20656203.322    -1718287.0180 
  19976065.810    -2561203.5900 
  21224805.832    -1406950.4780 
  25313410.525    -2293631.8740 
  22401439.259    -1329428.4300 
 25 05 22 18 33 40.0000000  0 10G05G06G13G14G15G17G19G22G24G30      
  24835965.931    -1090407.3150 
  24409856.360    -3651121.5640 
  20176359.793    -2613774.8870 
  22245964.082    -1002455.0590 
  22635943.801    -3385808.6560 
  20658081.896    -1765485.6900 
  19975198.021    -2622841.8700 
  21227442.507    -1450168.2400 
  25308173.852    -2378226.8730 
  22404396.316    -1370969.0940 
 25 05 22 18 33 50.0000000  0 10G05G06G13G14G15G17G19G22G24G30      
  24839192.650    -1130569.1430 
  24405209.590    -3732646.4200 
  20175510.682    -2675340.5880 
  22249961.351    -1038556.1420 
  22632494.710    -3461043.6770 
  20659972.709    -1812655.5230 
  19974342.184    -2684445.3880 
  21230080.117    -1493405.1730 
  25302934.538    -2462871.2220 
  22407357.028    -1412516.0730 
 25 05 22 18 34 00.0000000  0 10G05G06G13G14G15G17G19G22G24G30      
  24842418.455    -1170769.7310 
  24400560.331    -3814216.5730 
  20174674.965    -2736875.1270 
  22253958.135    -1074692.3170 
  22629055.007    -3536265.2190 
  20661875.915    -1859796.7970 
  19973500.172    -2746014.4520 
  21232722.822    -1536661.5930 
  25297692.592    -2547565.1370 
  22410323.979    -1454069.6370 
 25 05 22 18 34 10.0000000  0 10G05G06G13G14G15G17G19G22G24G30      
  24845636.628                  
  24395910.451    -3895831.0810 
  20173854.225    -2798377.7090 
  22257958.877    -1110862.7890 
  22625626.130    -3611472.3530 
  20663793.811    -1906908.6780 
  19972672.420    -2807547.9120 
  21235371.059    -1579936.6560 
  25292449.453    -2632307.7050 
  22413298.609    -1495628.8170 
 25 05 22 18 34 20.0000000  0 10G05G06G13G14G15G17G19G22G24G30      
  24848861.054    -1088660.9240 
  24391258.096    -3977489.7880 
  20173044.890    -2859848.3530 
  22261958.719    -1147067.5870 
  22622205.081    -3686665.1170 
  20665722.970    -1953991.2500 
  19971857.505    -2869045.8690 
  21238020.542    -1623230.4160 
  25287201.264    -2717098.9040 
  22416276.345    -1537193.6870 
 25 05 22 18 34 30.0000000  0 10G05G06G13G14G15G17G19G22G24G30      
  24852085.550    -1128974.8180 
  24386604.237    -4059191.6940 
  20172245.498    -2921286.0960 
  22265955.768    -1183305.7920 
  22618791.400    -3761842.4700 
  20667660.926    -2001043.6160 
  19971053.820    -2930507.3380 
  21240670.667    -1666541.9800 
  25281947.707    -2801937.7660 
  22419256.870    -1578763.1880 
 25 05 22 18 34 40.0000000  0 10G05G06G13G14G15G17G19G22G24G30      
  24855311.893                  
  24381952.367    -4140936.9050 
  20171463.121    -2982691.0470 
  22269955.522    -1219577.6530 
  22615391.728    -3837004.5820 
  20669615.038    -2048066.0480 
  19970267.865    -2991932.5640 
  21243328.363    -1709871.7500 
  25276695.853    -2886824.4440 
  22422247.396    -1620337.5790 
 25 05 22 18 34 50.0000000  0 10G05G06G13G14G15G17G19G22G24G30      
  24858529.936    -1073282.8490 
  24377291.626    -4222725.0270 
  20170687.325    -3044062.8570 
  22273948.695    -1255882.9020 
  22611995.061    -3912151.1010 
  20671575.733    -2095058.2150 
  19969489.923    -3053321.2460 
  21245983.625    -1753219.2920 
  25271435.556    -2971758.6620 
  22425238.925    -1661916.5610 
 25 05 22 18 35 00.0000000  0 10G05G06G13G14G15G17G19G22G24G30      
  24861751.800                  
  24372629.555    -4304555.6440 
  20169925.940    -3105401.2980 
  22277944.257    -1292221.3390 
  22608610.228    -3987281.7090 
  20673549.550    -2142020.0230 
  19968726.249    -3114673.0390 
  21248642.709    -1796584.4740 
  25266175.504    -3056740.0490 
  22428238.425    -1703499.8250 
 25 05 22 18 35 10.0000000  0 10G05G06G13G14G15G17G19G22G24G30      
  24864971.868    -1102396.2100 
  24367966.116    -4386428.0470 
  20169176.781    -3166705.5630 
  22281939.740    -1328592.2560 
  22605233.329    -4062395.6400 
  20675535.735    -2188950.7490 
  19967975.801    -3175987.2960 
  21251304.289    -1839966.6060 
  25260912.367    -3141767.8770 
  22431242.710    -1745086.6350 
 25 05 22 18 35 20.0000000  0 10G05G06G13G14G15G17G19G22G24G30      
  24868194.504                  
  24363307.392    -4468341.4280 
  20168445.930    -3227974.9430 
  22285941.941    -1364995.0090 
  22601871.304    -4137492.1530 
  20677540.230    -2235849.6780 
  19967244.092    -3237263.2960 
  21253973.875    -1883365.0610 
  25255652.943    -3226841.4510 
  22434256.861    -1786676.3050 
 25 05 22 18 35 30.0000000  0 10G05G06G13G14G15G17G19G22G24G30      
  24871403.145                  
  24358642.114    -4550296.2040 
  20167722.691    -3289209.9010 
  22289938.159    -1401430.2360 
  22598513.313    -4212571.7810 
  20679551.191    -2282717.4940 
  19966519.852    -3298501.6170 
  21256642.057    -1926780.4050 
  25250385.677    -3311961.3200 
  22437269.323    -1828269.4000 
 25 05 22 18 35 40.0000000  0 10G05G06G13G14G15G17G19G22G24G30      
  24874612.180                  
  24353971.507    -4632291.9000 
  20167008.861    -3350410.1510 
  22293931.768    -1437897.5530 
  22595161.155    -4287634.0650 
  20681571.133    -2329553.8600 
  19965807.310    -3359701.8560 
  21259309.490    -1970212.3700 
  25245112.509    -3397127.0240 
  22440286.185    -1869865.4550 
 25 05 22 18 35 50.0000000  0 10G05G06G13G14G15G17G19G22G24G30      
  24877827.414    -1134088.7290 
  24349301.517    -4714327.8650 
  20166311.532    -3411575.0640 
  22297926.709    -1474396.4180 
  22591821.061    -4362678.3820 
  20683606.287    -2376358.2630 
  19965109.695    -3420863.4120 
  21261982.405    -2013660.4530 
  25239839.960    -3482337.9430 
  22443312.108    -1911463.9260 
 25 05 22 18 36 00.0000000  0 10G05G06G13G14G15G17G19G22G24G30      
  24881042.452    -1174732.2580 
  24344630.616    -4796404.2900 
  20165625.885    -3472704.9080 
  22301921.026    -1510927.1320 
  22588491.647    -4437704.9620 
  20685651.406    -2423131.0520 
  19964424.906    -3481986.5900 
  21264657.557    -2057124.9300 
  25234561.920    -3567594.4090 
  22446343.416    -1953065.0990 
 25 05 22 18 36 10.0000000  0 10G05G06G13G14G15G17G19G22G24G30      
  24884254.174    -1215412.4470 
  24339958.117    -4878521.4560 
  20164952.519    -3533800.1140 
  22305915.891    -1547490.1690 
  22585170.079    -4512714.1640 
  20687708.806    -2469872.6860 
  19963753.543    -3543071.8050 
  21267336.692    -2100606.2300 
  25229281.137    -3652896.6930 
  22449379.422    -1994669.3320 
 25 05 22 18 36 20.0000000  0 10G05G06G13G14G15G17G19G22G24G30      
  24887464.483    -1256128.3160 
  24335283.632    -4960678.1870 
  20164292.334    -3594859.4600 
  22309911.774    -1584084.4460 
  22581858.115    -4587704.7710 
  20689779.388    -2516582.0430 
  19963096.363    -3604117.8440 
  21270018.705    -2144103.4150 
  25223999.799    -3738243.7510 
  22452421.455    -2036275.5290 
 25 05 22 18 36 30.0000000  0 10G05G06G13G14G15G17G19G22G24G30      
  24890673.651    -1296881.0590 
  24330606.288    -5042875.2860 
  20163645.318    -3655883.9120 
  22313906.946    -1620710.9160 
  22578557.173    -4662677.6550 
  20691862.995    -2563260.1330 
  19962452.495    -3665125.6660 
  21272703.728    -2187617.3740 
  25218716.891    -3823636.4160 
  22455468.500    -2077884.6090 
 25 05 22 18 36 40.0000000  0 10G05G06G13G14G15G17G19G22G24G30      
  24893882.229    -1337669.7230 
  24325927.783    -5125111.7740 
  20163009.732    -3716872.5080 
  22317901.099    -1657368.7730 
  22575265.800    -4737631.9070 
  20693957.745    -2609906.1890 
  19961820.772    -3726094.4670 
  21275390.593    -2231147.3320 
  25213429.958    -3909073.8200 
  22458520.106    -2119495.6360 
 25 05 22 18 36 50.0000000  0 10G05G06G13G14G15G17G19G22G24G30      
  24897090.769    -1378494.4120 
  24321247.236    -5207387.5480 
  20162387.844    -3777825.1950 
  22321895.213    -1694058.0290 
  22571983.977    -4812567.5030 
  20696064.763    -2656520.1280 
  19961202.891    -3787024.1400 
  21278080.710    -2274693.2870 
  25208140.126    -3994555.8470 
  22461577.970    -2161108.6350 
 25 05 22 18 37 00.0000000  0 10G05G06G13G14G15G17G19G22G24G30      
  24900295.676    -1419354.3800 
  24316565.774    -5289701.6360 
  20161778.635    -3838741.0150 
  22325889.272    -1730777.7720 
  22568711.398    -4887483.4700 
  20698182.887    -2703101.2180 
  19960597.832    -3847913.8130 
  21280774.779    -2318254.3860 
  25202847.518    -4080081.6280 
  22464641.502    -2202722.6390 
 25 05 22 18 37 10.0000000  0 10G05G06G13G14G15G17G19G22G24G30      
  24903499.298    -1460248.9990 
  24311882.742    -5372053.1230 
  20161182.165    -3899619.1490 
  22329884.908    -1767527.3010 
  22565447.409    -4962378.9790 
  20700312.890    -2749648.7360 
  19960006.370    -3908762.7230 
  21283470.997    -2361829.9740 
  25197551.910    -4165650.3270 
  22467710.618    -2244336.8970 
 25 05 22 18 37 20.0000000  0 10G05G06G13G14G15G17G19G22G24G30      
  24906702.917    -1501177.8820 
  24307197.130    -5454441.4400 
  20160598.856    -3960459.2450 
  22333881.256    -1804306.1430 
  22562192.287    -5037253.4460 
  20702455.196    -2796162.1320 
  19959429.071    -3969570.2670 
  21286169.930    -2405419.6020 
  25192253.436    -4251261.4070 
  22470786.169    -2285950.8850 
 25 05 22 18 37 30.0000000  0 10G05G06G13G14G15G17G19G22G24G30      
  24909907.268    -1542141.5120 
  24302510.106    -5536866.9620 
  20160026.869    -4021261.6610 
  22337874.759    -1841114.8140 
  22558944.624    -5112107.3760 
  20704608.967    -2842641.9800 
  19958864.238    -4030336.8810 
  21288869.311    -2449023.7330 
  25186951.259    -4336915.3330 
  22473866.174    -2327565.0820 
 25 05 22 18 37 40.0000000  0 10G05G06G13G14G15G17G19G22G24G30      
  24913111.599    -1583138.8550 
  24297820.771    -5619328.4210 
  20159466.737    -4082025.2750 
  22341866.525    -1877952.2050 
  22555705.955    -5186939.4960 
  20706773.592    -2889087.2470 
  19958312.692    -4091061.6860 
  21291572.247    -2492641.2620 
  25181647.344    -4422610.9290 
  22476950.880    -2369178.3240 
 25 05 22 18 37 50.0000000  0 10G05G06G13G14G15G17G19G22G24G30      
  24916311.497    -1624169.7120 
  24293129.865    -5701825.3390 
  20158918.629    -4142749.5830 
  22345858.151    -1914817.8960 
  22552477.162    -5261749.2690 
  20708948.809    -2935497.4710 
  19957773.026    -4151744.2010 
  21294278.335    -2536271.8150 
  25176342.001    -4508347.6790 
  22480040.168    -2410790.1240 
 25 05 22 18 38 00.0000000  0 10G05G06G13G14G15G17G19G22G24G30      
  24919509.333    -1665234.7380 
  24288436.610    -5784358.3780 
  20158382.195    -4203435.4250 
  22349849.861    -1951712.7770 
  22549258.756    -5336537.5440 
  20711135.843    -2981873.3990 
  19957245.893    -4212385.1910 
  21296985.652    -2579916.2550 
  25171032.736    -4594126.4230 
  22483134.262    -2452401.3450 
 25 05 22 18 38 10.0000000  0 10G05G06G13G14G15G17G19G22G24G30      
  24922706.855    -1706333.8700 
  24283744.043    -5866927.3170 
  20157860.471    -4264082.5560 
  22353843.403    -1988636.6640 
  22546050.196    -5411304.0690 
  20713336.014    -3028215.1220 
  19956733.041    -4272984.3590 
  21299696.089    -2623574.4620 
  25165719.293    -4679946.9170 
  22486234.481    -2494011.7500 
 25 05 22 18 38 20.0000000  0 10G05G06G13G14G15G17G19G22G24G30      
  24925903.476    -1747465.9500 
  24279049.574    -5949530.6630 
  20157352.872    -4324689.6540 
  22357836.330    -2025588.2680 
  22542851.896    -5486047.4940 
  20715550.166    -3074521.3350 
  19956234.314    -4333540.3940 
  21302410.347    -2667245.1570 
  25160404.807    -4765807.7970 
  22489341.098    -2535620.0280 
 25 05 22 18 38 30.0000000  0 10G05G06G13G14G15G17G19G22G24G30      
  24929098.006    -1788630.9600 
  24274351.584    -6032168.0640 
  20156855.488    -4385256.4310 
  22361828.026    -2062567.4220 
  22539662.810    -5560767.5680 
  20717774.248    -3120791.8610 
  19955747.089    -4394053.0880 
  21305126.521    -2710928.1940 
  25155088.516    -4851708.8020 
  22492452.349    -2577225.8930 
 25 05 22 18 38 40.0000000  0 10G05G06G13G14G15G17G19G22G24G30      
  24932291.825    -1829827.6650 
  24269652.309    -6114838.3220 
  20156371.272    -4445781.6330 
  22365818.437    -2099572.9430 
  22536481.311    -5635463.0210 
  20720008.349    -3167025.5680 
  19955273.462    -4454521.2970 
  21307844.559    -2754622.5370 
  25149769.797    -4937648.7030 
  22495568.898    -2618828.2090 
 25 05 22 18 38 50.0000000  0 10G05G06G13G14G15G17G19G22G24G30      
  24935484.799    -1871054.7610 
  24264952.619    -6197539.8990 
  20155900.520    -4506263.8410 
  22369809.435    -2136603.4660 
  22533309.699    -5710132.3890 
  20722255.771    -3213221.0490 
  19954813.013    -4514943.5360 
  21310565.330    -2798326.8330 
  25144446.369    -5023626.0810 
  22498691.757    -2660425.5240 
 25 05 22 18 39 00.0000000  0 10G05G06G13G14G15G17G19G22G24G30      
  24938676.307    -1912313.4310 
  24260251.749    -6280273.7010 
  20155442.326    -4566704.0740 
  22373801.829    -2173660.0360 
  22530148.785    -5784776.6390 
  20724514.463    -3259379.3830 
  19954366.266    -4575320.8580 
  21313287.926    -2842041.9210 
  25139119.472    -5109641.8940 
  22501819.160    -2702018.7940 
 25 05 22 18 39 10.0000000  0 10G05G06G13G14G15G17G19G22G24G30      
  24941865.774    -1953603.7830 
  24255549.124    -6363039.5760 
  20154996.828    -4627102.2860 
  22377793.898    -2210742.6530 
  22526997.562    -5859395.7050 
  20726785.566    -3305500.6340 
  19953932.931    -4635653.2240 
  21316014.347    -2885767.8750 
  25133790.390    -5195696.1200 
  22504952.535    -2743608.0400 
 25 05 22 18 39 20.0000000  0 10G05G06G13G14G15G17G19G22G24G30      
  24945053.332    -1994924.4890 
  24250844.876    -6445836.1800 
  20154563.302    -4687457.2430 
  22381785.489    -2247850.1070 
  22523855.305    -5933988.2300 
  20729069.212    -3351583.5220 
  19953512.855    -4695939.4380 
  21318744.869    -2929503.5570 
  25128459.685    -5281787.4020 
  22508090.582    -2785191.9450 
 25 05 22 18 39 30.0000000  0 10G05G06G13G14G15G17G19G22G24G30      
  24948240.052    -2036276.3780 
  24246138.216    -6528664.0730 
  20154141.529    -4747769.5850 
  22385775.527    -2284983.0620 
  22520721.512    -6008554.8360 
  20731363.038    -3397628.8100 
  19953105.678    -4756180.0970 
  21321476.557    -2973249.6530 
  25123125.711    -5367916.3850 
  22511234.947    -2826771.1980 
 25 05 22 18 39 40.0000000  0 10G05G06G13G14G15G17G19G22G24G30      
  24951426.227    -2077659.2070 
  24241431.870    -6611522.7810 
  20153732.807    -4808038.9370 
  22389764.591    -2322141.2250 
  22517597.048    -6083095.1500 
  20733668.626    -3443636.2520 
  19952711.980    -4816374.8830 
  21324211.420    -3017005.9400 
  25117788.330    -5454082.6670 
  22514384.777    -2868345.3990 
 25 05 22 18 39 50.0000000  0 10G05G06G13G14G15G17G19G22G24G30      
  24954611.638    -2119071.4910 
  24236723.616    -6694410.7330 
  20153337.342    -4868263.7820 
  22393753.464    -2359323.0860 
  22514482.694    -6157607.5930 
  20735986.471    -3489604.3100 
  19952331.827    -4876522.2270 
  21326947.523    -3060770.8040 
  25112448.467    -5540284.7450 
  22517539.567    -2909913.0430 
 25 05 22 18 40 00.0000000  0 10G05G06G13G14G15G17G19G22G24G30      
  24957792.732    -2160515.0640 
  24232014.335    -6777329.4760 
  20152954.732    -4928445.7210 
  22397743.027    -2396530.3820 
  22511377.473    -6232093.7990 
  20738315.309    -3535534.7450 
  19951964.241    -4936623.8650 
  21329686.320    -3104546.0350 
  25107107.436    -5626524.2090 
  22520699.769    -2951475.8080 
 25 05 22 18 40 10.0000000  0 10G05G06G13G14G15G17G19G22G24G30      
  24960973.163    -2201990.6920 
  24227303.246    -6860279.4960 
  20152584.337    -4988585.2810 
  22401732.070    -2433763.7120 
  22508281.034    -6306554.2640 
  20740655.934    -3581428.1540 
  19951609.443    -4996680.3260 
  21332427.172    -3148332.2600 
  25101763.308    -5712801.6500 
  22523865.175    -2993034.2330 
 25 05 22 18 40 20.0000000  0 10G05G06G13G14G15G17G19G22G24G30      
  24964152.515    -2243496.6720 
  24222589.219    -6943259.0220 
  20152225.885    -5048680.8620 
  22405720.464    -2471021.4530 
  22505194.391    -6380987.3530 
  20743007.642    -3627282.8310 
  19951267.160    -5056689.9610 
  21335170.953    -3192127.8590 
  25096417.673    -5799115.3210 
  22527034.082    -3034586.6230 
 25 05 22 18 40 30.0000000  0 10G05G06G13G14G15G17G19G22G24G30      
  24967329.879    -2285033.8710 
  24217875.206    -7026268.6440 
  20151881.756    -5108733.1310 
  22409708.014    -2508304.3170 
  22502118.065    -6455393.6980 
  20745371.099    -3673099.8260 
  19950938.056    -5116653.4360 
  21337917.037    -3235933.5640 
  25091068.904    -5885465.9400 
  22530209.442    -3076133.7110 
 25 05 22 18 40 40.0000000  0 10G05G06G13G14G15G17G19G22G24G30      
  24970506.195    -2326602.4300 
  24213159.859    -7109308.3410 
  20151549.887    -5168742.1300 
  22413695.232    -2545612.4210 
  22499050.994    -6529773.2770 
  20747746.386    -3718879.2250 
  19950622.500    -5176570.8810 
  21340667.655    -3279749.5550 
  25085716.083    -5971853.5100 
  22533392.197    -3117675.5210 
 25 05 22 18 40 50.0000000  0 10G05G06G13G14G15G17G19G22G24G30      
  24973681.889    -2368201.8080 
  24208443.033    -7192377.3330 
  20151229.560    -5228707.1160 
  22417681.400    -2582945.1040 
  22495992.460    -6604125.3920 
  20750133.358    -3764620.3330 
  19950320.918    -5236441.5760 
  21343419.654    -3323575.1900 
  25080360.638    -6058277.2750 
  22536580.341    -3159211.4140 
 25 05 22 18 41 00.0000000  0 10G05G06G13G14G15G17G19G22G24G30      
  24976854.852    -2409832.2580 
  24203724.905    -7275475.8830 
  20150922.670    -5288628.4690 
  22421667.839    -2620302.7660 
  22492943.356    -6678450.2720 
  20752532.479    -3810323.4390 
  19950032.772    -5296265.9090 
  21346173.643    -3367410.9580 
  25075004.892    -6144737.5830 
  22539772.334    -3200741.6860 
 25 05 22 18 41 10.0000000  0 10G05G06G13G14G15G17G19G22G24G30      
  24980026.934    -2451493.8200 
  24199005.468    -7358603.6710 
  20150627.492    -5348506.0000 
  22425653.256    -2657685.2250 
  22489904.534    -6752747.7940 
  20754942.025    -3855988.4980 
  19949756.483    -5356043.8060 
  21348930.330    -3411256.5490 
  25069644.260    -6231234.2350 
  22542969.029    -3242266.1520 
 25 05 22 18 41 20.0000000  0 10G05G06G13G14G15G17G19G22G24G30      
  24983199.746    -2493185.2670 
  24194285.186    -7441759.3430 
  20150345.207    -5408338.4130 
  22429640.548    -2695091.2620 
  22486875.886    -6827016.6010 
  20757363.032    -3901614.2880 
  19949494.946    -5415773.8870 
  21351689.034    -3455110.7520 
  25064278.205    -6317765.9220 
  22546172.463    -3283783.4830 
 25 05 22 18 41 30.0000000  0 10G05G06G13G14G15G17G19G22G24G30      
  24986369.536    -2534906.9130 
  24189564.458    -7524943.1130 
  20150075.782    -5468126.0610 
  22433626.248    -2732521.2930 
  22483855.519    -6901256.9780 
  20759795.613    -3947201.2460 
  19949246.269    -5475456.4660 
  21354450.153    -3498974.0170 
  25058911.274    -6404332.9280 
  22549380.887    -3325294.1040 
 25 05 22 18 41 40.0000000  0 10G05G06G13G14G15G17G19G22G24G30      
  24989534.726    -2576659.0550 
  24184840.990    -7608154.8780 
  20149819.072    -5527868.7900 
  22437609.780    -2769975.2300 
  22480845.863    -6975468.8310 
  20762239.476    -3992749.3240 
  19949009.306    -5535091.5440 
  21357214.113    -3542846.3030 
  25053545.466    -6490935.1630 
  22552594.013    -3366797.8870 
 25 05 22 18 41 50.0000000  0 10G05G06G13G14G15G17G19G22G24G30      
  24992698.209    -2618440.0530 
  24180117.819    -7691392.7190 
  20149576.967    -5587564.8170 
  22441593.466    -2807451.3560 
  22477846.520    -7049650.3400 
  20764696.514    -4038256.8630 
  19948786.662    -5594677.3230 
  21359981.232    -3586725.9260 
  25048177.523    -6577570.8130 
  22555814.303    -3408293.0450 
 25 05 22 18 42 00.0000000  0 10G05G06G13G14G15G17G19G22G24G30      
  24995860.192    -2660249.3450 
  24175393.290    -7774656.0620 
  20149346.955    -5647213.6740 
  22445577.655    -2844949.1770 
  22474856.265    -7123800.9500 
  20767165.073    -4083723.4090 
  19948576.969    -5654213.3010 
  21362750.284    -3630612.4250 
  25042804.072    -6664239.3510 
  22559041.250    -3449779.0810 
 25 05 22 18 42 10.0000000  0 10G05G06G13G14G15G17G19G22G24G30      
  24999019.061    -2702087.0370 
  24170669.941    -7857944.7090 
  20149130.000    -5706815.3050 
  22449562.737    -2882468.6660 
  22471876.777    -7197920.5260 
  20769646.116    -4129148.8860 
  19948382.336    -5713699.4780 
  21365522.090    -3674505.8690 
  25037428.510    -6750940.6620 
  22562274.956    -3491255.9290 
 25 05 22 18 42 20.0000000  0 10G05G06G13G14G15G17G19G22G24G30      
  25002180.328    -2743952.4170 
  24165941.549    -7941257.8120 
  20148923.742    -5766368.9340 
  22453545.495    -2920009.1240 
  22468906.842    -7272008.3660 
  20772136.855    -4174532.6770 
  19948198.687    -5773135.0530 
  21368294.433    -3718405.4520 
  25032049.765    -6837673.9660 
  22565511.060    -3532722.8290 
 25 05 22 18 42 30.0000000  0 10G05G06G13G14G15G17G19G22G24G30      
  25005338.758                  
  24161212.466    -8024595.5490 
  20148730.100    -5825874.7810 
  22457526.560    -2957570.8510 
  22465944.944    -7346064.6620 
  20774638.349    -4219875.0700 
  19948028.655    -5832520.3650 
  21371070.378    -3762311.5060 
  25026670.472    -6924439.5570 
  22568752.054    -3574180.0230 
 25 05 22 18 42 40.0000000  0 10G05G06G13G14G15G17G19G22G24G30      
  25008494.793                  
  24156481.561    -8107957.3760 
  20148548.946    -5885332.5140 
  22461509.094    -2995153.4420 
  22462990.954    -7420088.8490 
  20777151.759    -4265175.7320 
  19947872.112    -5891854.9660 
  21373846.504    -3806223.6670 
  25021289.786    -7011236.8520 
  22571997.522    -3615627.0960 
 25 05 22 18 42 50.0000000  0 10G05G06G13G14G15G17G19G22G24G30      
  25011644.504                  
  24151748.624    -8191342.9970 
  20148378.495    -5944741.8110 
  22465489.168    -3032756.7360 
  22460046.810    -7494080.7470 
  20779675.014    -4310434.5570 
  19947726.131    -5951138.5850 
  21376624.034    -3850141.7480 
  25015904.494    -7098065.7000 
  22575247.254    -3657063.7910 
 25 05 22 18 43 00.0000000  0 10G05G06G13G14G15G17G19G22G24G30      
  25014802.348                  
  24147016.951    -8274752.8390 
  20148222.187    -6004103.1940 
  22469469.074    -3070381.2370 
  22457113.659    -7568040.8740 
  20782209.835    -4355652.0840 
  19947594.577    -6010371.8270 
  21379405.259    -3894066.3390 
  25010515.743    -7184926.4720 
  22578504.547    -3698490.6560 
 25 05 22 18 43 10.0000000  0 10G05G06G13G14G15G17G19G22G24G30      
  25017960.341                  
  24142284.427    -8358186.5240 
  20148079.479    -6063416.3960 
  22473450.991    -3108026.8060 
  22454190.675    -7641968.8010 
  20784757.541    -4400828.1230 
  19947476.910    -6069554.4570 
  21382190.212    -3937997.2200 
  25005123.422    -7271819.0120 
  22581768.571    -3739907.4220 
 25 05 22 18 43 20.0000000  0  9G06G13G14G15G17G19G22G24G30         
  24137550.834    -8441643.0490 
  20147950.012    -6122680.5030 
  22477432.269    -3145692.4930 
  22451276.497    -7715863.6600 
  20787317.487    -4445961.8440 
  19947371.912    -6128685.5420 
  21384977.530    -3981933.5770 
  24999730.748    -7358742.3080 
  22585037.394    -3781313.1750 
 25 05 22 18 43 30.0000000  0  9G06G13G14G15G17G19G22G24G30         
  24132816.575    -8525123.4570 
  20147832.470    -6181896.6190 
  22481410.734    -3183379.4230 
  22448371.525    -7789726.5980 
  20789887.069    -4491054.4010 
  19947279.841    -6187766.2310 
  21387766.043    -4025876.5310 
  24994333.973    -7445697.4660 
  22588311.418    -3822708.9980 
 25 05 22 18 43 40.0000000  0  9G06G13G14G15G17G19G22G24G30         
  24128080.906    -8608627.2720 
  20147728.401    -6241064.4230 
  22485390.508    -3221087.3950 
  22445477.878    -7863557.1440 
  20792469.407    -4536105.5190 
  19947202.243    -6246796.2170 
  21390557.868    -4069825.8510 
  24988934.644    -7532684.0870 
  22591592.331    -3864094.5820 
 25 05 22 18 43 50.0000000  0  9G06G13G14G15G17G19G22G24G30         
  24123343.311    -8692154.6610 
  20147639.719    -6300184.0780 
  22489371.503    -3258816.6380 
  22442594.467    -7937355.5220 
  20795065.272    -4581115.5680 
  19947139.604    -6305775.7380 
  21393354.062    -4113781.8290 
  24983535.964    -7619702.4240 
  22594880.188    -3905470.1700 
 25 05 22 18 44 00.0000000  0  9G06G13G14G15G17G19G22G24G30         
  24118606.117    -8775705.4570 
  20147561.168    -6359255.6510 
  22493350.181    -3296567.2160 
  22439718.613    -8011121.7650 
  20797670.411    -4626084.5870 
  19947088.384    -6364704.7790 
  21396150.944    -4157744.5340 
  24978133.821    -7706752.4360 
  22598171.167    -3946835.7780 
 25 05 22 18 44 10.0000000  0  9G06G13G14G15G17G19G22G24G30         
  24113866.556    -8859278.3940 
  20147493.559    -6418277.7450 
  22497326.349    -3334337.7170 
  22436850.981    -8084854.3460 
  20800285.060    -4671011.1970 
  19947047.676    -6423582.0040 
  21398948.464    -4201712.6230 
  24972728.454    -7793832.6920 
  22601465.216    -3988189.9710 
 25 05 22 18 44 20.0000000  0  9G06G13G14G15G17G19G22G24G30         
  24109127.390    -8942872.9140 
  20147439.509    -6477250.0220 
  22501302.769    -3372127.8920 
  22433994.189    -8158552.9600 
  20802911.407    -4715895.2480 
  19947021.242    -6482407.1370 
  21401748.525    -4245685.8040 
  24967320.619    -7880942.8600 
  22604765.097    -4029532.4760 
 25 05 22 18 44 30.0000000  0  9G06G13G14G15G17G19G22G24G30         
  24104388.475    -9026488.8090 
  20147397.872    -6536172.4810 
  22505277.723    -3409937.7410 
  22431147.093    -8232217.5410 
  20805549.024    -4760736.8500 
  19947008.940    -6541180.1610 
  21404549.982    -4289664.0560 
  24961909.745    -7968082.8200 
  22608070.238    -4070863.1880 
 25 05 22 18 44 40.0000000  0  9G06G13G14G15G17G19G22G24G30         
  24099646.810    -9110126.5550 
  20147369.369    -6595045.6600 
  22509253.647    -3447767.7700 
  22428311.412    -8305848.4810 
  20808199.059    -4805536.2710 
  19947009.914    -6599901.4430 
  21407354.556    -4333647.9390 
  24956497.122    -8055253.0580 
  22611381.214    -4112182.6360 
 25 05 22 18 44 50.0000000  0  9G06G13G14G15G17G19G22G24G30         
  24094903.362    -9193784.7940 
  20147352.819    -6653868.2370 
  22513229.791    -3485616.7950 
  22425484.394    -8379444.5180 
  20810860.760    -4850292.5420 
  19947022.698    -6658569.8540 
  21410161.639    -4377636.2660 
  24951082.716    -8142452.3060 
  22614698.563    -4153489.5730 
 25 05 22 18 45 00.0000000  0  9G06G13G14G15G17G19G22G24G30         
  24090160.266    -9277464.1660 
  20147349.787    -6712641.0670 
  22517205.430    -3523485.6870 
  22422666.743    -8453006.5380 
  20813533.403    -4895006.6360 
  19947049.571    -6717186.5000 
  21412971.078    -4421629.9390 
  24945665.800    -8229681.3290 
  22618021.272    -4194784.8460 
 25 05 22 18 45 10.0000000  0  9G06G13G14G15G17G19G22G24G30         
  24085417.764    -9361164.6590 
  20147359.224    -6771364.0290 
  22521178.942    -3561374.3970 
  22419858.271    -8526534.3230 
  20816216.370    -4939678.4790 
  19947088.771    -6775751.0570 
  21415782.112    -4465628.9300 
  24940244.183    -8316940.0810 
  22621349.011    -4236068.3380 
 25 05 22 18 45 20.0000000  0  9G06G13G14G15G17G19G22G24G30         
  24080674.881    -9444884.9530 
  20147382.446    -6830035.9260 
  22525152.360    -3599281.7730 
  22417059.864    -8600026.7410 
  20818910.833    -4984306.9070 
  19947141.471    -6834262.3000 
  21418596.056    -4509632.1180 
  24934820.183    -8404227.2660 
  22624682.379    -4277338.8990 
